[
    {
        "name": "D\u0105browa Tarnowska",
        "lat": "50.1667",
        "lng": "20.9833",
        "country": "Poland"
    },
    {
        "name": "Kros\u016bru",
        "lat": "16.5500",
        "lng": "80.1331",
        "country": "India"
    },
    {
        "name": "Sussex",
        "lat": "43.1346",
        "lng": "-88.2226",
        "country": "United States"
    },
    {
        "name": "Derdara",
        "lat": "35.1103",
        "lng": "-5.2872",
        "country": "Morocco"
    },
    {
        "name": "Bugongi",
        "lat": "-0.6356",
        "lng": "30.2528",
        "country": "Uganda"
    },
    {
        "name": "Broome",
        "lat": "-17.9619",
        "lng": "122.2361",
        "country": "Australia"
    },
    {
        "name": "Carmo da Cachoeira",
        "lat": "-21.4608",
        "lng": "-45.2239",
        "country": "Brazil"
    },
    {
        "name": "Patera",
        "lat": "23.9960",
        "lng": "79.6837",
        "country": "India"
    },
    {
        "name": "Downpatrick",
        "lat": "54.3220",
        "lng": "-5.7030",
        "country": "United Kingdom"
    },
    {
        "name": "Ghambiraopet",
        "lat": "18.3000",
        "lng": "78.5833",
        "country": "India"
    },
    {
        "name": "Port Lavaca",
        "lat": "28.6181",
        "lng": "-96.6278",
        "country": "United States"
    },
    {
        "name": "Wanstead",
        "lat": "51.5778",
        "lng": "0.0286",
        "country": "United Kingdom"
    },
    {
        "name": "Muroto-misakicho",
        "lat": "33.2900",
        "lng": "134.1519",
        "country": "Japan"
    },
    {
        "name": "Platteville",
        "lat": "42.7280",
        "lng": "-90.4681",
        "country": "United States"
    },
    {
        "name": "Den Chai",
        "lat": "17.9835",
        "lng": "100.0519",
        "country": "Thailand"
    },
    {
        "name": "Chintalav\u0101di",
        "lat": "10.9511",
        "lng": "78.3158",
        "country": "India"
    },
    {
        "name": "Nyazepetrovsk",
        "lat": "56.0500",
        "lng": "59.6000",
        "country": "Russia"
    },
    {
        "name": "Hole\u0161ov",
        "lat": "49.3333",
        "lng": "17.5783",
        "country": "Czechia"
    },
    {
        "name": "Labbaikkudikk\u0101du",
        "lat": "11.3922",
        "lng": "79.0218",
        "country": "India"
    },
    {
        "name": "Sidi Kasem",
        "lat": "35.5339",
        "lng": "-5.2183",
        "country": "Morocco"
    },
    {
        "name": "Kibungo",
        "lat": "-2.1583",
        "lng": "30.5458",
        "country": "Rwanda"
    },
    {
        "name": "Dharm\u0101ram",
        "lat": "18.7360",
        "lng": "79.2194",
        "country": "India"
    },
    {
        "name": "Mangalkot",
        "lat": "23.5252",
        "lng": "87.9034",
        "country": "India"
    },
    {
        "name": "Port Morant",
        "lat": "17.9000",
        "lng": "-76.3167",
        "country": "Jamaica"
    },
    {
        "name": "Matca",
        "lat": "45.8500",
        "lng": "27.5333",
        "country": "Romania"
    },
    {
        "name": "Pieve di Soligo",
        "lat": "45.8833",
        "lng": "12.1667",
        "country": "Italy"
    },
    {
        "name": "Lamosina",
        "lat": "-21.6400",
        "lng": "46.8989",
        "country": "Madagascar"
    },
    {
        "name": "Weinfelden",
        "lat": "47.5667",
        "lng": "9.1000",
        "country": "Switzerland"
    },
    {
        "name": "Sinzheim",
        "lat": "48.7619",
        "lng": "8.1669",
        "country": "Germany"
    },
    {
        "name": "N\u0101lw\u0101r",
        "lat": "16.9436",
        "lng": "76.9919",
        "country": "India"
    },
    {
        "name": "Roma",
        "lat": "26.4166",
        "lng": "-99.0061",
        "country": "United States"
    },
    {
        "name": "Ta\u00efneste",
        "lat": "34.5573",
        "lng": "-4.1360",
        "country": "Morocco"
    },
    {
        "name": "Krapina",
        "lat": "46.1600",
        "lng": "15.8700",
        "country": "Croatia"
    },
    {
        "name": "Kantilo",
        "lat": "20.3615",
        "lng": "85.1921",
        "country": "India"
    },
    {
        "name": "Saint Helena Bay",
        "lat": "-32.7583",
        "lng": "18.0278",
        "country": "South Africa"
    },
    {
        "name": "Doda",
        "lat": "30.3844",
        "lng": "74.6394",
        "country": "India"
    },
    {
        "name": "M\u012bt Dams\u012bs",
        "lat": "30.8267",
        "lng": "31.2226",
        "country": "Egypt"
    },
    {
        "name": "Sunkarevu",
        "lat": "16.3900",
        "lng": "81.8500",
        "country": "India"
    },
    {
        "name": "B\u0101h\u0101galpur",
        "lat": "24.5934",
        "lng": "87.9536",
        "country": "India"
    },
    {
        "name": "Ichh\u0101pur",
        "lat": "21.1551",
        "lng": "76.1556",
        "country": "India"
    },
    {
        "name": "Moparip\u0101laiyam",
        "lat": "11.1332",
        "lng": "77.1470",
        "country": "India"
    },
    {
        "name": "Maniago",
        "lat": "46.1667",
        "lng": "12.7167",
        "country": "Italy"
    },
    {
        "name": "Okpo",
        "lat": "18.1167",
        "lng": "95.6667",
        "country": "Burma"
    },
    {
        "name": "Nandipeta",
        "lat": "18.9622",
        "lng": "78.1772",
        "country": "India"
    },
    {
        "name": "Eker\u00f6",
        "lat": "59.2833",
        "lng": "17.8000",
        "country": "Sweden"
    },
    {
        "name": "Quatipuru",
        "lat": "-0.8667",
        "lng": "-46.9833",
        "country": "Brazil"
    },
    {
        "name": "Budha Th\u0113h",
        "lat": "31.5177",
        "lng": "75.3009",
        "country": "India"
    },
    {
        "name": "Golet",
        "lat": "19.2390",
        "lng": "79.3891",
        "country": "India"
    },
    {
        "name": "Stelle",
        "lat": "53.3667",
        "lng": "10.1167",
        "country": "Germany"
    },
    {
        "name": "N\u012bd\u0101mangalam",
        "lat": "10.7720",
        "lng": "79.4167",
        "country": "India"
    },
    {
        "name": "Epazoyucan",
        "lat": "20.0177",
        "lng": "-98.6361",
        "country": "Mexico"
    },
    {
        "name": "Sahri",
        "lat": "25.4721",
        "lng": "85.7277",
        "country": "India"
    },
    {
        "name": "Ingurti",
        "lat": "17.6695",
        "lng": "79.8003",
        "country": "India"
    },
    {
        "name": "Ramena",
        "lat": "-12.2333",
        "lng": "49.3500",
        "country": "Madagascar"
    },
    {
        "name": "Calheta",
        "lat": "32.7258",
        "lng": "-17.1658",
        "country": "Portugal"
    },
    {
        "name": "Noeux-les-Mines",
        "lat": "50.4803",
        "lng": "2.6656",
        "country": "France"
    },
    {
        "name": "Doddappan\u0101yakkan\u016br",
        "lat": "9.9810",
        "lng": "77.7340",
        "country": "India"
    },
    {
        "name": "Sh\u0101hpur Baghauni",
        "lat": "25.8831",
        "lng": "85.6859",
        "country": "India"
    },
    {
        "name": "Giffoni Valle Piana",
        "lat": "40.7167",
        "lng": "14.9333",
        "country": "Italy"
    },
    {
        "name": "Cholpon-Ata",
        "lat": "42.6500",
        "lng": "77.0833",
        "country": "Kyrgyzstan"
    },
    {
        "name": "Loyalsock",
        "lat": "41.2743",
        "lng": "-76.9839",
        "country": "United States"
    },
    {
        "name": "Olintla",
        "lat": "20.1000",
        "lng": "-97.6833",
        "country": "Mexico"
    },
    {
        "name": "Jucati",
        "lat": "-8.7000",
        "lng": "-36.4500",
        "country": "Brazil"
    },
    {
        "name": "Velk\u00e9 Mezi\u0159\u00ed\u010d\u00ed",
        "lat": "49.3553",
        "lng": "16.0122",
        "country": "Czechia"
    },
    {
        "name": "Gorey",
        "lat": "52.6770",
        "lng": "-6.2920",
        "country": "Ireland"
    },
    {
        "name": "Kundurpi",
        "lat": "14.2833",
        "lng": "77.0333",
        "country": "India"
    },
    {
        "name": "Drawsko Pomorskie",
        "lat": "53.5333",
        "lng": "15.8000",
        "country": "Poland"
    },
    {
        "name": "Raun",
        "lat": "25.6462",
        "lng": "86.3869",
        "country": "India"
    },
    {
        "name": "Blundellsands",
        "lat": "53.4800",
        "lng": "-3.0500",
        "country": "United Kingdom"
    },
    {
        "name": "Cachoeira Alta",
        "lat": "-18.7558",
        "lng": "-50.9322",
        "country": "Brazil"
    },
    {
        "name": "Desanagi",
        "lat": "16.9200",
        "lng": "76.2400",
        "country": "India"
    },
    {
        "name": "Mirik",
        "lat": "26.8870",
        "lng": "88.1870",
        "country": "India"
    },
    {
        "name": "Grosse Pointe Park",
        "lat": "42.3794",
        "lng": "-82.9287",
        "country": "United States"
    },
    {
        "name": "San Carlos de Guaroa",
        "lat": "3.7111",
        "lng": "-73.2425",
        "country": "Colombia"
    },
    {
        "name": "Hlaingbwe",
        "lat": "17.1333",
        "lng": "97.8333",
        "country": "Burma"
    },
    {
        "name": "Brislington",
        "lat": "51.4316",
        "lng": "-2.5439",
        "country": "United Kingdom"
    },
    {
        "name": "Orchha",
        "lat": "25.3500",
        "lng": "78.6400",
        "country": "India"
    },
    {
        "name": "Doukombo",
        "lat": "14.3550",
        "lng": "-3.6561",
        "country": "Mali"
    },
    {
        "name": "Sagada",
        "lat": "17.0842",
        "lng": "120.9008",
        "country": "Philippines"
    },
    {
        "name": "Nova Odesa",
        "lat": "47.3097",
        "lng": "31.7792",
        "country": "Ukraine"
    },
    {
        "name": "Coronel Dorrego",
        "lat": "-38.7000",
        "lng": "-61.2667",
        "country": "Argentina"
    },
    {
        "name": "Belp",
        "lat": "46.8833",
        "lng": "7.5000",
        "country": "Switzerland"
    },
    {
        "name": "San L\u00e1zaro",
        "lat": "-22.1083",
        "lng": "-57.9700",
        "country": "Paraguay"
    },
    {
        "name": "P\u0101kkam",
        "lat": "13.1436",
        "lng": "80.0280",
        "country": "India"
    },
    {
        "name": "Pipr\u0101hi",
        "lat": "26.5871",
        "lng": "86.3773",
        "country": "India"
    },
    {
        "name": "\u017bejtun",
        "lat": "35.8556",
        "lng": "14.5333",
        "country": "Malta"
    },
    {
        "name": "Xu\u00e2n Tr\u00f9ng",
        "lat": "21.0500",
        "lng": "105.2833",
        "country": "Vietnam"
    },
    {
        "name": "Burley",
        "lat": "42.5379",
        "lng": "-113.7926",
        "country": "United States"
    },
    {
        "name": "Radnevo",
        "lat": "42.3000",
        "lng": "25.9333",
        "country": "Bulgaria"
    },
    {
        "name": "Badou",
        "lat": "7.5833",
        "lng": "0.6000",
        "country": "Togo"
    },
    {
        "name": "H\u00e0ng Tr\u1ea1m",
        "lat": "20.3944",
        "lng": "105.6222",
        "country": "Vietnam"
    },
    {
        "name": "Al M\u2019aziz",
        "lat": "33.6667",
        "lng": "-6.3167",
        "country": "Morocco"
    },
    {
        "name": "Estiva",
        "lat": "-22.4628",
        "lng": "-46.0169",
        "country": "Brazil"
    },
    {
        "name": "Gospi\u0107",
        "lat": "44.5460",
        "lng": "15.3750",
        "country": "Croatia"
    },
    {
        "name": "Dzouz",
        "lat": "31.8900",
        "lng": "-7.3200",
        "country": "Morocco"
    },
    {
        "name": "Beniel",
        "lat": "38.0464",
        "lng": "-1.0014",
        "country": "Spain"
    },
    {
        "name": "Fort Morgan",
        "lat": "40.2537",
        "lng": "-103.7903",
        "country": "United States"
    },
    {
        "name": "Liubashivka",
        "lat": "47.8358",
        "lng": "30.2642",
        "country": "Ukraine"
    },
    {
        "name": "Dang\u2018ara",
        "lat": "40.5831",
        "lng": "70.9100",
        "country": "Uzbekistan"
    },
    {
        "name": "Liman",
        "lat": "38.8733",
        "lng": "48.8139",
        "country": "Azerbaijan"
    }
]