[
    {
        "name": "Tatarbunary",
        "lat": "45.8403",
        "lng": "29.6125",
        "country": "Ukraine"
    },
    {
        "name": "Cass\u00e1 de la Selva",
        "lat": "41.8892",
        "lng": "2.8772",
        "country": "Spain"
    },
    {
        "name": "Khlung",
        "lat": "12.4525",
        "lng": "102.2267",
        "country": "Thailand"
    },
    {
        "name": "Mount Kisco",
        "lat": "41.2016",
        "lng": "-73.7281",
        "country": "United States"
    },
    {
        "name": "Urubici",
        "lat": "-28.0150",
        "lng": "-49.5919",
        "country": "Brazil"
    },
    {
        "name": "Lake Monticello",
        "lat": "37.9210",
        "lng": "-78.3295",
        "country": "United States"
    },
    {
        "name": "Atchison",
        "lat": "39.5625",
        "lng": "-95.1367",
        "country": "United States"
    },
    {
        "name": "Pottipuram",
        "lat": "9.9401",
        "lng": "77.3213",
        "country": "India"
    },
    {
        "name": "South Dundas",
        "lat": "44.9167",
        "lng": "-75.2667",
        "country": "Canada"
    },
    {
        "name": "Dabiya",
        "lat": "12.6714",
        "lng": "-11.1375",
        "country": "Mali"
    },
    {
        "name": "Roseira",
        "lat": "-22.8981",
        "lng": "-45.3053",
        "country": "Brazil"
    },
    {
        "name": "Centen\u00e1rio do Sul",
        "lat": "-22.8000",
        "lng": "-51.6167",
        "country": "Brazil"
    },
    {
        "name": "Pua",
        "lat": "19.1799",
        "lng": "100.9089",
        "country": "Thailand"
    },
    {
        "name": "Mutl\u016bru",
        "lat": "16.1500",
        "lng": "80.4833",
        "country": "India"
    },
    {
        "name": "Chiyoda",
        "lat": "36.2178",
        "lng": "139.4424",
        "country": "Japan"
    },
    {
        "name": "Kha\u0163\u0163\u0101b",
        "lat": "35.1975",
        "lng": "36.6672",
        "country": "Syria"
    },
    {
        "name": "S\u00edtio Novo de Goi\u00e1s",
        "lat": "-5.5167",
        "lng": "-47.4667",
        "country": "Brazil"
    },
    {
        "name": "S\u00e3o Jer\u00f4nimo da Serra",
        "lat": "-23.7167",
        "lng": "-50.7333",
        "country": "Brazil"
    },
    {
        "name": "Igaratinga",
        "lat": "-19.9333",
        "lng": "-44.7000",
        "country": "Brazil"
    },
    {
        "name": "Lavaur",
        "lat": "43.6997",
        "lng": "1.8197",
        "country": "France"
    },
    {
        "name": "Earlestown",
        "lat": "53.4500",
        "lng": "-2.6500",
        "country": "United Kingdom"
    },
    {
        "name": "Khasanya",
        "lat": "43.4333",
        "lng": "43.5750",
        "country": "Russia"
    },
    {
        "name": "Boizenburg",
        "lat": "53.3667",
        "lng": "10.7167",
        "country": "Germany"
    },
    {
        "name": "Jitw\u0101rpur Chauth",
        "lat": "25.8499",
        "lng": "85.8074",
        "country": "India"
    },
    {
        "name": "Reguengos de Monsaraz",
        "lat": "38.4167",
        "lng": "-7.5333",
        "country": "Portugal"
    },
    {
        "name": "Amn\u00e9ville",
        "lat": "49.2614",
        "lng": "6.1425",
        "country": "France"
    },
    {
        "name": "Jauli",
        "lat": "29.4273",
        "lng": "77.8595",
        "country": "India"
    },
    {
        "name": "Van Wert",
        "lat": "40.8651",
        "lng": "-84.5879",
        "country": "United States"
    },
    {
        "name": "R\u0101jgh\u0101t Garail",
        "lat": "25.7618",
        "lng": "87.2126",
        "country": "India"
    },
    {
        "name": "Probi\u0161tip",
        "lat": "41.9936",
        "lng": "22.1767",
        "country": "North Macedonia"
    },
    {
        "name": "Laranja da Terra",
        "lat": "-19.8989",
        "lng": "-41.0569",
        "country": "Brazil"
    },
    {
        "name": "Gamharia",
        "lat": "25.8973",
        "lng": "86.6550",
        "country": "India"
    },
    {
        "name": "Kurw\u0101r",
        "lat": "26.3475",
        "lng": "81.9787",
        "country": "India"
    },
    {
        "name": "Snovsk",
        "lat": "51.8203",
        "lng": "31.9508",
        "country": "Ukraine"
    },
    {
        "name": "Manevychi",
        "lat": "51.2914",
        "lng": "25.5331",
        "country": "Ukraine"
    },
    {
        "name": "R\u0101mpur Kal\u0101n",
        "lat": "26.1649",
        "lng": "77.4691",
        "country": "India"
    },
    {
        "name": "\u017burrieq",
        "lat": "35.8292",
        "lng": "14.4758",
        "country": "Malta"
    },
    {
        "name": "S\u00e3o Lu\u00eds do Curu",
        "lat": "-3.6667",
        "lng": "-39.2333",
        "country": "Brazil"
    },
    {
        "name": "B\u0101nu Chhapra",
        "lat": "26.8098",
        "lng": "84.5201",
        "country": "India"
    },
    {
        "name": "Sugarmill Woods",
        "lat": "28.7299",
        "lng": "-82.5010",
        "country": "United States"
    },
    {
        "name": "Union Park",
        "lat": "28.5657",
        "lng": "-81.2355",
        "country": "United States"
    },
    {
        "name": "Su\u0161ice",
        "lat": "49.2311",
        "lng": "13.5203",
        "country": "Czechia"
    },
    {
        "name": "East Cocalico",
        "lat": "40.2242",
        "lng": "-76.1057",
        "country": "United States"
    },
    {
        "name": "Amatur\u00e1",
        "lat": "-3.3639",
        "lng": "-68.1978",
        "country": "Brazil"
    },
    {
        "name": "S\u00e9r\u00e9kali",
        "lat": "9.9186",
        "lng": "3.0434",
        "country": "Benin"
    },
    {
        "name": "Oliveirinha",
        "lat": "40.6030",
        "lng": "-8.6050",
        "country": "Portugal"
    },
    {
        "name": "D\u00e1rio Meira",
        "lat": "-14.4358",
        "lng": "-39.9078",
        "country": "Brazil"
    },
    {
        "name": "Stephanskirchen",
        "lat": "47.8500",
        "lng": "12.1833",
        "country": "Germany"
    },
    {
        "name": "Biggin Hill",
        "lat": "51.3127",
        "lng": "0.0336",
        "country": "United Kingdom"
    },
    {
        "name": "Kurikuppi",
        "lat": "15.0700",
        "lng": "76.5500",
        "country": "India"
    },
    {
        "name": "Alberique",
        "lat": "39.1167",
        "lng": "-0.5211",
        "country": "Spain"
    },
    {
        "name": "Cividale del Friuli",
        "lat": "46.1000",
        "lng": "13.4333",
        "country": "Italy"
    },
    {
        "name": "Sohw\u0101l",
        "lat": "25.9261",
        "lng": "83.3628",
        "country": "India"
    },
    {
        "name": "San Valentino Torio",
        "lat": "40.7833",
        "lng": "14.6000",
        "country": "Italy"
    },
    {
        "name": "Yuncos",
        "lat": "40.0833",
        "lng": "-3.8667",
        "country": "Spain"
    },
    {
        "name": "Hejam\u0101di",
        "lat": "13.1062",
        "lng": "74.7839",
        "country": "India"
    },
    {
        "name": "Alipur",
        "lat": "18.8621",
        "lng": "78.8754",
        "country": "India"
    },
    {
        "name": "Oliven\u00e7a",
        "lat": "-9.5186",
        "lng": "-37.1906",
        "country": "Brazil"
    },
    {
        "name": "M\u00fclsen",
        "lat": "50.7447",
        "lng": "12.5747",
        "country": "Germany"
    },
    {
        "name": "Keza",
        "lat": "-2.7540",
        "lng": "30.6820",
        "country": "Tanzania"
    },
    {
        "name": "Shepton Mallet",
        "lat": "51.1930",
        "lng": "-2.5460",
        "country": "United Kingdom"
    },
    {
        "name": "Kaurih\u0101r",
        "lat": "26.9650",
        "lng": "84.8462",
        "country": "India"
    },
    {
        "name": "B\u0101lupur",
        "lat": "25.2611",
        "lng": "87.8947",
        "country": "India"
    },
    {
        "name": "Ugrinovci",
        "lat": "44.8783",
        "lng": "20.1869",
        "country": "Serbia"
    },
    {
        "name": "Bile\u0107a",
        "lat": "42.8667",
        "lng": "18.4333",
        "country": "Bosnia and Herzegovina"
    },
    {
        "name": "Rejiche",
        "lat": "35.4667",
        "lng": "11.0333",
        "country": "Tunisia"
    },
    {
        "name": "Holmen",
        "lat": "43.9706",
        "lng": "-91.2654",
        "country": "United States"
    },
    {
        "name": "Le Pont-de-Claix",
        "lat": "45.1289",
        "lng": "5.6989",
        "country": "France"
    },
    {
        "name": "Chh\u0101t\u0101pur",
        "lat": "26.2197",
        "lng": "87.0048",
        "country": "India"
    },
    {
        "name": "Andhana",
        "lat": "25.2574",
        "lng": "85.4548",
        "country": "India"
    },
    {
        "name": "Ty\u0101magondal",
        "lat": "13.2137",
        "lng": "77.3010",
        "country": "India"
    },
    {
        "name": "Borshchiv",
        "lat": "48.8028",
        "lng": "26.0364",
        "country": "Ukraine"
    },
    {
        "name": "Gympie",
        "lat": "-26.1900",
        "lng": "152.6655",
        "country": "Australia"
    },
    {
        "name": "Matomou",
        "lat": "13.8500",
        "lng": "-4.9667",
        "country": "Mali"
    },
    {
        "name": "Darmah\u0101",
        "lat": "26.3663",
        "lng": "84.9312",
        "country": "India"
    },
    {
        "name": "Eugen\u00f3polis",
        "lat": "-21.0989",
        "lng": "-42.1869",
        "country": "Brazil"
    },
    {
        "name": "Icononzo",
        "lat": "4.1833",
        "lng": "-74.5333",
        "country": "Colombia"
    },
    {
        "name": "P\u0101lamedu",
        "lat": "10.1050",
        "lng": "78.1134",
        "country": "India"
    },
    {
        "name": "M\u0101ngobandar",
        "lat": "24.8162",
        "lng": "86.2709",
        "country": "India"
    },
    {
        "name": "Castano Primo",
        "lat": "45.5500",
        "lng": "8.7667",
        "country": "Italy"
    },
    {
        "name": "Amuru",
        "lat": "2.8186",
        "lng": "31.8642",
        "country": "Uganda"
    },
    {
        "name": "Eski Yakkabog\u2018",
        "lat": "38.9314",
        "lng": "66.8389",
        "country": "Uzbekistan"
    },
    {
        "name": "Tallimarjon Shahri",
        "lat": "38.2967",
        "lng": "65.5533",
        "country": "Uzbekistan"
    },
    {
        "name": "Bouchagroun",
        "lat": "34.7217",
        "lng": "5.4656",
        "country": "Algeria"
    },
    {
        "name": "Methil",
        "lat": "56.1844",
        "lng": "-3.0223",
        "country": "United Kingdom"
    },
    {
        "name": "Terra Boa",
        "lat": "-12.3919",
        "lng": "-38.6250",
        "country": "Brazil"
    },
    {
        "name": "Wambrechies",
        "lat": "50.6861",
        "lng": "3.0494",
        "country": "France"
    },
    {
        "name": "Fox Lake",
        "lat": "42.4239",
        "lng": "-88.1844",
        "country": "United States"
    },
    {
        "name": "Panaon",
        "lat": "8.3667",
        "lng": "123.8333",
        "country": "Philippines"
    },
    {
        "name": "Papraur",
        "lat": "25.4413",
        "lng": "86.0378",
        "country": "India"
    },
    {
        "name": "Kara-Tash",
        "lat": "40.2167",
        "lng": "72.6306",
        "country": "Kyrgyzstan"
    },
    {
        "name": "South Union",
        "lat": "39.8705",
        "lng": "-79.7222",
        "country": "United States"
    },
    {
        "name": "Guaraciaba",
        "lat": "-26.5989",
        "lng": "-53.5178",
        "country": "Brazil"
    },
    {
        "name": "Scornice\u015fti",
        "lat": "44.5700",
        "lng": "24.5500",
        "country": "Romania"
    },
    {
        "name": "Barbosa Ferraz",
        "lat": "-24.0667",
        "lng": "-52.0500",
        "country": "Brazil"
    },
    {
        "name": "Capena",
        "lat": "42.1403",
        "lng": "12.5403",
        "country": "Italy"
    },
    {
        "name": "Cornate d\u2019Adda",
        "lat": "45.6500",
        "lng": "9.4667",
        "country": "Italy"
    },
    {
        "name": "Muzaffarnagar",
        "lat": "29.4820",
        "lng": "77.7000",
        "country": "India"
    },
    {
        "name": "Scaggsville",
        "lat": "39.1416",
        "lng": "-76.8843",
        "country": "United States"
    },
    {
        "name": "Timonium",
        "lat": "39.4459",
        "lng": "-76.6032",
        "country": "United States"
    }
]