[
    {
        "name": "Manakambahiny",
        "lat": "-17.8000",
        "lng": "48.3333",
        "country": "Madagascar"
    },
    {
        "name": "Ambodimotso Atsimo",
        "lat": "-15.3833",
        "lng": "48.6000",
        "country": "Madagascar"
    },
    {
        "name": "Ampasimanjeva",
        "lat": "-21.7333",
        "lng": "48.0333",
        "country": "Madagascar"
    },
    {
        "name": "Iarintsena",
        "lat": "-21.8167",
        "lng": "46.8667",
        "country": "Madagascar"
    },
    {
        "name": "Andranovorivato",
        "lat": "-21.6333",
        "lng": "46.9833",
        "country": "Madagascar"
    },
    {
        "name": "Bemanonga",
        "lat": "-20.2833",
        "lng": "44.3500",
        "country": "Madagascar"
    },
    {
        "name": "Vohimasina",
        "lat": "-21.7333",
        "lng": "48.1333",
        "country": "Madagascar"
    },
    {
        "name": "Andilanatoby",
        "lat": "-17.9333",
        "lng": "48.2333",
        "country": "Madagascar"
    },
    {
        "name": "Alakamisy-Ambohimaha",
        "lat": "-21.3167",
        "lng": "47.2167",
        "country": "Madagascar"
    },
    {
        "name": "Ambalaroka",
        "lat": "-22.1333",
        "lng": "47.7333",
        "country": "Madagascar"
    },
    {
        "name": "Jafaro",
        "lat": "-24.9167",
        "lng": "45.5167",
        "country": "Madagascar"
    },
    {
        "name": "Ankiabe-Salohy",
        "lat": "-15.6000",
        "lng": "48.7167",
        "country": "Madagascar"
    },
    {
        "name": "Antsakabary",
        "lat": "-15.0500",
        "lng": "48.9333",
        "country": "Madagascar"
    },
    {
        "name": "Uch Sharif",
        "lat": "29.2333",
        "lng": "71.0667",
        "country": "Pakistan"
    },
    {
        "name": "Lebane",
        "lat": "42.9167",
        "lng": "21.7333",
        "country": "Serbia"
    },
    {
        "name": "Huskvarna",
        "lat": "57.8000",
        "lng": "14.2667",
        "country": "Sweden"
    },
    {
        "name": "Kigumba",
        "lat": "1.8150",
        "lng": "32.0100",
        "country": "Uganda"
    },
    {
        "name": "Hac\u0131 Zeynalabdin",
        "lat": "40.6233",
        "lng": "49.5586",
        "country": "Azerbaijan"
    },
    {
        "name": "Aoshang",
        "lat": "25.6842",
        "lng": "113.0322",
        "country": "China"
    },
    {
        "name": "Atherton",
        "lat": "53.5230",
        "lng": "-2.4950",
        "country": "United Kingdom"
    },
    {
        "name": "Clevedon",
        "lat": "51.4380",
        "lng": "-2.8540",
        "country": "United Kingdom"
    },
    {
        "name": "Bukkar\u0101yasamudram",
        "lat": "14.6944",
        "lng": "77.6381",
        "country": "India"
    },
    {
        "name": "Machagai",
        "lat": "-26.9167",
        "lng": "-60.0333",
        "country": "Argentina"
    },
    {
        "name": "Unchahra",
        "lat": "24.3825",
        "lng": "80.7809",
        "country": "India"
    },
    {
        "name": "G\u00f6d",
        "lat": "47.6906",
        "lng": "19.1344",
        "country": "Hungary"
    },
    {
        "name": "Kotovo",
        "lat": "50.3000",
        "lng": "44.8167",
        "country": "Russia"
    },
    {
        "name": "Zundert",
        "lat": "51.4667",
        "lng": "4.6667",
        "country": "Netherlands"
    },
    {
        "name": "Dr\u0101s",
        "lat": "34.4468",
        "lng": "75.7586",
        "country": "India"
    },
    {
        "name": "Gaviman\u00e9",
        "lat": "15.1167",
        "lng": "-9.9000",
        "country": "Mali"
    },
    {
        "name": "Taminango",
        "lat": "1.5667",
        "lng": "-77.2833",
        "country": "Colombia"
    },
    {
        "name": "Bilthoven",
        "lat": "52.1283",
        "lng": "5.1986",
        "country": "Netherlands"
    },
    {
        "name": "Al B\u0101\u1e29ah",
        "lat": "20.0125",
        "lng": "41.4653",
        "country": "Saudi Arabia"
    },
    {
        "name": "Pitrufqu\u00e9n",
        "lat": "-38.9833",
        "lng": "-72.6500",
        "country": "Chile"
    },
    {
        "name": "N\u00e9ma",
        "lat": "16.6167",
        "lng": "-7.2500",
        "country": "Mauritania"
    },
    {
        "name": "Vilyuchinsk",
        "lat": "52.9306",
        "lng": "158.4028",
        "country": "Russia"
    },
    {
        "name": "Pinhalzinho",
        "lat": "-26.8478",
        "lng": "-52.9919",
        "country": "Brazil"
    },
    {
        "name": "Khosrowshahr",
        "lat": "37.9497",
        "lng": "46.0508",
        "country": "Iran"
    },
    {
        "name": "Ampanotokana",
        "lat": "-18.7167",
        "lng": "47.3000",
        "country": "Madagascar"
    },
    {
        "name": "Vereshchagino",
        "lat": "58.1000",
        "lng": "54.6667",
        "country": "Russia"
    },
    {
        "name": "Iracem\u00e1polis",
        "lat": "-22.5806",
        "lng": "-47.5186",
        "country": "Brazil"
    },
    {
        "name": "San Rafael del Yuma",
        "lat": "18.4333",
        "lng": "-68.6667",
        "country": "Dominican Republic"
    },
    {
        "name": "Djinet",
        "lat": "36.8833",
        "lng": "3.7167",
        "country": "Algeria"
    },
    {
        "name": "Robbah",
        "lat": "33.2811",
        "lng": "6.9108",
        "country": "Algeria"
    },
    {
        "name": "Arroio do Meio",
        "lat": "-29.4008",
        "lng": "-51.9450",
        "country": "Brazil"
    },
    {
        "name": "Kuppam",
        "lat": "12.7500",
        "lng": "78.3700",
        "country": "India"
    },
    {
        "name": "Koekelberg",
        "lat": "50.8667",
        "lng": "4.3333",
        "country": "Belgium"
    },
    {
        "name": "Vertentes",
        "lat": "-7.9028",
        "lng": "-35.9878",
        "country": "Brazil"
    },
    {
        "name": "Koksijde",
        "lat": "51.1000",
        "lng": "2.6500",
        "country": "Belgium"
    },
    {
        "name": "Dudelange",
        "lat": "49.4833",
        "lng": "6.0833",
        "country": "Luxembourg"
    },
    {
        "name": "Villa de Leyva",
        "lat": "5.6333",
        "lng": "-73.5333",
        "country": "Colombia"
    },
    {
        "name": "Darien",
        "lat": "41.7448",
        "lng": "-87.9822",
        "country": "United States"
    },
    {
        "name": "S\u00earro",
        "lat": "-18.6050",
        "lng": "-43.3790",
        "country": "Brazil"
    },
    {
        "name": "Valinda",
        "lat": "34.0400",
        "lng": "-117.9300",
        "country": "United States"
    },
    {
        "name": "Glauchau",
        "lat": "50.8233",
        "lng": "12.5444",
        "country": "Germany"
    },
    {
        "name": "Ch\u0101kia",
        "lat": "26.4160",
        "lng": "85.0467",
        "country": "India"
    },
    {
        "name": "Poch\u0101ram",
        "lat": "17.4255",
        "lng": "78.6450",
        "country": "India"
    },
    {
        "name": "Diamantino",
        "lat": "-14.4089",
        "lng": "-56.4458",
        "country": "Brazil"
    },
    {
        "name": "Mundam\u0101la",
        "lat": "24.6081",
        "lng": "88.4728",
        "country": "Bangladesh"
    },
    {
        "name": "New Hartford",
        "lat": "43.0586",
        "lng": "-75.2821",
        "country": "United States"
    },
    {
        "name": "R\u0101mantali",
        "lat": "12.0500",
        "lng": "75.1833",
        "country": "India"
    },
    {
        "name": "\u1e28\u0101rim",
        "lat": "36.2000",
        "lng": "36.5167",
        "country": "Syria"
    },
    {
        "name": "\u1ea4p Ph\u00fa M\u1ef9",
        "lat": "9.7500",
        "lng": "106.0000",
        "country": "Vietnam"
    },
    {
        "name": "Robertson",
        "lat": "-33.8000",
        "lng": "19.8833",
        "country": "South Africa"
    },
    {
        "name": "Svetlyy",
        "lat": "54.6667",
        "lng": "20.1333",
        "country": "Russia"
    },
    {
        "name": "Tornio",
        "lat": "65.8500",
        "lng": "24.1500",
        "country": "Finland"
    },
    {
        "name": "Nakagusuku",
        "lat": "26.2678",
        "lng": "127.7914",
        "country": "Japan"
    },
    {
        "name": "Samba Cango",
        "lat": "-9.1000",
        "lng": "15.5500",
        "country": "Angola"
    },
    {
        "name": "Mazag\u00e3o",
        "lat": "-0.1150",
        "lng": "-51.2889",
        "country": "Brazil"
    },
    {
        "name": "Chambersburg",
        "lat": "39.9315",
        "lng": "-77.6556",
        "country": "United States"
    },
    {
        "name": "Sandbach",
        "lat": "53.1460",
        "lng": "-2.3670",
        "country": "United Kingdom"
    },
    {
        "name": "Chalchihuit\u00e1n",
        "lat": "17.0333",
        "lng": "-92.6167",
        "country": "Mexico"
    },
    {
        "name": "Axapusco",
        "lat": "19.7194",
        "lng": "-98.7972",
        "country": "Mexico"
    },
    {
        "name": "Ituber\u00e1",
        "lat": "-13.7333",
        "lng": "-39.1500",
        "country": "Brazil"
    },
    {
        "name": "Nerja",
        "lat": "36.7469",
        "lng": "-3.8789",
        "country": "Spain"
    },
    {
        "name": "Mak\u00f3",
        "lat": "46.2170",
        "lng": "20.4830",
        "country": "Hungary"
    },
    {
        "name": "G\u014dtsuch\u014d",
        "lat": "35.0117",
        "lng": "132.2178",
        "country": "Japan"
    },
    {
        "name": "St. Andrews",
        "lat": "34.0510",
        "lng": "-81.1057",
        "country": "United States"
    },
    {
        "name": "Aichach",
        "lat": "48.4500",
        "lng": "11.1333",
        "country": "Germany"
    },
    {
        "name": "Al Fu\u1e29ay\u015f",
        "lat": "32.0167",
        "lng": "35.7667",
        "country": "Jordan"
    },
    {
        "name": "Krathum Baen",
        "lat": "13.6631",
        "lng": "100.2572",
        "country": "Thailand"
    },
    {
        "name": "Pascagoula",
        "lat": "30.3666",
        "lng": "-88.5506",
        "country": "United States"
    },
    {
        "name": "Pak Tin Pa",
        "lat": "22.3364",
        "lng": "114.1667",
        "country": "Hong Kong"
    },
    {
        "name": "Bungotakada",
        "lat": "33.5561",
        "lng": "131.4469",
        "country": "Japan"
    },
    {
        "name": "Membakut",
        "lat": "5.4667",
        "lng": "115.7833",
        "country": "Malaysia"
    },
    {
        "name": "S\u00e3o Miguel do Araguaia",
        "lat": "-13.2889",
        "lng": "-50.1542",
        "country": "Brazil"
    },
    {
        "name": "Sayada",
        "lat": "35.9500",
        "lng": "0.1333",
        "country": "Algeria"
    },
    {
        "name": "K\u0101chh\u0101ri",
        "lat": "22.0808",
        "lng": "88.6511",
        "country": "India"
    },
    {
        "name": "Darreh Shahr",
        "lat": "33.1431",
        "lng": "47.3794",
        "country": "Iran"
    },
    {
        "name": "\u00c1rta",
        "lat": "39.1650",
        "lng": "20.9875",
        "country": "Greece"
    },
    {
        "name": "B\u00e9gu\u00e9do",
        "lat": "11.7833",
        "lng": "-0.7333",
        "country": "Burkina Faso"
    },
    {
        "name": "S\u00e3o Francisco de Paula",
        "lat": "-29.4444",
        "lng": "-50.5806",
        "country": "Brazil"
    },
    {
        "name": "Lom",
        "lat": "43.8256",
        "lng": "23.2375",
        "country": "Bulgaria"
    },
    {
        "name": "Muzambinho",
        "lat": "-21.3758",
        "lng": "-46.5258",
        "country": "Brazil"
    },
    {
        "name": "Vanthli",
        "lat": "21.4778",
        "lng": "70.3306",
        "country": "India"
    },
    {
        "name": "Kueneng",
        "lat": "-29.0161",
        "lng": "27.9981",
        "country": "Lesotho"
    },
    {
        "name": "P\u00f3voa de Lanhoso",
        "lat": "41.5667",
        "lng": "-8.2667",
        "country": "Portugal"
    },
    {
        "name": "Pio XII",
        "lat": "-3.8833",
        "lng": "-45.2833",
        "country": "Brazil"
    },
    {
        "name": "Caranavi",
        "lat": "-15.8333",
        "lng": "-67.5667",
        "country": "Bolivia"
    },
    {
        "name": "Alfafar",
        "lat": "39.4222",
        "lng": "-0.3906",
        "country": "Spain"
    },
    {
        "name": "Frameries",
        "lat": "50.4000",
        "lng": "3.9000",
        "country": "Belgium"
    }
]