[
    {
        "name": "\u2019A\u00efn Merane",
        "lat": "36.1628",
        "lng": "0.9706",
        "country": "Algeria"
    },
    {
        "name": "Tadmur",
        "lat": "34.5600",
        "lng": "38.2672",
        "country": "Syria"
    },
    {
        "name": "Rastatt",
        "lat": "48.8500",
        "lng": "8.2000",
        "country": "Germany"
    },
    {
        "name": "Samut Prakan",
        "lat": "13.5897",
        "lng": "100.6386",
        "country": "Thailand"
    },
    {
        "name": "Kalawana",
        "lat": "6.5315",
        "lng": "80.3967",
        "country": "Sri Lanka"
    },
    {
        "name": "Sap\u00e9",
        "lat": "-7.0950",
        "lng": "-35.2328",
        "country": "Brazil"
    },
    {
        "name": "L\u0259nk\u0259ran",
        "lat": "38.7536",
        "lng": "48.8511",
        "country": "Azerbaijan"
    },
    {
        "name": "Rinc\u00f3n de la Victoria",
        "lat": "36.7167",
        "lng": "-4.2833",
        "country": "Spain"
    },
    {
        "name": "Kyzyl-Kyya",
        "lat": "40.2611",
        "lng": "72.1306",
        "country": "Kyrgyzstan"
    },
    {
        "name": "Palm Desert",
        "lat": "33.7378",
        "lng": "-116.3695",
        "country": "United States"
    },
    {
        "name": "Puerto Francisco de Orellana",
        "lat": "-0.4625",
        "lng": "-76.9842",
        "country": "Ecuador"
    },
    {
        "name": "Cutervo",
        "lat": "-6.3778",
        "lng": "-78.8167",
        "country": "Peru"
    },
    {
        "name": "Peran\u0101mpattu",
        "lat": "12.9387",
        "lng": "78.7028",
        "country": "India"
    },
    {
        "name": "Guarne",
        "lat": "6.2800",
        "lng": "-75.4427",
        "country": "Colombia"
    },
    {
        "name": "Tamalous",
        "lat": "36.8361",
        "lng": "6.6417",
        "country": "Algeria"
    },
    {
        "name": "Racib\u00f3rz",
        "lat": "50.0833",
        "lng": "18.2333",
        "country": "Poland"
    },
    {
        "name": "Rongat",
        "lat": "12.4667",
        "lng": "92.9333",
        "country": "India"
    },
    {
        "name": "W\u0101li\u1e45",
        "lat": "27.9889",
        "lng": "83.7675",
        "country": "Nepal"
    },
    {
        "name": "Dartford",
        "lat": "51.4444",
        "lng": "0.2172",
        "country": "United Kingdom"
    },
    {
        "name": "Dabhoi",
        "lat": "22.1376",
        "lng": "73.4162",
        "country": "India"
    },
    {
        "name": "Montijo",
        "lat": "38.6833",
        "lng": "-8.9000",
        "country": "Portugal"
    },
    {
        "name": "Sartrouville",
        "lat": "48.9372",
        "lng": "2.1644",
        "country": "France"
    },
    {
        "name": "Severomorsk",
        "lat": "69.0667",
        "lng": "33.4167",
        "country": "Russia"
    },
    {
        "name": "Herning",
        "lat": "56.1333",
        "lng": "8.9833",
        "country": "Denmark"
    },
    {
        "name": "Salekhard",
        "lat": "66.5333",
        "lng": "66.6000",
        "country": "Russia"
    },
    {
        "name": "Bargny",
        "lat": "14.6939",
        "lng": "-17.2336",
        "country": "Senegal"
    },
    {
        "name": "Bhav\u0101ni",
        "lat": "11.4455",
        "lng": "77.6821",
        "country": "India"
    },
    {
        "name": "Puthuppariy\u0101ram",
        "lat": "10.8036",
        "lng": "76.6221",
        "country": "India"
    },
    {
        "name": "Mascouche",
        "lat": "45.7500",
        "lng": "-73.6000",
        "country": "Canada"
    },
    {
        "name": "Collierville",
        "lat": "35.0470",
        "lng": "-89.6987",
        "country": "United States"
    },
    {
        "name": "Sidlaghatta",
        "lat": "13.3900",
        "lng": "77.8600",
        "country": "India"
    },
    {
        "name": "J\u016brmala",
        "lat": "56.9681",
        "lng": "23.7703",
        "country": "Latvia"
    },
    {
        "name": "Kor\u00e7\u00eb",
        "lat": "40.6167",
        "lng": "20.7667",
        "country": "Albania"
    },
    {
        "name": "Levittown",
        "lat": "40.1533",
        "lng": "-74.8531",
        "country": "United States"
    },
    {
        "name": "Leopoldina",
        "lat": "-21.5319",
        "lng": "-42.6428",
        "country": "Brazil"
    },
    {
        "name": "Martin",
        "lat": "49.0650",
        "lng": "18.9219",
        "country": "Slovakia"
    },
    {
        "name": "Tsukubamirai",
        "lat": "35.9631",
        "lng": "140.0370",
        "country": "Japan"
    },
    {
        "name": "Barra",
        "lat": "-11.0889",
        "lng": "-43.1419",
        "country": "Brazil"
    },
    {
        "name": "Brejo Santo",
        "lat": "-7.4833",
        "lng": "-39.0000",
        "country": "Brazil"
    },
    {
        "name": "Marpalli",
        "lat": "17.5389",
        "lng": "77.7708",
        "country": "India"
    },
    {
        "name": "Bowringpet",
        "lat": "12.9912",
        "lng": "78.1780",
        "country": "India"
    },
    {
        "name": "Knysna",
        "lat": "-34.0356",
        "lng": "23.0489",
        "country": "South Africa"
    },
    {
        "name": "Sar-e Pul",
        "lat": "36.2214",
        "lng": "65.9278",
        "country": "Afghanistan"
    },
    {
        "name": "Ocampo",
        "lat": "13.5594",
        "lng": "123.3761",
        "country": "Philippines"
    },
    {
        "name": "San Narciso",
        "lat": "13.5677",
        "lng": "122.5667",
        "country": "Philippines"
    },
    {
        "name": "Hodal",
        "lat": "27.8940",
        "lng": "77.3690",
        "country": "India"
    },
    {
        "name": "Snezhinsk",
        "lat": "56.0833",
        "lng": "60.7333",
        "country": "Russia"
    },
    {
        "name": "Fatwa",
        "lat": "25.5096",
        "lng": "85.3050",
        "country": "India"
    },
    {
        "name": "Rosemead",
        "lat": "34.0689",
        "lng": "-118.0823",
        "country": "United States"
    },
    {
        "name": "Rosso",
        "lat": "16.5128",
        "lng": "-15.8050",
        "country": "Mauritania"
    },
    {
        "name": "Kot Mumin",
        "lat": "32.1883",
        "lng": "73.0286",
        "country": "Pakistan"
    },
    {
        "name": "Shimencun",
        "lat": "30.6265",
        "lng": "120.4417",
        "country": "China"
    },
    {
        "name": "Segovia",
        "lat": "40.9481",
        "lng": "-4.1183",
        "country": "Spain"
    },
    {
        "name": "Kalb\u0101",
        "lat": "25.0742",
        "lng": "56.3553",
        "country": "United Arab Emirates"
    },
    {
        "name": "Iormughanlo",
        "lat": "41.5961",
        "lng": "45.5294",
        "country": "Georgia"
    },
    {
        "name": "Um\u00e1n",
        "lat": "20.8833",
        "lng": "-89.7500",
        "country": "Mexico"
    },
    {
        "name": "Country Club",
        "lat": "25.9407",
        "lng": "-80.3102",
        "country": "United States"
    },
    {
        "name": "Tucur\u00fa",
        "lat": "15.3000",
        "lng": "-90.0667",
        "country": "Guatemala"
    },
    {
        "name": "Massy",
        "lat": "48.7309",
        "lng": "2.2713",
        "country": "France"
    },
    {
        "name": "Enid",
        "lat": "36.4063",
        "lng": "-97.8700",
        "country": "United States"
    },
    {
        "name": "Horsham",
        "lat": "51.0620",
        "lng": "-0.3250",
        "country": "United Kingdom"
    },
    {
        "name": "Cumbernauld",
        "lat": "55.9450",
        "lng": "-3.9940",
        "country": "United Kingdom"
    },
    {
        "name": "Pardw\u0101l",
        "lat": "32.3286",
        "lng": "76.1153",
        "country": "India"
    },
    {
        "name": "Djamaa",
        "lat": "33.5333",
        "lng": "6.0000",
        "country": "Algeria"
    },
    {
        "name": "Cuyahoga Falls",
        "lat": "41.1641",
        "lng": "-81.5207",
        "country": "United States"
    },
    {
        "name": "Guaxup\u00e9",
        "lat": "-21.3050",
        "lng": "-46.7128",
        "country": "Brazil"
    },
    {
        "name": "Tobias Barreto",
        "lat": "-11.1839",
        "lng": "-37.9978",
        "country": "Brazil"
    },
    {
        "name": "Esher",
        "lat": "51.3691",
        "lng": "-0.3650",
        "country": "United Kingdom"
    },
    {
        "name": "Metpalli",
        "lat": "18.8492",
        "lng": "78.6262",
        "country": "India"
    },
    {
        "name": "Kalamansig",
        "lat": "6.5700",
        "lng": "124.0500",
        "country": "Philippines"
    },
    {
        "name": "Mishawaka",
        "lat": "41.6742",
        "lng": "-86.1666",
        "country": "United States"
    },
    {
        "name": "Andover",
        "lat": "51.2080",
        "lng": "-1.4800",
        "country": "United Kingdom"
    },
    {
        "name": "Kirishi",
        "lat": "59.4500",
        "lng": "32.0167",
        "country": "Russia"
    },
    {
        "name": "Juruti",
        "lat": "-2.1522",
        "lng": "-56.0922",
        "country": "Brazil"
    },
    {
        "name": "Bab\u012bl\u0101",
        "lat": "33.4728",
        "lng": "36.3344",
        "country": "Syria"
    },
    {
        "name": "Silkeborg",
        "lat": "56.1833",
        "lng": "9.5517",
        "country": "Denmark"
    },
    {
        "name": "Repalle",
        "lat": "16.0172",
        "lng": "80.8294",
        "country": "India"
    },
    {
        "name": "Huaiyang",
        "lat": "37.7701",
        "lng": "114.5312",
        "country": "China"
    },
    {
        "name": "Skenderaj",
        "lat": "42.7333",
        "lng": "20.7833",
        "country": "Kosovo"
    },
    {
        "name": "Mabini",
        "lat": "13.7200",
        "lng": "120.9000",
        "country": "Philippines"
    },
    {
        "name": "Ky\u014dtango",
        "lat": "35.6242",
        "lng": "135.0611",
        "country": "Japan"
    },
    {
        "name": "Miyako",
        "lat": "39.6414",
        "lng": "141.9571",
        "country": "Japan"
    },
    {
        "name": "Pontal",
        "lat": "-21.0225",
        "lng": "-48.0372",
        "country": "Brazil"
    },
    {
        "name": "Campos do Jord\u00e3o",
        "lat": "-22.7389",
        "lng": "-45.5908",
        "country": "Brazil"
    },
    {
        "name": "Teplice",
        "lat": "50.6444",
        "lng": "13.8319",
        "country": "Czechia"
    },
    {
        "name": "Summerville",
        "lat": "33.0016",
        "lng": "-80.1799",
        "country": "United States"
    },
    {
        "name": "Vigia",
        "lat": "-0.8583",
        "lng": "-48.1417",
        "country": "Brazil"
    },
    {
        "name": "Livingston",
        "lat": "55.8834",
        "lng": "-3.5157",
        "country": "United Kingdom"
    },
    {
        "name": "Nicoya",
        "lat": "10.1024",
        "lng": "-85.4431",
        "country": "Costa Rica"
    },
    {
        "name": "Ban\u012b Wal\u012bd",
        "lat": "31.7619",
        "lng": "14.0139",
        "country": "Libya"
    },
    {
        "name": "Cheremkhovo",
        "lat": "53.1500",
        "lng": "103.0833",
        "country": "Russia"
    },
    {
        "name": "\u00c7ermik",
        "lat": "38.1372",
        "lng": "39.4511",
        "country": "Turkey"
    },
    {
        "name": "T\u016drtk\u016dl",
        "lat": "41.5500",
        "lng": "61.0000",
        "country": "Uzbekistan"
    },
    {
        "name": "Geyve",
        "lat": "40.5089",
        "lng": "30.2900",
        "country": "Turkey"
    },
    {
        "name": "Kuchaiburi",
        "lat": "22.2700",
        "lng": "86.1700",
        "country": "India"
    },
    {
        "name": "Vy\u0101ra",
        "lat": "21.1200",
        "lng": "73.4000",
        "country": "India"
    },
    {
        "name": "Whangarei",
        "lat": "-35.7250",
        "lng": "174.3236",
        "country": "New Zealand"
    },
    {
        "name": "Zab\u012bd",
        "lat": "14.2000",
        "lng": "43.3167",
        "country": "Yemen"
    },
    {
        "name": "Sibs\u0101gar",
        "lat": "26.9800",
        "lng": "94.6300",
        "country": "India"
    },
    {
        "name": "Irondequoit",
        "lat": "43.2096",
        "lng": "-77.5705",
        "country": "United States"
    }
]