[
    {
        "name": "Bairo",
        "lat": "26.0144",
        "lng": "86.5100",
        "country": "India"
    },
    {
        "name": "Huanian",
        "lat": "24.0781",
        "lng": "102.2010",
        "country": "China"
    },
    {
        "name": "Kotla",
        "lat": "32.7522",
        "lng": "74.7470",
        "country": "India"
    },
    {
        "name": "Kronshagen",
        "lat": "54.3333",
        "lng": "10.0833",
        "country": "Germany"
    },
    {
        "name": "Tanakallu",
        "lat": "13.9200",
        "lng": "78.1800",
        "country": "India"
    },
    {
        "name": "Kirikera",
        "lat": "13.7690",
        "lng": "77.4841",
        "country": "India"
    },
    {
        "name": "Mamarappatti",
        "lat": "11.4845",
        "lng": "78.0374",
        "country": "India"
    },
    {
        "name": "Halstead",
        "lat": "51.9451",
        "lng": "0.6411",
        "country": "United Kingdom"
    },
    {
        "name": "Bound Brook",
        "lat": "40.5676",
        "lng": "-74.5383",
        "country": "United States"
    },
    {
        "name": "Williams Lake",
        "lat": "52.1294",
        "lng": "-122.1383",
        "country": "Canada"
    },
    {
        "name": "Ch\u0101ndpura",
        "lat": "25.4966",
        "lng": "86.2104",
        "country": "India"
    },
    {
        "name": "Box Elder",
        "lat": "44.1120",
        "lng": "-103.0818",
        "country": "United States"
    },
    {
        "name": "\u017bebbu\u0121",
        "lat": "35.8731",
        "lng": "14.4419",
        "country": "Malta"
    },
    {
        "name": "Ried im Innkreis",
        "lat": "48.2100",
        "lng": "13.4894",
        "country": "Austria"
    },
    {
        "name": "Craponne",
        "lat": "45.7453",
        "lng": "4.7233",
        "country": "France"
    },
    {
        "name": "Tabontabon",
        "lat": "11.0300",
        "lng": "124.9700",
        "country": "Philippines"
    },
    {
        "name": "Amb\u0101tturai",
        "lat": "10.2603",
        "lng": "77.9303",
        "country": "India"
    },
    {
        "name": "East Bethel",
        "lat": "45.3557",
        "lng": "-93.2038",
        "country": "United States"
    },
    {
        "name": "Oqqo\u2018rg\u2018on",
        "lat": "40.8764",
        "lng": "69.0453",
        "country": "Uzbekistan"
    },
    {
        "name": "Qorashina",
        "lat": "38.3394",
        "lng": "66.5619",
        "country": "Uzbekistan"
    },
    {
        "name": "Bargoed",
        "lat": "51.6900",
        "lng": "-3.2400",
        "country": "United Kingdom"
    },
    {
        "name": "Ajjanahalli",
        "lat": "12.0376",
        "lng": "77.8138",
        "country": "India"
    },
    {
        "name": "Chinna Oramp\u0101du",
        "lat": "14.0613",
        "lng": "79.2671",
        "country": "India"
    },
    {
        "name": "Kampenhout",
        "lat": "50.9500",
        "lng": "4.5500",
        "country": "Belgium"
    },
    {
        "name": "Bhansia",
        "lat": "26.0992",
        "lng": "87.5316",
        "country": "India"
    },
    {
        "name": "Baohe",
        "lat": "33.2033",
        "lng": "106.9544",
        "country": "China"
    },
    {
        "name": "Enamadala",
        "lat": "16.2281",
        "lng": "80.3306",
        "country": "India"
    },
    {
        "name": "Zemamra",
        "lat": "32.6215",
        "lng": "-8.7023",
        "country": "Morocco"
    },
    {
        "name": "Hal\u00e1sztelek",
        "lat": "47.3608",
        "lng": "18.9878",
        "country": "Hungary"
    },
    {
        "name": "Arkadak",
        "lat": "51.9333",
        "lng": "43.5000",
        "country": "Russia"
    },
    {
        "name": "Wanding",
        "lat": "24.0833",
        "lng": "98.0667",
        "country": "China"
    },
    {
        "name": "Zumbagua",
        "lat": "-0.9558",
        "lng": "-78.9017",
        "country": "Ecuador"
    },
    {
        "name": "Gundugolanu",
        "lat": "16.7833",
        "lng": "81.2333",
        "country": "India"
    },
    {
        "name": "Talant",
        "lat": "47.3372",
        "lng": "5.0064",
        "country": "France"
    },
    {
        "name": "Hamilton Square",
        "lat": "40.2248",
        "lng": "-74.6526",
        "country": "United States"
    },
    {
        "name": "Mamq\u0101n",
        "lat": "37.8458",
        "lng": "45.9719",
        "country": "Iran"
    },
    {
        "name": "Aragoi\u00e2nia",
        "lat": "-16.9142",
        "lng": "-49.4525",
        "country": "Brazil"
    },
    {
        "name": "Shamshernagar",
        "lat": "25.0862",
        "lng": "84.4497",
        "country": "India"
    },
    {
        "name": "Pakra",
        "lat": "25.3711",
        "lng": "87.0807",
        "country": "India"
    },
    {
        "name": "G\u00f3ra Kalwaria",
        "lat": "51.9733",
        "lng": "21.2144",
        "country": "Poland"
    },
    {
        "name": "Sultanhan\u0131",
        "lat": "38.2500",
        "lng": "33.5500",
        "country": "Turkey"
    },
    {
        "name": "Couss\u00e9",
        "lat": "6.8500",
        "lng": "2.1333",
        "country": "Benin"
    },
    {
        "name": "Cachoeira de Minas",
        "lat": "-22.3550",
        "lng": "-45.7789",
        "country": "Brazil"
    },
    {
        "name": "Dom Bas\u00edlio",
        "lat": "-13.7333",
        "lng": "-41.7667",
        "country": "Brazil"
    },
    {
        "name": "Lauria Inferiore",
        "lat": "40.0500",
        "lng": "15.8333",
        "country": "Italy"
    },
    {
        "name": "Kagamino",
        "lat": "35.0919",
        "lng": "133.9331",
        "country": "Japan"
    },
    {
        "name": "Ojuelos de Jalisco",
        "lat": "21.8667",
        "lng": "-101.5833",
        "country": "Mexico"
    },
    {
        "name": "Imaru\u00ed",
        "lat": "-28.3500",
        "lng": "-48.8167",
        "country": "Brazil"
    },
    {
        "name": "Mayil\u0101di",
        "lat": "8.1550",
        "lng": "77.5056",
        "country": "India"
    },
    {
        "name": "San Severino Marche",
        "lat": "43.2333",
        "lng": "13.1833",
        "country": "Italy"
    },
    {
        "name": "Hattian Bala",
        "lat": "34.1691",
        "lng": "73.7432",
        "country": "Pakistan"
    },
    {
        "name": "Gander",
        "lat": "48.9569",
        "lng": "-54.6089",
        "country": "Canada"
    },
    {
        "name": "Novaya Lyalya",
        "lat": "59.0667",
        "lng": "60.6000",
        "country": "Russia"
    },
    {
        "name": "Kaml\u0101pur",
        "lat": "17.5786",
        "lng": "76.9887",
        "country": "India"
    },
    {
        "name": "Puliyampatti",
        "lat": "11.6653",
        "lng": "77.8041",
        "country": "India"
    },
    {
        "name": "Benaguacil",
        "lat": "39.5933",
        "lng": "-0.5864",
        "country": "Spain"
    },
    {
        "name": "Gerstetten",
        "lat": "48.6225",
        "lng": "10.0206",
        "country": "Germany"
    },
    {
        "name": "Jaltenango",
        "lat": "15.8725",
        "lng": "-92.7250",
        "country": "Mexico"
    },
    {
        "name": "Onet Village",
        "lat": "44.3664",
        "lng": "2.5942",
        "country": "France"
    },
    {
        "name": "Archdale",
        "lat": "35.9032",
        "lng": "-79.9591",
        "country": "United States"
    },
    {
        "name": "Maisaka",
        "lat": "34.6857",
        "lng": "137.6272",
        "country": "Japan"
    },
    {
        "name": "Badamdar",
        "lat": "40.3394",
        "lng": "49.8039",
        "country": "Azerbaijan"
    },
    {
        "name": "Rushall",
        "lat": "52.6089",
        "lng": "-1.9592",
        "country": "United Kingdom"
    },
    {
        "name": "Comasagua",
        "lat": "13.6333",
        "lng": "-89.3833",
        "country": "El Salvador"
    },
    {
        "name": "Linganore",
        "lat": "39.4127",
        "lng": "-77.3014",
        "country": "United States"
    },
    {
        "name": "M\u00f6hnesee",
        "lat": "51.4958",
        "lng": "8.1306",
        "country": "Germany"
    },
    {
        "name": "\u00c9pinay-sous-S\u00e9nart",
        "lat": "48.6948",
        "lng": "2.5147",
        "country": "France"
    },
    {
        "name": "Florange",
        "lat": "49.3222",
        "lng": "6.1192",
        "country": "France"
    },
    {
        "name": "Mehs\u0101ri",
        "lat": "25.7554",
        "lng": "85.8477",
        "country": "India"
    },
    {
        "name": "Bernissart",
        "lat": "50.4833",
        "lng": "3.6500",
        "country": "Belgium"
    },
    {
        "name": "Snaresbrook",
        "lat": "51.5870",
        "lng": "0.0146",
        "country": "United Kingdom"
    },
    {
        "name": "Altavilla Vicentina",
        "lat": "45.5167",
        "lng": "11.4500",
        "country": "Italy"
    },
    {
        "name": "Iwaka",
        "lat": "40.6159",
        "lng": "140.4213",
        "country": "Japan"
    },
    {
        "name": "Eichenau",
        "lat": "48.1667",
        "lng": "11.3167",
        "country": "Germany"
    },
    {
        "name": "Oulad Amrane el Mekki",
        "lat": "35.2167",
        "lng": "-5.9667",
        "country": "Morocco"
    },
    {
        "name": "El Arba Des Bir Lenni",
        "lat": "34.3272",
        "lng": "-4.2039",
        "country": "Morocco"
    },
    {
        "name": "Yuxiaguan",
        "lat": "36.0311",
        "lng": "113.5580",
        "country": "China"
    },
    {
        "name": "Rudr\u0101ngi",
        "lat": "18.6262",
        "lng": "78.7022",
        "country": "India"
    },
    {
        "name": "Sant\u2019Agata di Militello",
        "lat": "38.0667",
        "lng": "14.6333",
        "country": "Italy"
    },
    {
        "name": "Brunn am Gebirge",
        "lat": "48.1000",
        "lng": "16.2833",
        "country": "Austria"
    },
    {
        "name": "Monschau",
        "lat": "50.5600",
        "lng": "6.2564",
        "country": "Germany"
    },
    {
        "name": "Vanimo",
        "lat": "-2.6667",
        "lng": "141.2833",
        "country": "Papua New Guinea"
    },
    {
        "name": "Levashi",
        "lat": "42.4314",
        "lng": "47.3236",
        "country": "Russia"
    },
    {
        "name": "La Puebla del R\u00edo",
        "lat": "37.2667",
        "lng": "-6.0500",
        "country": "Spain"
    },
    {
        "name": "Olgiate Comasco",
        "lat": "45.7833",
        "lng": "8.9667",
        "country": "Italy"
    },
    {
        "name": "Mer\u0101l",
        "lat": "24.1876",
        "lng": "83.7076",
        "country": "India"
    },
    {
        "name": "Lake Elmo",
        "lat": "44.9944",
        "lng": "-92.9031",
        "country": "United States"
    },
    {
        "name": "Malar",
        "lat": "26.2237",
        "lng": "86.6909",
        "country": "India"
    },
    {
        "name": "Iacanga",
        "lat": "-21.8900",
        "lng": "-49.0247",
        "country": "Brazil"
    },
    {
        "name": "Ban",
        "lat": "-8.2333",
        "lng": "115.4833",
        "country": "Indonesia"
    },
    {
        "name": "Big Lake",
        "lat": "45.3417",
        "lng": "-93.7434",
        "country": "United States"
    },
    {
        "name": "Aguasay",
        "lat": "9.4249",
        "lng": "-63.7308",
        "country": "Venezuela"
    },
    {
        "name": "Lissegazoun",
        "lat": "6.6167",
        "lng": "2.0833",
        "country": "Benin"
    },
    {
        "name": "San Juan del Rio del Centauro del Norte",
        "lat": "24.7667",
        "lng": "-104.4667",
        "country": "Mexico"
    },
    {
        "name": "Rankweil",
        "lat": "47.2667",
        "lng": "9.6500",
        "country": "Austria"
    },
    {
        "name": "Lauenburg",
        "lat": "53.3833",
        "lng": "10.5667",
        "country": "Germany"
    },
    {
        "name": "Eckington",
        "lat": "53.3080",
        "lng": "-1.3643",
        "country": "United Kingdom"
    },
    {
        "name": "Khajuri",
        "lat": "25.9144",
        "lng": "86.6772",
        "country": "India"
    },
    {
        "name": "Whistler",
        "lat": "50.1208",
        "lng": "-122.9544",
        "country": "Canada"
    },
    {
        "name": "Horodnia",
        "lat": "51.8931",
        "lng": "31.5947",
        "country": "Ukraine"
    }
]