[
    {
        "name": "Daping",
        "lat": "24.6501",
        "lng": "112.1693",
        "country": "China"
    },
    {
        "name": "Banak",
        "lat": "27.8722",
        "lng": "52.0289",
        "country": "Iran"
    },
    {
        "name": "San Juan Ixcaquixtla",
        "lat": "18.4500",
        "lng": "-97.8167",
        "country": "Mexico"
    },
    {
        "name": "Lenox",
        "lat": "43.1113",
        "lng": "-75.7582",
        "country": "United States"
    },
    {
        "name": "Pasivedalajimma",
        "lat": "16.9952",
        "lng": "81.7000",
        "country": "India"
    },
    {
        "name": "Sremski Karlovci",
        "lat": "45.2000",
        "lng": "19.9333",
        "country": "Serbia"
    },
    {
        "name": "Tilvalli",
        "lat": "14.6268",
        "lng": "75.2310",
        "country": "India"
    },
    {
        "name": "Sant\u2019Angelo in Lizzola",
        "lat": "43.8333",
        "lng": "12.8000",
        "country": "Italy"
    },
    {
        "name": "Mozzate",
        "lat": "45.6833",
        "lng": "8.9500",
        "country": "Italy"
    },
    {
        "name": "Coccaglio",
        "lat": "45.5667",
        "lng": "9.9833",
        "country": "Italy"
    },
    {
        "name": "Shopokov",
        "lat": "42.8400",
        "lng": "74.3100",
        "country": "Kyrgyzstan"
    },
    {
        "name": "Bouhlou",
        "lat": "34.1333",
        "lng": "-4.4000",
        "country": "Morocco"
    },
    {
        "name": "Afuma\u0163i",
        "lat": "44.5250",
        "lng": "26.2522",
        "country": "Romania"
    },
    {
        "name": "S\u0101nrha",
        "lat": "25.7979",
        "lng": "84.7504",
        "country": "India"
    },
    {
        "name": "Castagneto Carducci",
        "lat": "43.1667",
        "lng": "10.6000",
        "country": "Italy"
    },
    {
        "name": "Civitella in Val di Chiana",
        "lat": "43.4167",
        "lng": "11.7167",
        "country": "Italy"
    },
    {
        "name": "Summit View",
        "lat": "47.1343",
        "lng": "-122.3467",
        "country": "United States"
    },
    {
        "name": "Rudewa",
        "lat": "-10.1008",
        "lng": "34.6836",
        "country": "Tanzania"
    },
    {
        "name": "Sonsbeck",
        "lat": "51.6089",
        "lng": "6.3769",
        "country": "Germany"
    },
    {
        "name": "Roccastrada",
        "lat": "43.0000",
        "lng": "11.1667",
        "country": "Italy"
    },
    {
        "name": "Wervershoof",
        "lat": "52.7300",
        "lng": "5.1700",
        "country": "Netherlands"
    },
    {
        "name": "Tanudan",
        "lat": "17.2814",
        "lng": "121.2303",
        "country": "Philippines"
    },
    {
        "name": "Stary S\u0105cz",
        "lat": "49.5625",
        "lng": "20.6364",
        "country": "Poland"
    },
    {
        "name": "Lamar\u00e3o",
        "lat": "-11.7828",
        "lng": "-38.9000",
        "country": "Brazil"
    },
    {
        "name": "Jabera",
        "lat": "23.5582",
        "lng": "79.6780",
        "country": "India"
    },
    {
        "name": "Ranod",
        "lat": "25.0748",
        "lng": "77.8761",
        "country": "India"
    },
    {
        "name": "Leopoldo de Bulh\u00f5es",
        "lat": "-16.6247",
        "lng": "-48.7439",
        "country": "Brazil"
    },
    {
        "name": "Kanav\u0101ypud\u016br",
        "lat": "11.9282",
        "lng": "78.1832",
        "country": "India"
    },
    {
        "name": "Rahta",
        "lat": "25.9213",
        "lng": "86.9734",
        "country": "India"
    },
    {
        "name": "H\u00f6sh\u00f6\u00f6t",
        "lat": "48.9408",
        "lng": "89.1383",
        "country": "Mongolia"
    },
    {
        "name": "Koror",
        "lat": "7.3419",
        "lng": "134.4792",
        "country": "Palau"
    },
    {
        "name": "Uzundere",
        "lat": "40.5364",
        "lng": "41.5483",
        "country": "Turkey"
    },
    {
        "name": "Biederitz",
        "lat": "52.1608",
        "lng": "11.7178",
        "country": "Germany"
    },
    {
        "name": "Notre-Dame-de-Gravenchon",
        "lat": "49.4900",
        "lng": "0.5719",
        "country": "France"
    },
    {
        "name": "Murillo",
        "lat": "26.2642",
        "lng": "-98.1233",
        "country": "United States"
    },
    {
        "name": "Porkhov",
        "lat": "57.7833",
        "lng": "29.5667",
        "country": "Russia"
    },
    {
        "name": "Teranikallu",
        "lat": "15.6392",
        "lng": "77.5303",
        "country": "India"
    },
    {
        "name": "Dhanauli",
        "lat": "26.0026",
        "lng": "86.0251",
        "country": "India"
    },
    {
        "name": "Nam Som",
        "lat": "17.7694",
        "lng": "102.1435",
        "country": "Thailand"
    },
    {
        "name": "R\u00edo Jim\u00e9nez",
        "lat": "10.2556",
        "lng": "-83.5629",
        "country": "Costa Rica"
    },
    {
        "name": "Wingles",
        "lat": "50.4947",
        "lng": "2.8561",
        "country": "France"
    },
    {
        "name": "Pull\u0101nvidudi",
        "lat": "10.3590",
        "lng": "79.0880",
        "country": "India"
    },
    {
        "name": "Vadak\u0101du",
        "lat": "10.3418",
        "lng": "79.0609",
        "country": "India"
    },
    {
        "name": "Hoquiam",
        "lat": "46.9863",
        "lng": "-123.9022",
        "country": "United States"
    },
    {
        "name": "Corona de Tucson",
        "lat": "31.9503",
        "lng": "-110.7835",
        "country": "United States"
    },
    {
        "name": "Comendador Levy Gasparian",
        "lat": "-22.0289",
        "lng": "-43.2050",
        "country": "Brazil"
    },
    {
        "name": "P\u00e9rigny",
        "lat": "46.1533",
        "lng": "-1.0953",
        "country": "France"
    },
    {
        "name": "Saint-Jean-de-Monts",
        "lat": "46.7936",
        "lng": "-2.0587",
        "country": "France"
    },
    {
        "name": "Hakka",
        "lat": "25.9163",
        "lng": "87.6474",
        "country": "India"
    },
    {
        "name": "Pedda Nindrakolanu",
        "lat": "16.7342",
        "lng": "81.3941",
        "country": "India"
    },
    {
        "name": "Parabita",
        "lat": "40.0500",
        "lng": "18.1333",
        "country": "Italy"
    },
    {
        "name": "Doornkop",
        "lat": "-26.2328",
        "lng": "27.7833",
        "country": "South Africa"
    },
    {
        "name": "Lichana",
        "lat": "34.7247",
        "lng": "5.4325",
        "country": "Algeria"
    },
    {
        "name": "Rudravaram",
        "lat": "15.2660",
        "lng": "78.6280",
        "country": "India"
    },
    {
        "name": "Hollymead",
        "lat": "38.1266",
        "lng": "-78.4386",
        "country": "United States"
    },
    {
        "name": "Krompachy",
        "lat": "48.9139",
        "lng": "20.8739",
        "country": "Slovakia"
    },
    {
        "name": "Sanj\u0101t",
        "lat": "25.6046",
        "lng": "86.0199",
        "country": "India"
    },
    {
        "name": "Queimada Nova",
        "lat": "-8.5789",
        "lng": "-41.4189",
        "country": "Brazil"
    },
    {
        "name": "H\u00e2r\u015fova",
        "lat": "44.6833",
        "lng": "27.9519",
        "country": "Romania"
    },
    {
        "name": "Me\u00dfkirch",
        "lat": "47.9928",
        "lng": "9.1125",
        "country": "Germany"
    },
    {
        "name": "M\u0101laim\u0101rpuram",
        "lat": "14.2096",
        "lng": "79.3072",
        "country": "India"
    },
    {
        "name": "Mirchpur",
        "lat": "29.3160",
        "lng": "76.1755",
        "country": "India"
    },
    {
        "name": "Aktepe",
        "lat": "36.7000",
        "lng": "36.4833",
        "country": "Turkey"
    },
    {
        "name": "Wattwil",
        "lat": "47.3000",
        "lng": "9.0833",
        "country": "Switzerland"
    },
    {
        "name": "Bussy",
        "lat": "46.5500",
        "lng": "6.5500",
        "country": "Switzerland"
    },
    {
        "name": "Rauenberg",
        "lat": "49.2678",
        "lng": "8.7036",
        "country": "Germany"
    },
    {
        "name": "Moranbah",
        "lat": "-22.0016",
        "lng": "148.0533",
        "country": "Australia"
    },
    {
        "name": "Igana",
        "lat": "7.0333",
        "lng": "2.7000",
        "country": "Benin"
    },
    {
        "name": "Bhui",
        "lat": "25.0894",
        "lng": "85.3888",
        "country": "India"
    },
    {
        "name": "Ekangar Sarai",
        "lat": "25.2234",
        "lng": "85.2298",
        "country": "India"
    },
    {
        "name": "Velakalnattam",
        "lat": "12.5505",
        "lng": "78.4429",
        "country": "India"
    },
    {
        "name": "Bharno",
        "lat": "23.2204",
        "lng": "84.8891",
        "country": "India"
    },
    {
        "name": "Ellicott",
        "lat": "42.1330",
        "lng": "-79.2360",
        "country": "United States"
    },
    {
        "name": "Gundum\u0101l",
        "lat": "16.8939",
        "lng": "77.7112",
        "country": "India"
    },
    {
        "name": "Folignano",
        "lat": "42.8167",
        "lng": "13.6333",
        "country": "Italy"
    },
    {
        "name": "Karuveppampatti",
        "lat": "11.3983",
        "lng": "77.8746",
        "country": "India"
    },
    {
        "name": "S\u0101tg\u0101chia",
        "lat": "23.2641",
        "lng": "88.1600",
        "country": "India"
    },
    {
        "name": "Hostotipaquillo",
        "lat": "21.2167",
        "lng": "-103.8500",
        "country": "Mexico"
    },
    {
        "name": "Gremyachinsk",
        "lat": "58.5667",
        "lng": "57.8500",
        "country": "Russia"
    },
    {
        "name": "Bad Bergzabern",
        "lat": "49.1028",
        "lng": "7.9991",
        "country": "Germany"
    },
    {
        "name": "L\u00f6wenberg",
        "lat": "52.8833",
        "lng": "13.1500",
        "country": "Germany"
    },
    {
        "name": "Jal\u0101lkhera",
        "lat": "21.4392",
        "lng": "78.7719",
        "country": "India"
    },
    {
        "name": "Maiquinique",
        "lat": "-15.6167",
        "lng": "-40.2500",
        "country": "Brazil"
    },
    {
        "name": "Herzberg",
        "lat": "51.6833",
        "lng": "13.2333",
        "country": "Germany"
    },
    {
        "name": "Majra",
        "lat": "25.7131",
        "lng": "87.3637",
        "country": "India"
    },
    {
        "name": "Obertraubling",
        "lat": "48.9658",
        "lng": "12.1669",
        "country": "Germany"
    },
    {
        "name": "Lillebonne",
        "lat": "49.5189",
        "lng": "0.5343",
        "country": "France"
    },
    {
        "name": "N\u0101gaiyampatti",
        "lat": "11.4639",
        "lng": "78.4801",
        "country": "India"
    },
    {
        "name": "San Juan de Arama",
        "lat": "3.3736",
        "lng": "-73.8767",
        "country": "Colombia"
    },
    {
        "name": "C\u00e0bras",
        "lat": "39.9333",
        "lng": "8.5333",
        "country": "Italy"
    },
    {
        "name": "Carlosama",
        "lat": "0.8658",
        "lng": "-77.7294",
        "country": "Colombia"
    },
    {
        "name": "Roetgen",
        "lat": "50.6500",
        "lng": "6.2000",
        "country": "Germany"
    },
    {
        "name": "Saint-Claude",
        "lat": "46.3878",
        "lng": "5.8639",
        "country": "France"
    },
    {
        "name": "Tsr\u0101r Shar\u012bf",
        "lat": "33.8632",
        "lng": "74.7652",
        "country": "India"
    },
    {
        "name": "Pendekallu",
        "lat": "15.3753",
        "lng": "77.6242",
        "country": "India"
    },
    {
        "name": "Galmaarden",
        "lat": "50.7500",
        "lng": "3.9900",
        "country": "Belgium"
    },
    {
        "name": "N\u0101rona",
        "lat": "17.5156",
        "lng": "76.7182",
        "country": "India"
    },
    {
        "name": "Montalto di Castro",
        "lat": "42.3500",
        "lng": "11.6000",
        "country": "Italy"
    },
    {
        "name": "Port Jervis",
        "lat": "41.3783",
        "lng": "-74.6910",
        "country": "United States"
    },
    {
        "name": "Gendou",
        "lat": "12.8292",
        "lng": "-6.4964",
        "country": "Mali"
    }
]