[
    {
        "name": "Kalol",
        "lat": "23.2460",
        "lng": "72.4960",
        "country": "India"
    },
    {
        "name": "San Andres",
        "lat": "14.5739",
        "lng": "121.0039",
        "country": "Philippines"
    },
    {
        "name": "Marituba",
        "lat": "-10.2833",
        "lng": "-36.4000",
        "country": "Brazil"
    },
    {
        "name": "Amiens",
        "lat": "49.8920",
        "lng": "2.2990",
        "country": "France"
    },
    {
        "name": "Yunxian Chengguanzhen",
        "lat": "32.8082",
        "lng": "110.8136",
        "country": "China"
    },
    {
        "name": "Ferfer",
        "lat": "5.0833",
        "lng": "45.0833",
        "country": "Ethiopia"
    },
    {
        "name": "Renca",
        "lat": "-33.4000",
        "lng": "-70.7167",
        "country": "Chile"
    },
    {
        "name": "S\u00e9gou",
        "lat": "13.4500",
        "lng": "-6.2667",
        "country": "Mali"
    },
    {
        "name": "Ja\u00fa",
        "lat": "-22.2958",
        "lng": "-48.5578",
        "country": "Brazil"
    },
    {
        "name": "Tando Allahyar",
        "lat": "25.4617",
        "lng": "68.7167",
        "country": "Pakistan"
    },
    {
        "name": "Thandwe",
        "lat": "18.4667",
        "lng": "94.3667",
        "country": "Burma"
    },
    {
        "name": "Hagonoy",
        "lat": "14.8300",
        "lng": "120.7300",
        "country": "Philippines"
    },
    {
        "name": "Hassan",
        "lat": "13.0120",
        "lng": "76.0680",
        "country": "India"
    },
    {
        "name": "Batu Gajah",
        "lat": "4.4667",
        "lng": "101.0500",
        "country": "Malaysia"
    },
    {
        "name": "Matagalpa",
        "lat": "12.9167",
        "lng": "-85.9167",
        "country": "Nicaragua"
    },
    {
        "name": "Lalitpur",
        "lat": "24.6900",
        "lng": "78.4100",
        "country": "India"
    },
    {
        "name": "Conchal\u00ed",
        "lat": "-33.3833",
        "lng": "-70.6750",
        "country": "Chile"
    },
    {
        "name": "Santa Cruz do Sul",
        "lat": "-29.7178",
        "lng": "-52.4258",
        "country": "Brazil"
    },
    {
        "name": "Long B\u00ecnh",
        "lat": "10.9458",
        "lng": "106.8775",
        "country": "Vietnam"
    },
    {
        "name": "Pitalito",
        "lat": "1.8989",
        "lng": "-76.0419",
        "country": "Colombia"
    },
    {
        "name": "Bib\u00e9mi",
        "lat": "9.3167",
        "lng": "13.8833",
        "country": "Cameroon"
    },
    {
        "name": "Naga",
        "lat": "10.2200",
        "lng": "123.7500",
        "country": "Philippines"
    },
    {
        "name": "Porto-Novo",
        "lat": "6.4972",
        "lng": "2.6050",
        "country": "Benin"
    },
    {
        "name": "Yuba City",
        "lat": "39.1357",
        "lng": "-121.6383",
        "country": "United States"
    },
    {
        "name": "Khorramshahr",
        "lat": "30.4394",
        "lng": "48.1817",
        "country": "Iran"
    },
    {
        "name": "Tarime",
        "lat": "-1.3500",
        "lng": "34.3833",
        "country": "Tanzania"
    },
    {
        "name": "Male",
        "lat": "4.1753",
        "lng": "73.5089",
        "country": "Maldives"
    },
    {
        "name": "Parla",
        "lat": "40.2372",
        "lng": "-3.7742",
        "country": "Spain"
    },
    {
        "name": "Milton",
        "lat": "43.5083",
        "lng": "-79.8833",
        "country": "Canada"
    },
    {
        "name": "M\u2019Sila",
        "lat": "35.7019",
        "lng": "4.5472",
        "country": "Algeria"
    },
    {
        "name": "Sr\u012bpur",
        "lat": "24.2011",
        "lng": "90.4843",
        "country": "Bangladesh"
    },
    {
        "name": "Kipushi",
        "lat": "-11.7625",
        "lng": "27.2500",
        "country": "Congo (Kinshasa)"
    },
    {
        "name": "Gondi\u0101",
        "lat": "21.4598",
        "lng": "80.1950",
        "country": "India"
    },
    {
        "name": "Zhangmu Touwei",
        "lat": "22.9149",
        "lng": "114.0833",
        "country": "China"
    },
    {
        "name": "Schaarbeek",
        "lat": "50.8675",
        "lng": "4.3736",
        "country": "Belgium"
    },
    {
        "name": "Luxembourg",
        "lat": "49.6117",
        "lng": "6.1319",
        "country": "Luxembourg"
    },
    {
        "name": "Re\u1e96ovot",
        "lat": "31.8969",
        "lng": "34.8167",
        "country": "Israel"
    },
    {
        "name": "San Carlos",
        "lat": "10.4929",
        "lng": "123.4095",
        "country": "Philippines"
    },
    {
        "name": "S\u00e3o Mateus",
        "lat": "-18.7158",
        "lng": "-39.8589",
        "country": "Brazil"
    },
    {
        "name": "Dal\u016bpura",
        "lat": "28.6004",
        "lng": "77.3194",
        "country": "India"
    },
    {
        "name": "Mogaung",
        "lat": "25.3014",
        "lng": "96.9417",
        "country": "Burma"
    },
    {
        "name": "\u00d6demi\u015f",
        "lat": "38.2311",
        "lng": "27.9719",
        "country": "Turkey"
    },
    {
        "name": "Centro Habana",
        "lat": "23.1333",
        "lng": "-82.3833",
        "country": "Cuba"
    },
    {
        "name": "Zagnanado",
        "lat": "7.2667",
        "lng": "2.3500",
        "country": "Benin"
    },
    {
        "name": "Isahaya",
        "lat": "32.8500",
        "lng": "130.0667",
        "country": "Japan"
    },
    {
        "name": "Yakima",
        "lat": "46.5923",
        "lng": "-120.5496",
        "country": "United States"
    },
    {
        "name": "Adonara",
        "lat": "-8.2500",
        "lng": "123.1500",
        "country": "Indonesia"
    },
    {
        "name": "Talavera",
        "lat": "15.5839",
        "lng": "120.9189",
        "country": "Philippines"
    },
    {
        "name": "Rustavi",
        "lat": "41.5436",
        "lng": "45.0117",
        "country": "Georgia"
    },
    {
        "name": "Carrollton",
        "lat": "32.9890",
        "lng": "-96.8999",
        "country": "United States"
    },
    {
        "name": "\u0100war\u0113",
        "lat": "8.2667",
        "lng": "44.1500",
        "country": "Ethiopia"
    },
    {
        "name": "Nary\u0101i ka Puri",
        "lat": "26.5200",
        "lng": "78.3500",
        "country": "India"
    },
    {
        "name": "Blitar",
        "lat": "-8.1000",
        "lng": "112.1500",
        "country": "Indonesia"
    },
    {
        "name": "Racine",
        "lat": "42.7274",
        "lng": "-87.8135",
        "country": "United States"
    },
    {
        "name": "Karab\u00fck",
        "lat": "41.1986",
        "lng": "32.6264",
        "country": "Turkey"
    },
    {
        "name": "Palwal",
        "lat": "28.1447",
        "lng": "77.3255",
        "country": "India"
    },
    {
        "name": "\u014cme",
        "lat": "35.7880",
        "lng": "139.2758",
        "country": "Japan"
    },
    {
        "name": "Chicomba",
        "lat": "-14.1333",
        "lng": "14.9167",
        "country": "Angola"
    },
    {
        "name": "Johnson City",
        "lat": "36.3406",
        "lng": "-82.3806",
        "country": "United States"
    },
    {
        "name": "Annecy",
        "lat": "45.9160",
        "lng": "6.1330",
        "country": "France"
    },
    {
        "name": "Papeete",
        "lat": "-17.5334",
        "lng": "-149.5667",
        "country": "French Polynesia"
    },
    {
        "name": "Cubat\u00e3o",
        "lat": "-23.8953",
        "lng": "-46.4256",
        "country": "Brazil"
    },
    {
        "name": "Conselheiro Lafaiete",
        "lat": "-20.6600",
        "lng": "-43.7858",
        "country": "Brazil"
    },
    {
        "name": "Ji-Paran\u00e1",
        "lat": "-10.8853",
        "lng": "-61.9517",
        "country": "Brazil"
    },
    {
        "name": "Al Khmissat",
        "lat": "33.8167",
        "lng": "-6.0667",
        "country": "Morocco"
    },
    {
        "name": "Billings",
        "lat": "45.7891",
        "lng": "-108.5526",
        "country": "United States"
    },
    {
        "name": "Jijel",
        "lat": "36.8167",
        "lng": "5.7500",
        "country": "Algeria"
    },
    {
        "name": "F\u00fcrth",
        "lat": "49.4667",
        "lng": "11.0000",
        "country": "Germany"
    },
    {
        "name": "Buea",
        "lat": "4.1667",
        "lng": "9.2333",
        "country": "Cameroon"
    },
    {
        "name": "Apopa",
        "lat": "13.8000",
        "lng": "-89.1833",
        "country": "El Salvador"
    },
    {
        "name": "Itapipoca",
        "lat": "-3.4939",
        "lng": "-39.5789",
        "country": "Brazil"
    },
    {
        "name": "Spanish Town",
        "lat": "17.9959",
        "lng": "-76.9551",
        "country": "Jamaica"
    },
    {
        "name": "Lam Tin",
        "lat": "22.3094",
        "lng": "114.2361",
        "country": "Hong Kong"
    },
    {
        "name": "P\u0101lgh\u0101t",
        "lat": "10.7750",
        "lng": "76.6510",
        "country": "India"
    },
    {
        "name": "Atyra\u016b",
        "lat": "47.1167",
        "lng": "51.8833",
        "country": "Kazakhstan"
    },
    {
        "name": "Araras",
        "lat": "-22.3572",
        "lng": "-47.3844",
        "country": "Brazil"
    },
    {
        "name": "Maijdi",
        "lat": "22.8333",
        "lng": "91.1000",
        "country": "Bangladesh"
    },
    {
        "name": "Ku\u015fadas\u0131",
        "lat": "37.8597",
        "lng": "27.2597",
        "country": "Turkey"
    },
    {
        "name": "Vlor\u00eb",
        "lat": "40.4667",
        "lng": "19.4833",
        "country": "Albania"
    },
    {
        "name": "Quibd\u00f3",
        "lat": "5.6922",
        "lng": "-76.6581",
        "country": "Colombia"
    },
    {
        "name": "Marand",
        "lat": "38.4331",
        "lng": "45.7686",
        "country": "Iran"
    },
    {
        "name": "Bassila",
        "lat": "9.0167",
        "lng": "1.6667",
        "country": "Benin"
    },
    {
        "name": "Thaton",
        "lat": "16.9333",
        "lng": "97.3667",
        "country": "Burma"
    },
    {
        "name": "Zama",
        "lat": "35.4833",
        "lng": "139.4000",
        "country": "Japan"
    },
    {
        "name": "Chittandikavundan\u016br",
        "lat": "10.6129",
        "lng": "76.8508",
        "country": "India"
    },
    {
        "name": "Iowa City",
        "lat": "41.6559",
        "lng": "-91.5303",
        "country": "United States"
    },
    {
        "name": "Nanqiaotou",
        "lat": "22.7176",
        "lng": "113.2918",
        "country": "China"
    },
    {
        "name": "Shuangcheng",
        "lat": "45.3503",
        "lng": "126.2800",
        "country": "China"
    },
    {
        "name": "Surat Thani",
        "lat": "9.1397",
        "lng": "99.3306",
        "country": "Thailand"
    },
    {
        "name": "Narita",
        "lat": "35.7767",
        "lng": "140.3183",
        "country": "Japan"
    },
    {
        "name": "L\u00e0o Cai",
        "lat": "22.4806",
        "lng": "103.9750",
        "country": "Vietnam"
    },
    {
        "name": "Trinidad",
        "lat": "-14.8292",
        "lng": "-64.9014",
        "country": "Bolivia"
    },
    {
        "name": "Innsbruck",
        "lat": "47.2683",
        "lng": "11.3933",
        "country": "Austria"
    },
    {
        "name": "Kozan",
        "lat": "37.4500",
        "lng": "35.8000",
        "country": "Turkey"
    },
    {
        "name": "Angono",
        "lat": "14.5234",
        "lng": "121.1536",
        "country": "Philippines"
    },
    {
        "name": "Silay",
        "lat": "10.8000",
        "lng": "122.9700",
        "country": "Philippines"
    },
    {
        "name": "\u0100nand",
        "lat": "22.5560",
        "lng": "72.9510",
        "country": "India"
    },
    {
        "name": "J\u012broft",
        "lat": "28.6797",
        "lng": "57.7447",
        "country": "Iran"
    },
    {
        "name": "City of Isabela",
        "lat": "6.7000",
        "lng": "121.9700",
        "country": "Philippines"
    },
    {
        "name": "Nantou",
        "lat": "22.7217",
        "lng": "113.2926",
        "country": "China"
    }
]