[
    {
        "name": "Aranya Kal\u0101n",
        "lat": "23.2448",
        "lng": "76.7435",
        "country": "India"
    },
    {
        "name": "N\u016btakki",
        "lat": "16.4139",
        "lng": "80.6506",
        "country": "India"
    },
    {
        "name": "Tanamarina-Sakay",
        "lat": "-21.4667",
        "lng": "46.6167",
        "country": "Madagascar"
    },
    {
        "name": "Momchilgrad",
        "lat": "41.5333",
        "lng": "25.4167",
        "country": "Bulgaria"
    },
    {
        "name": "Mirante da Serra",
        "lat": "-11.0297",
        "lng": "-62.6750",
        "country": "Brazil"
    },
    {
        "name": "Tasso",
        "lat": "9.6737",
        "lng": "3.2333",
        "country": "Benin"
    },
    {
        "name": "J\u016braq\u0101n",
        "lat": "34.8850",
        "lng": "48.5531",
        "country": "Iran"
    },
    {
        "name": "Kahla",
        "lat": "26.3747",
        "lng": "84.5433",
        "country": "India"
    },
    {
        "name": "Nossa Senhora Aparecida",
        "lat": "-10.4428",
        "lng": "-37.4889",
        "country": "Brazil"
    },
    {
        "name": "Dielheim",
        "lat": "49.2825",
        "lng": "8.7347",
        "country": "Germany"
    },
    {
        "name": "Sandalpur",
        "lat": "25.5639",
        "lng": "87.5082",
        "country": "India"
    },
    {
        "name": "Bah\u0101b\u0101d",
        "lat": "31.8719",
        "lng": "56.0239",
        "country": "Iran"
    },
    {
        "name": "Rethen",
        "lat": "52.2861",
        "lng": "9.8250",
        "country": "Germany"
    },
    {
        "name": "Giardini",
        "lat": "37.8333",
        "lng": "15.2833",
        "country": "Italy"
    },
    {
        "name": "Stevenston",
        "lat": "55.6450",
        "lng": "-4.7580",
        "country": "United Kingdom"
    },
    {
        "name": "Karsaut",
        "lat": "26.1298",
        "lng": "84.4825",
        "country": "India"
    },
    {
        "name": "Vallapuram",
        "lat": "11.4000",
        "lng": "78.8800",
        "country": "India"
    },
    {
        "name": "Ryki",
        "lat": "51.6333",
        "lng": "21.9333",
        "country": "Poland"
    },
    {
        "name": "Brugnera",
        "lat": "45.9000",
        "lng": "12.5333",
        "country": "Italy"
    },
    {
        "name": "Philippeville",
        "lat": "50.2000",
        "lng": "4.5500",
        "country": "Belgium"
    },
    {
        "name": "Carrillos",
        "lat": "10.0369",
        "lng": "-84.2740",
        "country": "Costa Rica"
    },
    {
        "name": "La Victoria de Acentejo",
        "lat": "28.4333",
        "lng": "-16.4667",
        "country": "Spain"
    },
    {
        "name": "Bowdon",
        "lat": "53.3760",
        "lng": "-2.3660",
        "country": "United Kingdom"
    },
    {
        "name": "Kondrukota",
        "lat": "17.3477",
        "lng": "81.6041",
        "country": "India"
    },
    {
        "name": "Vaikuntam",
        "lat": "11.5197",
        "lng": "77.9398",
        "country": "India"
    },
    {
        "name": "Castelleone",
        "lat": "45.3000",
        "lng": "9.7667",
        "country": "Italy"
    },
    {
        "name": "Ke\u015fap",
        "lat": "40.9167",
        "lng": "38.5167",
        "country": "Turkey"
    },
    {
        "name": "San Lorenzo de Descardazar",
        "lat": "39.6097",
        "lng": "3.2839",
        "country": "Spain"
    },
    {
        "name": "Kaujalgi",
        "lat": "16.1400",
        "lng": "74.8100",
        "country": "India"
    },
    {
        "name": "Lesnoy Gorodok",
        "lat": "55.6405",
        "lng": "37.2075",
        "country": "Russia"
    },
    {
        "name": "Hlyboka",
        "lat": "48.0833",
        "lng": "25.9333",
        "country": "Ukraine"
    },
    {
        "name": "La Bruy\u00e8re",
        "lat": "50.5000",
        "lng": "4.8000",
        "country": "Belgium"
    },
    {
        "name": "Fazendinha",
        "lat": "-0.0441",
        "lng": "-51.1171",
        "country": "Brazil"
    },
    {
        "name": "I-n-Amenas",
        "lat": "28.0408",
        "lng": "9.5431",
        "country": "Algeria"
    },
    {
        "name": "Aslanapa",
        "lat": "39.2167",
        "lng": "29.8667",
        "country": "Turkey"
    },
    {
        "name": "Kalanchak",
        "lat": "46.2522",
        "lng": "33.2906",
        "country": "Ukraine"
    },
    {
        "name": "Ba\u00eda da Trai\u00e7\u00e3o",
        "lat": "-6.7000",
        "lng": "-34.9333",
        "country": "Brazil"
    },
    {
        "name": "Kondayamp\u0101laiyam",
        "lat": "11.5130",
        "lng": "77.4371",
        "country": "India"
    },
    {
        "name": "Ti\u0161nov",
        "lat": "49.3486",
        "lng": "16.4244",
        "country": "Czechia"
    },
    {
        "name": "J\u0101jireddig\u016bdem",
        "lat": "17.3278",
        "lng": "79.5711",
        "country": "India"
    },
    {
        "name": "White Meadow Lake",
        "lat": "40.9241",
        "lng": "-74.5107",
        "country": "United States"
    },
    {
        "name": "Oromocto",
        "lat": "45.8488",
        "lng": "-66.4788",
        "country": "Canada"
    },
    {
        "name": "Borja",
        "lat": "-25.9528",
        "lng": "-56.4972",
        "country": "Paraguay"
    },
    {
        "name": "Clay Cross",
        "lat": "53.1637",
        "lng": "-1.4128",
        "country": "United Kingdom"
    },
    {
        "name": "Bude",
        "lat": "50.8240",
        "lng": "-4.5420",
        "country": "United Kingdom"
    },
    {
        "name": "Shannon",
        "lat": "52.7137",
        "lng": "-8.8686",
        "country": "Ireland"
    },
    {
        "name": "Gudim\u016blakhandrika",
        "lat": "16.3820",
        "lng": "81.7335",
        "country": "India"
    },
    {
        "name": "Bad Laer",
        "lat": "52.1031",
        "lng": "8.0892",
        "country": "Germany"
    },
    {
        "name": "Baluntaicun",
        "lat": "42.7594",
        "lng": "86.3231",
        "country": "China"
    },
    {
        "name": "Gandhw\u0101ni",
        "lat": "22.3400",
        "lng": "75.0048",
        "country": "India"
    },
    {
        "name": "Vallahbh\u0101puram",
        "lat": "16.3528",
        "lng": "80.7175",
        "country": "India"
    },
    {
        "name": "Badagabettu",
        "lat": "13.3335",
        "lng": "74.7999",
        "country": "India"
    },
    {
        "name": "Gangaura Behra",
        "lat": "25.9541",
        "lng": "86.5482",
        "country": "India"
    },
    {
        "name": "Washington Terrace",
        "lat": "41.1683",
        "lng": "-111.9783",
        "country": "United States"
    },
    {
        "name": "Japaratinga",
        "lat": "-9.0878",
        "lng": "-35.2578",
        "country": "Brazil"
    },
    {
        "name": "Ant\u00f4nio Dias",
        "lat": "-19.6528",
        "lng": "-42.8719",
        "country": "Brazil"
    },
    {
        "name": "Mejillones",
        "lat": "-23.1000",
        "lng": "-70.4500",
        "country": "Chile"
    },
    {
        "name": "Joigny",
        "lat": "47.9831",
        "lng": "3.3978",
        "country": "France"
    },
    {
        "name": "Inverigo",
        "lat": "45.7333",
        "lng": "9.2167",
        "country": "Italy"
    },
    {
        "name": "Mikhaylovskoye",
        "lat": "43.0997",
        "lng": "44.6317",
        "country": "Russia"
    },
    {
        "name": "Badnor",
        "lat": "25.8355",
        "lng": "74.2775",
        "country": "India"
    },
    {
        "name": "Nonea",
        "lat": "26.9746",
        "lng": "84.8768",
        "country": "India"
    },
    {
        "name": "Saraunja",
        "lat": "25.7690",
        "lng": "86.5273",
        "country": "India"
    },
    {
        "name": "Kandiyankovil",
        "lat": "11.0147",
        "lng": "77.4695",
        "country": "India"
    },
    {
        "name": "Ottapp\u0101rai",
        "lat": "11.1936",
        "lng": "77.5964",
        "country": "India"
    },
    {
        "name": "Sw\u0101mimalai",
        "lat": "10.9575",
        "lng": "79.3293",
        "country": "India"
    },
    {
        "name": "\u00c9vian-les-Bains",
        "lat": "46.3833",
        "lng": "6.5833",
        "country": "France"
    },
    {
        "name": "Totnes",
        "lat": "50.4320",
        "lng": "-3.6840",
        "country": "United Kingdom"
    },
    {
        "name": "Babadag",
        "lat": "44.8981",
        "lng": "28.7419",
        "country": "Romania"
    },
    {
        "name": "Nong Kung Si",
        "lat": "16.6500",
        "lng": "103.3000",
        "country": "Thailand"
    },
    {
        "name": "Ghattupal",
        "lat": "17.0725",
        "lng": "78.9239",
        "country": "India"
    },
    {
        "name": "Sholaqqorghan",
        "lat": "43.7650",
        "lng": "69.1758",
        "country": "Kazakhstan"
    },
    {
        "name": "Altenbeken",
        "lat": "51.7667",
        "lng": "8.9333",
        "country": "Germany"
    },
    {
        "name": "Kandel",
        "lat": "49.0833",
        "lng": "8.2000",
        "country": "Germany"
    },
    {
        "name": "Kharika",
        "lat": "25.7173",
        "lng": "85.1256",
        "country": "India"
    },
    {
        "name": "Kodakkal",
        "lat": "13.0685",
        "lng": "79.4149",
        "country": "India"
    },
    {
        "name": "Castrolibero",
        "lat": "39.3167",
        "lng": "16.2000",
        "country": "Italy"
    },
    {
        "name": "Qarqaraly",
        "lat": "49.4167",
        "lng": "75.4167",
        "country": "Kazakhstan"
    },
    {
        "name": "Shawano",
        "lat": "44.7748",
        "lng": "-88.5843",
        "country": "United States"
    },
    {
        "name": "Cape St. Claire",
        "lat": "39.0433",
        "lng": "-76.4471",
        "country": "United States"
    },
    {
        "name": "Kannavam",
        "lat": "11.8333",
        "lng": "75.6667",
        "country": "India"
    },
    {
        "name": "Pong Nam Ron",
        "lat": "12.9057",
        "lng": "102.2663",
        "country": "Thailand"
    },
    {
        "name": "Ban Kham Pom",
        "lat": "15.9653",
        "lng": "105.2112",
        "country": "Thailand"
    },
    {
        "name": "Pohrebyshche",
        "lat": "49.4833",
        "lng": "29.2667",
        "country": "Ukraine"
    },
    {
        "name": "Jambukuttaippatti",
        "lat": "12.3246",
        "lng": "78.3443",
        "country": "India"
    },
    {
        "name": "Chokkalingapuram",
        "lat": "10.1930",
        "lng": "78.3973",
        "country": "India"
    },
    {
        "name": "B\u0101danahatti",
        "lat": "15.3176",
        "lng": "76.8258",
        "country": "India"
    },
    {
        "name": "Covasna",
        "lat": "45.8492",
        "lng": "26.1853",
        "country": "Romania"
    },
    {
        "name": "Aniskino",
        "lat": "55.9417",
        "lng": "38.1500",
        "country": "Russia"
    },
    {
        "name": "Llagostera",
        "lat": "41.8292",
        "lng": "2.8933",
        "country": "Spain"
    },
    {
        "name": "S\u016brak",
        "lat": "36.5939",
        "lng": "53.2086",
        "country": "Iran"
    },
    {
        "name": "Waseca",
        "lat": "44.0827",
        "lng": "-93.5029",
        "country": "United States"
    },
    {
        "name": "O'Hara",
        "lat": "40.5092",
        "lng": "-79.8949",
        "country": "United States"
    },
    {
        "name": "Gnarrenburg",
        "lat": "53.3864",
        "lng": "9.0050",
        "country": "Germany"
    },
    {
        "name": "Golb\u0101f",
        "lat": "29.8828",
        "lng": "57.7322",
        "country": "Iran"
    },
    {
        "name": "Palm Beach",
        "lat": "26.6945",
        "lng": "-80.0408",
        "country": "United States"
    },
    {
        "name": "Falan",
        "lat": "5.1333",
        "lng": "-74.9500",
        "country": "Colombia"
    },
    {
        "name": "Elsfleth",
        "lat": "53.2333",
        "lng": "8.4667",
        "country": "Germany"
    },
    {
        "name": "Arlesheim",
        "lat": "47.4833",
        "lng": "7.6167",
        "country": "Switzerland"
    },
    {
        "name": "Mont-Saint-Martin",
        "lat": "49.5411",
        "lng": "5.7800",
        "country": "France"
    }
]