[
    {
        "name": "Mbala",
        "lat": "-8.8333",
        "lng": "31.3833",
        "country": "Zambia"
    },
    {
        "name": "Qagan Us",
        "lat": "36.3972",
        "lng": "98.0122",
        "country": "China"
    },
    {
        "name": "Foya Tangia",
        "lat": "8.2713",
        "lng": "-10.2283",
        "country": "Liberia"
    },
    {
        "name": "\u015e\u0101 al \u1e28ajar",
        "lat": "30.9647",
        "lng": "30.7683",
        "country": "Egypt"
    },
    {
        "name": "Arhavi",
        "lat": "41.3333",
        "lng": "41.3000",
        "country": "Turkey"
    },
    {
        "name": "Pleasantville",
        "lat": "39.3900",
        "lng": "-74.5169",
        "country": "United States"
    },
    {
        "name": "Dumbarton",
        "lat": "55.9500",
        "lng": "-4.5667",
        "country": "United Kingdom"
    },
    {
        "name": "Lugait",
        "lat": "8.3411",
        "lng": "124.2592",
        "country": "Philippines"
    },
    {
        "name": "\u2018Adr\u0101",
        "lat": "33.6000",
        "lng": "36.5150",
        "country": "Syria"
    },
    {
        "name": "Chintalapalle",
        "lat": "15.0400",
        "lng": "76.2000",
        "country": "India"
    },
    {
        "name": "Hlohovec",
        "lat": "48.4333",
        "lng": "17.8033",
        "country": "Slovakia"
    },
    {
        "name": "M\u00f6dling",
        "lat": "48.0833",
        "lng": "16.2667",
        "country": "Austria"
    },
    {
        "name": "Libertyville",
        "lat": "42.2870",
        "lng": "-87.9670",
        "country": "United States"
    },
    {
        "name": "Jefferson",
        "lat": "41.0003",
        "lng": "-74.5531",
        "country": "United States"
    },
    {
        "name": "Sultanpur",
        "lat": "31.2235",
        "lng": "75.2041",
        "country": "India"
    },
    {
        "name": "Honn\u0101li",
        "lat": "14.2399",
        "lng": "75.6474",
        "country": "India"
    },
    {
        "name": "La Resolana",
        "lat": "19.3425",
        "lng": "-104.2878",
        "country": "Mexico"
    },
    {
        "name": "Fr\u00f6ndenberg",
        "lat": "51.4719",
        "lng": "7.7658",
        "country": "Germany"
    },
    {
        "name": "Zestaponi",
        "lat": "42.1083",
        "lng": "43.0417",
        "country": "Georgia"
    },
    {
        "name": "Shoreham-by-Sea",
        "lat": "50.8340",
        "lng": "-0.2730",
        "country": "United Kingdom"
    },
    {
        "name": "Ch\u00e3 Grande",
        "lat": "-8.2333",
        "lng": "-35.4500",
        "country": "Brazil"
    },
    {
        "name": "Namioka",
        "lat": "40.7000",
        "lng": "140.5833",
        "country": "Japan"
    },
    {
        "name": "Vakon",
        "lat": "6.5167",
        "lng": "2.5667",
        "country": "Benin"
    },
    {
        "name": "Arsk",
        "lat": "56.1000",
        "lng": "49.8833",
        "country": "Russia"
    },
    {
        "name": "Sunchales",
        "lat": "-30.9333",
        "lng": "-61.5667",
        "country": "Argentina"
    },
    {
        "name": "Gandujie",
        "lat": "35.8908",
        "lng": "102.3272",
        "country": "China"
    },
    {
        "name": "Bat\u012b",
        "lat": "11.1833",
        "lng": "40.0167",
        "country": "Ethiopia"
    },
    {
        "name": "Colleferro",
        "lat": "41.7333",
        "lng": "13.0167",
        "country": "Italy"
    },
    {
        "name": "Codlea",
        "lat": "45.6969",
        "lng": "25.4439",
        "country": "Romania"
    },
    {
        "name": "Mazinde",
        "lat": "-4.8073",
        "lng": "38.2118",
        "country": "Tanzania"
    },
    {
        "name": "Laboulaye",
        "lat": "-34.1167",
        "lng": "-63.4000",
        "country": "Argentina"
    },
    {
        "name": "Guadalupe Nuevo",
        "lat": "14.5587",
        "lng": "121.0446",
        "country": "Philippines"
    },
    {
        "name": "Sultanhisar",
        "lat": "37.8897",
        "lng": "28.1575",
        "country": "Turkey"
    },
    {
        "name": "Carmen de Patagones",
        "lat": "-40.7833",
        "lng": "-62.9667",
        "country": "Argentina"
    },
    {
        "name": "Quemado de G\u00fcines",
        "lat": "22.7900",
        "lng": "-80.2561",
        "country": "Cuba"
    },
    {
        "name": "Aomar",
        "lat": "36.5000",
        "lng": "3.7667",
        "country": "Algeria"
    },
    {
        "name": "Maniyamturuttu",
        "lat": "9.7943",
        "lng": "76.4179",
        "country": "India"
    },
    {
        "name": "Torhout",
        "lat": "51.0500",
        "lng": "3.1000",
        "country": "Belgium"
    },
    {
        "name": "Bothell West",
        "lat": "47.8056",
        "lng": "-122.2401",
        "country": "United States"
    },
    {
        "name": "Bladel",
        "lat": "51.3667",
        "lng": "5.2167",
        "country": "Netherlands"
    },
    {
        "name": "Lami",
        "lat": "-18.1167",
        "lng": "178.4167",
        "country": "Fiji"
    },
    {
        "name": "Sonkach",
        "lat": "22.9717",
        "lng": "76.3467",
        "country": "India"
    },
    {
        "name": "Hernani",
        "lat": "43.2667",
        "lng": "-1.9667",
        "country": "Spain"
    },
    {
        "name": "Hythe",
        "lat": "50.8690",
        "lng": "-1.3990",
        "country": "United Kingdom"
    },
    {
        "name": "Vadamadurai",
        "lat": "10.4408",
        "lng": "78.0978",
        "country": "India"
    },
    {
        "name": "Madipakkam",
        "lat": "12.9623",
        "lng": "80.1986",
        "country": "India"
    },
    {
        "name": "Chennimalai",
        "lat": "11.1638",
        "lng": "77.6039",
        "country": "India"
    },
    {
        "name": "Bala",
        "lat": "39.5539",
        "lng": "33.1211",
        "country": "Turkey"
    },
    {
        "name": "\u017d\u010f\u00e1r nad S\u00e1zavou",
        "lat": "49.5628",
        "lng": "15.9392",
        "country": "Czechia"
    },
    {
        "name": "Cobourg",
        "lat": "43.9667",
        "lng": "-78.1667",
        "country": "Canada"
    },
    {
        "name": "\u014chara",
        "lat": "35.2508",
        "lng": "140.3886",
        "country": "Japan"
    },
    {
        "name": "Mustang",
        "lat": "35.3917",
        "lng": "-97.7246",
        "country": "United States"
    },
    {
        "name": "Northfield",
        "lat": "44.4550",
        "lng": "-93.1698",
        "country": "United States"
    },
    {
        "name": "Atoyac de \u00c1lvarez",
        "lat": "17.2000",
        "lng": "-100.4333",
        "country": "Mexico"
    },
    {
        "name": "Station des Essais M.V.A.",
        "lat": "34.9352",
        "lng": "-2.4306",
        "country": "Morocco"
    },
    {
        "name": "Tyrnyauz",
        "lat": "43.4000",
        "lng": "42.9167",
        "country": "Russia"
    },
    {
        "name": "Eruh",
        "lat": "37.7497",
        "lng": "42.1797",
        "country": "Turkey"
    },
    {
        "name": "Elko",
        "lat": "40.8381",
        "lng": "-115.7678",
        "country": "United States"
    },
    {
        "name": "Coswig",
        "lat": "51.1333",
        "lng": "13.5833",
        "country": "Germany"
    },
    {
        "name": "Colonia General Felipe \u00c1ngeles",
        "lat": "23.9167",
        "lng": "-104.6000",
        "country": "Mexico"
    },
    {
        "name": "Cauto Cristo",
        "lat": "20.5619",
        "lng": "-76.4694",
        "country": "Cuba"
    },
    {
        "name": "Carquefou",
        "lat": "47.2975",
        "lng": "-1.4914",
        "country": "France"
    },
    {
        "name": "Trecate",
        "lat": "45.4333",
        "lng": "8.7333",
        "country": "Italy"
    },
    {
        "name": "Ijevan",
        "lat": "40.8792",
        "lng": "45.1472",
        "country": "Armenia"
    },
    {
        "name": "Nishig\u014d",
        "lat": "37.1417",
        "lng": "140.1554",
        "country": "Japan"
    },
    {
        "name": "Bibai",
        "lat": "43.3333",
        "lng": "141.8500",
        "country": "Japan"
    },
    {
        "name": "Ba\u00f1olas",
        "lat": "42.1194",
        "lng": "2.7664",
        "country": "Spain"
    },
    {
        "name": "Kozmodemyansk",
        "lat": "56.3367",
        "lng": "46.5711",
        "country": "Russia"
    },
    {
        "name": "Baskil",
        "lat": "38.5697",
        "lng": "38.8231",
        "country": "Turkey"
    },
    {
        "name": "Horten",
        "lat": "59.4208",
        "lng": "10.4328",
        "country": "Norway"
    },
    {
        "name": "Muhammad\u0101b\u0101d",
        "lat": "27.3333",
        "lng": "79.5000",
        "country": "India"
    },
    {
        "name": "Pendembu",
        "lat": "8.1000",
        "lng": "-10.7000",
        "country": "Sierra Leone"
    },
    {
        "name": "Tielt",
        "lat": "51.0000",
        "lng": "3.3167",
        "country": "Belgium"
    },
    {
        "name": "Shimogamo",
        "lat": "34.6795",
        "lng": "138.9453",
        "country": "Japan"
    },
    {
        "name": "Cranbrook",
        "lat": "49.5097",
        "lng": "-115.7667",
        "country": "Canada"
    },
    {
        "name": "Nellimarla",
        "lat": "18.1667",
        "lng": "83.4333",
        "country": "India"
    },
    {
        "name": "Lubart\u00f3w",
        "lat": "51.4667",
        "lng": "22.6000",
        "country": "Poland"
    },
    {
        "name": "Grottaferrata",
        "lat": "41.7883",
        "lng": "12.6717",
        "country": "Italy"
    },
    {
        "name": "Binondo",
        "lat": "14.6000",
        "lng": "120.9670",
        "country": "Philippines"
    },
    {
        "name": "Seydi",
        "lat": "39.4167",
        "lng": "62.9000",
        "country": "Turkmenistan"
    },
    {
        "name": "Sapang Dalaga",
        "lat": "8.5500",
        "lng": "123.5700",
        "country": "Philippines"
    },
    {
        "name": "Nahorkatiya",
        "lat": "27.2891",
        "lng": "95.3418",
        "country": "India"
    },
    {
        "name": "Khv\u0101ns\u0101r",
        "lat": "33.2208",
        "lng": "50.3153",
        "country": "Iran"
    },
    {
        "name": "Sceaux",
        "lat": "48.7786",
        "lng": "2.2906",
        "country": "France"
    },
    {
        "name": "Stevenson Ranch",
        "lat": "34.3894",
        "lng": "-118.5883",
        "country": "United States"
    },
    {
        "name": "Hatvan",
        "lat": "47.6681",
        "lng": "19.6697",
        "country": "Hungary"
    },
    {
        "name": "Peritor\u00f3",
        "lat": "-4.3828",
        "lng": "-44.3328",
        "country": "Brazil"
    },
    {
        "name": "Saint-Pol-sur-Mer",
        "lat": "51.0314",
        "lng": "2.3439",
        "country": "France"
    },
    {
        "name": "Lower Southampton",
        "lat": "40.1541",
        "lng": "-74.9903",
        "country": "United States"
    },
    {
        "name": "Posu\u0161je",
        "lat": "43.4720",
        "lng": "17.3297",
        "country": "Bosnia and Herzegovina"
    },
    {
        "name": "Becerril",
        "lat": "9.7000",
        "lng": "-73.2833",
        "country": "Colombia"
    },
    {
        "name": "La Celle-Saint-Cloud",
        "lat": "48.8411",
        "lng": "2.1344",
        "country": "France"
    },
    {
        "name": "Hailsham",
        "lat": "50.8647",
        "lng": "0.2577",
        "country": "United Kingdom"
    },
    {
        "name": "Bhojpur Kad\u012bm",
        "lat": "25.5841",
        "lng": "84.1265",
        "country": "India"
    },
    {
        "name": "Uetze",
        "lat": "52.4661",
        "lng": "10.2039",
        "country": "Germany"
    },
    {
        "name": "Kurshab",
        "lat": "40.6917",
        "lng": "73.1889",
        "country": "Kyrgyzstan"
    },
    {
        "name": "Re\u00e7ani",
        "lat": "31.2859",
        "lng": "-4.2751",
        "country": "Morocco"
    },
    {
        "name": "D\u00fclken",
        "lat": "51.2522",
        "lng": "6.3353",
        "country": "Germany"
    },
    {
        "name": "Nadik\u016bde",
        "lat": "16.5941",
        "lng": "79.7167",
        "country": "India"
    },
    {
        "name": "Kaltan",
        "lat": "53.5167",
        "lng": "87.2833",
        "country": "Russia"
    }
]