[
    {
        "name": "Pach\u0101hi",
        "lat": "26.1932",
        "lng": "86.3597",
        "country": "India"
    },
    {
        "name": "Manpaur",
        "lat": "26.5081",
        "lng": "85.9478",
        "country": "India"
    },
    {
        "name": "Zierikzee",
        "lat": "51.6497",
        "lng": "3.9164",
        "country": "Netherlands"
    },
    {
        "name": "Lyuban",
        "lat": "52.7819",
        "lng": "28.0525",
        "country": "Belarus"
    },
    {
        "name": "Sidi Baizid",
        "lat": "35.7500",
        "lng": "2.3833",
        "country": "Algeria"
    },
    {
        "name": "Carnoustie",
        "lat": "56.5010",
        "lng": "-2.7100",
        "country": "United Kingdom"
    },
    {
        "name": "Gardone Val Trompia",
        "lat": "45.6833",
        "lng": "10.1833",
        "country": "Italy"
    },
    {
        "name": "Bankya",
        "lat": "42.7000",
        "lng": "23.1333",
        "country": "Bulgaria"
    },
    {
        "name": "Rudersberg",
        "lat": "48.8856",
        "lng": "9.5281",
        "country": "Germany"
    },
    {
        "name": "Phulpar\u0101s",
        "lat": "26.3549",
        "lng": "86.4908",
        "country": "India"
    },
    {
        "name": "Manappakkam",
        "lat": "13.0108",
        "lng": "80.1686",
        "country": "India"
    },
    {
        "name": "Kalinagar",
        "lat": "22.4383",
        "lng": "88.1150",
        "country": "India"
    },
    {
        "name": "Bromont",
        "lat": "45.3167",
        "lng": "-72.6500",
        "country": "Canada"
    },
    {
        "name": "Engen",
        "lat": "47.8528",
        "lng": "8.7714",
        "country": "Germany"
    },
    {
        "name": "Parvatgiri",
        "lat": "17.7417",
        "lng": "79.7264",
        "country": "India"
    },
    {
        "name": "Per\u0101mpuzha",
        "lat": "12.1343",
        "lng": "75.3006",
        "country": "India"
    },
    {
        "name": "Medulla",
        "lat": "27.9570",
        "lng": "-81.9866",
        "country": "United States"
    },
    {
        "name": "Bargaon",
        "lat": "25.3455",
        "lng": "84.6607",
        "country": "India"
    },
    {
        "name": "Monte Sant\u2019Angelo",
        "lat": "41.7000",
        "lng": "15.9667",
        "country": "Italy"
    },
    {
        "name": "Rodenbach",
        "lat": "50.1389",
        "lng": "9.0417",
        "country": "Germany"
    },
    {
        "name": "Catskill",
        "lat": "42.2063",
        "lng": "-73.9435",
        "country": "United States"
    },
    {
        "name": "Klyetsk",
        "lat": "53.0636",
        "lng": "26.6372",
        "country": "Belarus"
    },
    {
        "name": "Talaigua Nuevo",
        "lat": "9.3069",
        "lng": "-74.5686",
        "country": "Colombia"
    },
    {
        "name": "Bataipor\u00e3",
        "lat": "-22.2950",
        "lng": "-53.2708",
        "country": "Brazil"
    },
    {
        "name": "Rothenburg ob der Tauber",
        "lat": "49.3833",
        "lng": "10.1833",
        "country": "Germany"
    },
    {
        "name": "Charouine",
        "lat": "29.0186",
        "lng": "-0.2578",
        "country": "Algeria"
    },
    {
        "name": "Ochsenfurt",
        "lat": "49.6500",
        "lng": "10.0667",
        "country": "Germany"
    },
    {
        "name": "Vaal Reefs",
        "lat": "-26.9290",
        "lng": "26.7360",
        "country": "South Africa"
    },
    {
        "name": "Chkalovsk",
        "lat": "56.7667",
        "lng": "43.2333",
        "country": "Russia"
    },
    {
        "name": "Cardoso",
        "lat": "-20.0819",
        "lng": "-49.9139",
        "country": "Brazil"
    },
    {
        "name": "Handewitt",
        "lat": "54.7667",
        "lng": "9.3167",
        "country": "Germany"
    },
    {
        "name": "Taurisano",
        "lat": "39.9500",
        "lng": "18.1667",
        "country": "Italy"
    },
    {
        "name": "Tegueste",
        "lat": "28.5167",
        "lng": "-16.3333",
        "country": "Spain"
    },
    {
        "name": "Nalamb\u016br",
        "lat": "13.0867",
        "lng": "80.1703",
        "country": "India"
    },
    {
        "name": "Rheinau",
        "lat": "48.6678",
        "lng": "7.9347",
        "country": "Germany"
    },
    {
        "name": "Knowsley",
        "lat": "53.4498",
        "lng": "-2.8501",
        "country": "United Kingdom"
    },
    {
        "name": "Cherlagandlap\u0101lem",
        "lat": "16.0069",
        "lng": "80.6117",
        "country": "India"
    },
    {
        "name": "Pimenteiras",
        "lat": "-6.2450",
        "lng": "-41.4189",
        "country": "Brazil"
    },
    {
        "name": "Lamsabih",
        "lat": "32.2933",
        "lng": "-8.6889",
        "country": "Morocco"
    },
    {
        "name": "Capaci",
        "lat": "38.1667",
        "lng": "13.2333",
        "country": "Italy"
    },
    {
        "name": "Ouaklim Oukider",
        "lat": "31.4500",
        "lng": "-5.5500",
        "country": "Morocco"
    },
    {
        "name": "Teniet el Abed",
        "lat": "35.2469",
        "lng": "6.1906",
        "country": "Algeria"
    },
    {
        "name": "Domne\u015fti",
        "lat": "44.4000",
        "lng": "25.9167",
        "country": "Romania"
    },
    {
        "name": "Kurgunta",
        "lat": "17.2000",
        "lng": "77.3600",
        "country": "India"
    },
    {
        "name": "Welzheim",
        "lat": "48.8747",
        "lng": "9.6344",
        "country": "Germany"
    },
    {
        "name": "Dharmaj",
        "lat": "22.4167",
        "lng": "72.8000",
        "country": "India"
    },
    {
        "name": "Cocoa Beach",
        "lat": "28.3327",
        "lng": "-80.6274",
        "country": "United States"
    },
    {
        "name": "Yanahuanca",
        "lat": "-10.4914",
        "lng": "-76.5136",
        "country": "Peru"
    },
    {
        "name": "Gustavsberg",
        "lat": "59.3333",
        "lng": "18.3833",
        "country": "Sweden"
    },
    {
        "name": "Waidhofen an der Ybbs",
        "lat": "47.9667",
        "lng": "14.7667",
        "country": "Austria"
    },
    {
        "name": "Machados",
        "lat": "-7.6858",
        "lng": "-35.5150",
        "country": "Brazil"
    },
    {
        "name": "Humpolec",
        "lat": "49.5417",
        "lng": "15.3572",
        "country": "Czechia"
    },
    {
        "name": "T\u00f6k\u00f6l",
        "lat": "47.3203",
        "lng": "18.9671",
        "country": "Hungary"
    },
    {
        "name": "Besalampy",
        "lat": "-16.7500",
        "lng": "44.4833",
        "country": "Madagascar"
    },
    {
        "name": "Gouv\u00eaa",
        "lat": "-18.4539",
        "lng": "-43.7408",
        "country": "Brazil"
    },
    {
        "name": "Nu\u00dfloch",
        "lat": "49.3236",
        "lng": "8.6939",
        "country": "Germany"
    },
    {
        "name": "Ialys\u00f3s",
        "lat": "36.4167",
        "lng": "28.1500",
        "country": "Greece"
    },
    {
        "name": "Natshal",
        "lat": "22.1957",
        "lng": "88.0272",
        "country": "India"
    },
    {
        "name": "Pemmp\u00e9r\u00e9na",
        "lat": "11.4306",
        "lng": "-5.7542",
        "country": "Mali"
    },
    {
        "name": "El Quisco",
        "lat": "-33.3913",
        "lng": "-71.6929",
        "country": "Chile"
    },
    {
        "name": "P\u0101pireddippatti",
        "lat": "11.9140",
        "lng": "78.3675",
        "country": "India"
    },
    {
        "name": "Dugny",
        "lat": "48.9500",
        "lng": "2.4167",
        "country": "France"
    },
    {
        "name": "Tiruvennanall\u016br",
        "lat": "11.8589",
        "lng": "79.3664",
        "country": "India"
    },
    {
        "name": "Langarivo",
        "lat": "-14.6000",
        "lng": "50.0500",
        "country": "Madagascar"
    },
    {
        "name": "M\u0101shy\u0101l",
        "lat": "17.3226",
        "lng": "76.2407",
        "country": "India"
    },
    {
        "name": "Rio Novo do Sul",
        "lat": "-20.8628",
        "lng": "-40.9358",
        "country": "Brazil"
    },
    {
        "name": "Ban Bang Lamung",
        "lat": "13.0470",
        "lng": "100.9289",
        "country": "Thailand"
    },
    {
        "name": "B\u0101r\u012bgarh",
        "lat": "25.2325",
        "lng": "80.0347",
        "country": "India"
    },
    {
        "name": "Virton",
        "lat": "49.5675",
        "lng": "5.5325",
        "country": "Belgium"
    },
    {
        "name": "Tabapu\u00e3",
        "lat": "-20.9639",
        "lng": "-49.0319",
        "country": "Brazil"
    },
    {
        "name": "Lardero",
        "lat": "42.4333",
        "lng": "-2.4667",
        "country": "Spain"
    },
    {
        "name": "Masinigudi",
        "lat": "11.5683",
        "lng": "76.6409",
        "country": "India"
    },
    {
        "name": "Capit\u00e1n Bado",
        "lat": "-23.2600",
        "lng": "-55.5400",
        "country": "Paraguay"
    },
    {
        "name": "Varadar\u0101jampettai",
        "lat": "11.3553",
        "lng": "79.4186",
        "country": "India"
    },
    {
        "name": "Taylorville",
        "lat": "39.5328",
        "lng": "-89.2804",
        "country": "United States"
    },
    {
        "name": "Tosagua",
        "lat": "-0.7800",
        "lng": "-80.2600",
        "country": "Ecuador"
    },
    {
        "name": "Capit\u00e1n Sarmiento",
        "lat": "-34.1667",
        "lng": "-59.7833",
        "country": "Argentina"
    },
    {
        "name": "Leatherhead",
        "lat": "51.2950",
        "lng": "-0.3290",
        "country": "United Kingdom"
    },
    {
        "name": "Gracemere",
        "lat": "-23.4391",
        "lng": "150.4558",
        "country": "Australia"
    },
    {
        "name": "Bitritto",
        "lat": "41.0500",
        "lng": "16.8333",
        "country": "Italy"
    },
    {
        "name": "M\u0103r\u0103\u015fe\u015fti",
        "lat": "45.8800",
        "lng": "27.2300",
        "country": "Romania"
    },
    {
        "name": "Oxted",
        "lat": "51.2570",
        "lng": "-0.0060",
        "country": "United Kingdom"
    },
    {
        "name": "Burslem",
        "lat": "53.0426",
        "lng": "-2.1879",
        "country": "United Kingdom"
    },
    {
        "name": "Drezna",
        "lat": "55.7453",
        "lng": "38.8486",
        "country": "Russia"
    },
    {
        "name": "Pionerskiy",
        "lat": "54.9517",
        "lng": "20.2333",
        "country": "Russia"
    },
    {
        "name": "M\u00fclheim-K\u00e4rlich",
        "lat": "50.3869",
        "lng": "7.4953",
        "country": "Germany"
    },
    {
        "name": "Worb",
        "lat": "46.9333",
        "lng": "7.5667",
        "country": "Switzerland"
    },
    {
        "name": "T\u00e9nenkou",
        "lat": "14.4556",
        "lng": "-4.9181",
        "country": "Mali"
    },
    {
        "name": "Bruay-sur-l\u2019Escaut",
        "lat": "50.3989",
        "lng": "3.5403",
        "country": "France"
    },
    {
        "name": "T\u0101zhakudi",
        "lat": "8.2348",
        "lng": "77.4533",
        "country": "India"
    },
    {
        "name": "Jan\u00f3w Lubelski",
        "lat": "50.7167",
        "lng": "22.4167",
        "country": "Poland"
    },
    {
        "name": "Hipperholme",
        "lat": "53.7258",
        "lng": "-1.8120",
        "country": "United Kingdom"
    },
    {
        "name": "Edasseri",
        "lat": "8.6654",
        "lng": "76.8459",
        "country": "India"
    },
    {
        "name": "Dimmbal",
        "lat": "14.0167",
        "lng": "-3.6167",
        "country": "Mali"
    },
    {
        "name": "Zimna Voda",
        "lat": "49.8222",
        "lng": "23.9028",
        "country": "Ukraine"
    },
    {
        "name": "Saint-Germain-l\u00e8s-Arpajon",
        "lat": "48.5946",
        "lng": "2.2558",
        "country": "France"
    },
    {
        "name": "Arnprior",
        "lat": "45.4333",
        "lng": "-76.3500",
        "country": "Canada"
    },
    {
        "name": "Villa Purificaci\u00f3n",
        "lat": "19.8167",
        "lng": "-104.7333",
        "country": "Mexico"
    },
    {
        "name": "Denkendorf",
        "lat": "48.6958",
        "lng": "9.3175",
        "country": "Germany"
    },
    {
        "name": "Ikhl\u0101spur",
        "lat": "25.0589",
        "lng": "83.6083",
        "country": "India"
    }
]