[
    {
        "name": "Ghazaouet",
        "lat": "35.1000",
        "lng": "-1.8500",
        "country": "Algeria"
    },
    {
        "name": "Bra\u00e7o do Norte",
        "lat": "-28.2750",
        "lng": "-49.1658",
        "country": "Brazil"
    },
    {
        "name": "Vechta",
        "lat": "52.7306",
        "lng": "8.2886",
        "country": "Germany"
    },
    {
        "name": "Puerto Rico",
        "lat": "1.9142",
        "lng": "-75.1450",
        "country": "Colombia"
    },
    {
        "name": "Nars\u012bpatnam",
        "lat": "17.6650",
        "lng": "82.6140",
        "country": "India"
    },
    {
        "name": "Bogorodsk",
        "lat": "56.1167",
        "lng": "43.5000",
        "country": "Russia"
    },
    {
        "name": "Zhmerynka",
        "lat": "49.0500",
        "lng": "28.1000",
        "country": "Ukraine"
    },
    {
        "name": "Mount Lebanon",
        "lat": "40.3752",
        "lng": "-80.0494",
        "country": "United States"
    },
    {
        "name": "Catmon",
        "lat": "10.6700",
        "lng": "123.9500",
        "country": "Philippines"
    },
    {
        "name": "V\u00e1rzea da Palma",
        "lat": "-17.5978",
        "lng": "-44.7308",
        "country": "Brazil"
    },
    {
        "name": "Tekes",
        "lat": "43.2181",
        "lng": "81.8372",
        "country": "China"
    },
    {
        "name": "Mankoeng",
        "lat": "-23.8860",
        "lng": "29.7180",
        "country": "South Africa"
    },
    {
        "name": "Zacatl\u00e1n",
        "lat": "19.9319",
        "lng": "-97.9600",
        "country": "Mexico"
    },
    {
        "name": "Kadingilan",
        "lat": "7.6003",
        "lng": "124.9097",
        "country": "Philippines"
    },
    {
        "name": "Crown Point",
        "lat": "41.4143",
        "lng": "-87.3457",
        "country": "United States"
    },
    {
        "name": "El Ksar",
        "lat": "34.3900",
        "lng": "8.8000",
        "country": "Tunisia"
    },
    {
        "name": "Ojiya",
        "lat": "37.3144",
        "lng": "138.7951",
        "country": "Japan"
    },
    {
        "name": "Jaguaribe",
        "lat": "-5.8908",
        "lng": "-38.6219",
        "country": "Brazil"
    },
    {
        "name": "Chilecito",
        "lat": "-29.1667",
        "lng": "-67.5000",
        "country": "Argentina"
    },
    {
        "name": "Kovin",
        "lat": "44.7500",
        "lng": "20.9667",
        "country": "Serbia"
    },
    {
        "name": "Capoocan",
        "lat": "11.2944",
        "lng": "124.6419",
        "country": "Philippines"
    },
    {
        "name": "Kaippakanch\u0113ri",
        "lat": "10.9380",
        "lng": "75.9870",
        "country": "India"
    },
    {
        "name": "\u0100zezo",
        "lat": "12.5586",
        "lng": "37.4308",
        "country": "Ethiopia"
    },
    {
        "name": "Karaa\u011fa\u00e7",
        "lat": "36.5667",
        "lng": "36.1333",
        "country": "Turkey"
    },
    {
        "name": "L\u00e9o",
        "lat": "11.1000",
        "lng": "-2.1000",
        "country": "Burkina Faso"
    },
    {
        "name": "Trappes",
        "lat": "48.7775",
        "lng": "2.0025",
        "country": "France"
    },
    {
        "name": "Midsalip",
        "lat": "8.0328",
        "lng": "123.3147",
        "country": "Philippines"
    },
    {
        "name": "Fallbrook",
        "lat": "33.3693",
        "lng": "-117.2259",
        "country": "United States"
    },
    {
        "name": "Grodzisk Mazowiecki",
        "lat": "52.1089",
        "lng": "20.6250",
        "country": "Poland"
    },
    {
        "name": "Vemalw\u0101da",
        "lat": "18.4667",
        "lng": "78.8833",
        "country": "India"
    },
    {
        "name": "Xiaotangzhuang",
        "lat": "40.3997",
        "lng": "116.7650",
        "country": "China"
    },
    {
        "name": "Antiguo Cuscatl\u00e1n",
        "lat": "13.6731",
        "lng": "-89.2406",
        "country": "El Salvador"
    },
    {
        "name": "Landi Kotal",
        "lat": "34.1053",
        "lng": "71.1553",
        "country": "Pakistan"
    },
    {
        "name": "Roldanillo",
        "lat": "4.4167",
        "lng": "-76.1500",
        "country": "Colombia"
    },
    {
        "name": "Somma Vesuviana",
        "lat": "40.8725",
        "lng": "14.4369",
        "country": "Italy"
    },
    {
        "name": "Palmerston",
        "lat": "-12.4806",
        "lng": "130.9831",
        "country": "Australia"
    },
    {
        "name": "Tlanchinol",
        "lat": "19.9892",
        "lng": "-98.6786",
        "country": "Mexico"
    },
    {
        "name": "Kasba",
        "lat": "25.8564",
        "lng": "87.5384",
        "country": "India"
    },
    {
        "name": "Sukhoy Log",
        "lat": "56.9167",
        "lng": "62.0500",
        "country": "Russia"
    },
    {
        "name": "Datu Paglas",
        "lat": "6.7669",
        "lng": "124.8500",
        "country": "Philippines"
    },
    {
        "name": "Kohtla-J\u00e4rve",
        "lat": "59.3978",
        "lng": "27.2572",
        "country": "Estonia"
    },
    {
        "name": "Mella",
        "lat": "20.3694",
        "lng": "-75.9111",
        "country": "Cuba"
    },
    {
        "name": "Moose Jaw",
        "lat": "50.3933",
        "lng": "-105.5519",
        "country": "Canada"
    },
    {
        "name": "Batobato",
        "lat": "6.8361",
        "lng": "126.0889",
        "country": "Philippines"
    },
    {
        "name": "Upper Merion",
        "lat": "40.0902",
        "lng": "-75.3791",
        "country": "United States"
    },
    {
        "name": "Penha",
        "lat": "-26.7689",
        "lng": "-48.6458",
        "country": "Brazil"
    },
    {
        "name": "Villa Riva",
        "lat": "19.1667",
        "lng": "-69.9000",
        "country": "Dominican Republic"
    },
    {
        "name": "San Antero",
        "lat": "9.3833",
        "lng": "-75.7500",
        "country": "Colombia"
    },
    {
        "name": "B\u0101rhadashi\u0307\u0304",
        "lat": "26.5500",
        "lng": "87.9200",
        "country": "Nepal"
    },
    {
        "name": "Oulad Zemam",
        "lat": "32.3500",
        "lng": "-6.6333",
        "country": "Morocco"
    },
    {
        "name": "San Roque",
        "lat": "36.2097",
        "lng": "-5.3844",
        "country": "Spain"
    },
    {
        "name": "\u014cno",
        "lat": "35.9797",
        "lng": "136.4875",
        "country": "Japan"
    },
    {
        "name": "Lianmuqin Kancun",
        "lat": "42.8833",
        "lng": "89.9333",
        "country": "China"
    },
    {
        "name": "Englewood",
        "lat": "39.6468",
        "lng": "-104.9942",
        "country": "United States"
    },
    {
        "name": "East Lake",
        "lat": "28.1206",
        "lng": "-82.6868",
        "country": "United States"
    },
    {
        "name": "Aranda de Duero",
        "lat": "41.6833",
        "lng": "-3.6833",
        "country": "Spain"
    },
    {
        "name": "Macuro",
        "lat": "10.6500",
        "lng": "-61.9333",
        "country": "Venezuela"
    },
    {
        "name": "K\u014dry\u014d",
        "lat": "34.5500",
        "lng": "135.7500",
        "country": "Japan"
    },
    {
        "name": "Chascom\u00fas",
        "lat": "-35.5750",
        "lng": "-58.0089",
        "country": "Argentina"
    },
    {
        "name": "\u2018Ajab Sh\u012br",
        "lat": "37.4833",
        "lng": "45.8911",
        "country": "Iran"
    },
    {
        "name": "Binche",
        "lat": "50.4000",
        "lng": "4.1667",
        "country": "Belgium"
    },
    {
        "name": "Morro do Chap\u00e9u",
        "lat": "-11.5500",
        "lng": "-41.1570",
        "country": "Brazil"
    },
    {
        "name": "Batouri",
        "lat": "4.4333",
        "lng": "14.3667",
        "country": "Cameroon"
    },
    {
        "name": "Koh Kong",
        "lat": "11.6167",
        "lng": "102.9833",
        "country": "Cambodia"
    },
    {
        "name": "Atiquizaya",
        "lat": "13.9667",
        "lng": "-89.7500",
        "country": "El Salvador"
    },
    {
        "name": "Rheinfelden (Baden)",
        "lat": "47.5611",
        "lng": "7.7917",
        "country": "Germany"
    },
    {
        "name": "Masiu",
        "lat": "7.8200",
        "lng": "124.3200",
        "country": "Philippines"
    },
    {
        "name": "Sapa Sapa",
        "lat": "5.0899",
        "lng": "120.2729",
        "country": "Philippines"
    },
    {
        "name": "C\u00f4tes de Fer",
        "lat": "18.1833",
        "lng": "-73.0000",
        "country": "Haiti"
    },
    {
        "name": "Elmina",
        "lat": "5.0833",
        "lng": "-1.3500",
        "country": "Ghana"
    },
    {
        "name": "Sicuani",
        "lat": "-14.2720",
        "lng": "-71.2290",
        "country": "Peru"
    },
    {
        "name": "D\u0101ganbhuiya",
        "lat": "22.9127",
        "lng": "91.3181",
        "country": "Bangladesh"
    },
    {
        "name": "Iriba",
        "lat": "15.1167",
        "lng": "22.2500",
        "country": "Chad"
    },
    {
        "name": "Qadsayy\u0101",
        "lat": "33.5333",
        "lng": "36.2167",
        "country": "Syria"
    },
    {
        "name": "Maassluis",
        "lat": "51.9333",
        "lng": "4.2333",
        "country": "Netherlands"
    },
    {
        "name": "Pitanga",
        "lat": "-24.7569",
        "lng": "-51.7608",
        "country": "Brazil"
    },
    {
        "name": "Goldsboro",
        "lat": "35.3778",
        "lng": "-77.9717",
        "country": "United States"
    },
    {
        "name": "\u00c1no Li\u00f3sia",
        "lat": "38.0833",
        "lng": "23.7000",
        "country": "Greece"
    },
    {
        "name": "Aleshtar",
        "lat": "33.8653",
        "lng": "48.2622",
        "country": "Iran"
    },
    {
        "name": "Bagh",
        "lat": "33.9735",
        "lng": "73.7918",
        "country": "Pakistan"
    },
    {
        "name": "Ch\u0101vakk\u0101d",
        "lat": "10.5820",
        "lng": "76.0410",
        "country": "India"
    },
    {
        "name": "Ixtapan de la Sal",
        "lat": "18.8333",
        "lng": "-99.6833",
        "country": "Mexico"
    },
    {
        "name": "Belen",
        "lat": "36.4889",
        "lng": "36.1944",
        "country": "Turkey"
    },
    {
        "name": "Aweil",
        "lat": "8.7800",
        "lng": "27.4000",
        "country": "South Sudan"
    },
    {
        "name": "Port Moody",
        "lat": "49.2831",
        "lng": "-122.8317",
        "country": "Canada"
    },
    {
        "name": "Cabarroguis",
        "lat": "16.5103",
        "lng": "121.5222",
        "country": "Philippines"
    },
    {
        "name": "Acornhoek",
        "lat": "-24.5930",
        "lng": "31.0970",
        "country": "South Africa"
    },
    {
        "name": "Ayorou",
        "lat": "14.7350",
        "lng": "0.9200",
        "country": "Niger"
    },
    {
        "name": "Columbio",
        "lat": "6.7000",
        "lng": "124.9300",
        "country": "Philippines"
    },
    {
        "name": "Manganam",
        "lat": "9.7958",
        "lng": "76.4500",
        "country": "India"
    },
    {
        "name": "Saint Helier",
        "lat": "49.1858",
        "lng": "-2.1100",
        "country": "Jersey"
    },
    {
        "name": "Chumphon",
        "lat": "10.4939",
        "lng": "99.1800",
        "country": "Thailand"
    },
    {
        "name": "Arteijo",
        "lat": "43.3044",
        "lng": "-8.5114",
        "country": "Spain"
    },
    {
        "name": "Sidi Okba",
        "lat": "34.7500",
        "lng": "5.9000",
        "country": "Algeria"
    },
    {
        "name": "Com\u00e9",
        "lat": "6.4000",
        "lng": "1.8833",
        "country": "Benin"
    },
    {
        "name": "Ribeir\u00e3o",
        "lat": "-8.5139",
        "lng": "-35.3778",
        "country": "Brazil"
    },
    {
        "name": "Gorizia",
        "lat": "45.9333",
        "lng": "13.6167",
        "country": "Italy"
    },
    {
        "name": "Ken Caryl",
        "lat": "39.5770",
        "lng": "-105.1144",
        "country": "United States"
    },
    {
        "name": "Leticia",
        "lat": "-4.2167",
        "lng": "-69.9333",
        "country": "Colombia"
    },
    {
        "name": "Niangoloko",
        "lat": "10.2833",
        "lng": "-4.9167",
        "country": "Burkina Faso"
    }
]