[
    {
        "name": "Anam\u00e3",
        "lat": "-3.5800",
        "lng": "-61.4039",
        "country": "Brazil"
    },
    {
        "name": "Ch\u0101kicherla",
        "lat": "15.1127",
        "lng": "80.0366",
        "country": "India"
    },
    {
        "name": "San Calixto",
        "lat": "8.4000",
        "lng": "-73.2167",
        "country": "Colombia"
    },
    {
        "name": "Birchington",
        "lat": "51.3770",
        "lng": "1.3050",
        "country": "United Kingdom"
    },
    {
        "name": "Judenburg",
        "lat": "47.1725",
        "lng": "14.6603",
        "country": "Austria"
    },
    {
        "name": "Sagur\u0113",
        "lat": "7.7500",
        "lng": "39.1500",
        "country": "Ethiopia"
    },
    {
        "name": "Nairn",
        "lat": "57.5860",
        "lng": "-3.8690",
        "country": "United Kingdom"
    },
    {
        "name": "Makale",
        "lat": "-3.1000",
        "lng": "119.8500",
        "country": "Indonesia"
    },
    {
        "name": "S\u016bndekuppam",
        "lat": "12.4567",
        "lng": "78.2125",
        "country": "India"
    },
    {
        "name": "Kapasi\u0101w\u0101n",
        "lat": "25.2783",
        "lng": "85.2869",
        "country": "India"
    },
    {
        "name": "Padinj\u0101reb\u0101gam",
        "lat": "10.3222",
        "lng": "76.1792",
        "country": "India"
    },
    {
        "name": "Kh\u0101ndsa",
        "lat": "28.4220",
        "lng": "76.9900",
        "country": "India"
    },
    {
        "name": "Bastak",
        "lat": "27.1953",
        "lng": "54.3678",
        "country": "Iran"
    },
    {
        "name": "A\u012bbak",
        "lat": "36.2653",
        "lng": "68.0167",
        "country": "Afghanistan"
    },
    {
        "name": "Bertem",
        "lat": "50.8500",
        "lng": "4.6167",
        "country": "Belgium"
    },
    {
        "name": "Friedrichsthal",
        "lat": "49.3256",
        "lng": "7.0961",
        "country": "Germany"
    },
    {
        "name": "Mahem",
        "lat": "15.5796",
        "lng": "73.9260",
        "country": "India"
    },
    {
        "name": "Siechnice",
        "lat": "51.0367",
        "lng": "17.1525",
        "country": "Poland"
    },
    {
        "name": "Sankt Andr\u00e4",
        "lat": "46.7667",
        "lng": "14.8167",
        "country": "Austria"
    },
    {
        "name": "Handsworth",
        "lat": "53.3700",
        "lng": "-1.4000",
        "country": "United Kingdom"
    },
    {
        "name": "Conselve",
        "lat": "45.2333",
        "lng": "11.8667",
        "country": "Italy"
    },
    {
        "name": "Ettimadai",
        "lat": "10.8911",
        "lng": "76.9087",
        "country": "India"
    },
    {
        "name": "Khur\u0101n Milik",
        "lat": "25.6000",
        "lng": "86.8679",
        "country": "India"
    },
    {
        "name": "Ratne",
        "lat": "51.6500",
        "lng": "24.5333",
        "country": "Ukraine"
    },
    {
        "name": "Kawara",
        "lat": "33.6681",
        "lng": "130.8472",
        "country": "Japan"
    },
    {
        "name": "Bastrop",
        "lat": "30.1113",
        "lng": "-97.3176",
        "country": "United States"
    },
    {
        "name": "DuPont",
        "lat": "47.1079",
        "lng": "-122.6495",
        "country": "United States"
    },
    {
        "name": "Halls",
        "lat": "36.0817",
        "lng": "-83.9344",
        "country": "United States"
    },
    {
        "name": "Souama",
        "lat": "36.6417",
        "lng": "4.3417",
        "country": "Algeria"
    },
    {
        "name": "Saharbani",
        "lat": "25.7201",
        "lng": "86.4100",
        "country": "India"
    },
    {
        "name": "Muskegon Heights",
        "lat": "43.2023",
        "lng": "-86.2421",
        "country": "United States"
    },
    {
        "name": "Koloti",
        "lat": "-23.7460",
        "lng": "29.3070",
        "country": "South Africa"
    },
    {
        "name": "Lepp\u00e4virta",
        "lat": "62.5000",
        "lng": "27.7833",
        "country": "Finland"
    },
    {
        "name": "Kapuv\u00e1r",
        "lat": "47.6000",
        "lng": "17.0333",
        "country": "Hungary"
    },
    {
        "name": "An\u00e1huac",
        "lat": "28.4800",
        "lng": "-106.7442",
        "country": "Mexico"
    },
    {
        "name": "Fallston",
        "lat": "39.5332",
        "lng": "-76.4452",
        "country": "United States"
    },
    {
        "name": "Kargopol",
        "lat": "61.5000",
        "lng": "38.9333",
        "country": "Russia"
    },
    {
        "name": "Aich",
        "lat": "48.6228",
        "lng": "9.2372",
        "country": "Germany"
    },
    {
        "name": "Bad K\u00f6nig",
        "lat": "49.7500",
        "lng": "9.0167",
        "country": "Germany"
    },
    {
        "name": "Oelsnitz",
        "lat": "50.4167",
        "lng": "12.1667",
        "country": "Germany"
    },
    {
        "name": "Sorkheh",
        "lat": "35.4644",
        "lng": "53.2086",
        "country": "Iran"
    },
    {
        "name": "Picnic Point",
        "lat": "47.8744",
        "lng": "-122.3077",
        "country": "United States"
    },
    {
        "name": "Hooglede",
        "lat": "50.9833",
        "lng": "3.0833",
        "country": "Belgium"
    },
    {
        "name": "Coal",
        "lat": "40.7873",
        "lng": "-76.5493",
        "country": "United States"
    },
    {
        "name": "Fi\u013eakovo",
        "lat": "48.2683",
        "lng": "19.8247",
        "country": "Slovakia"
    },
    {
        "name": "Verkhivtseve",
        "lat": "48.4853",
        "lng": "34.2539",
        "country": "Ukraine"
    },
    {
        "name": "Quf\u0101dah",
        "lat": "28.5812",
        "lng": "30.7554",
        "country": "Egypt"
    },
    {
        "name": "Sellersburg",
        "lat": "38.4028",
        "lng": "-85.7706",
        "country": "United States"
    },
    {
        "name": "Arau\u00e1",
        "lat": "-11.2619",
        "lng": "-37.6200",
        "country": "Brazil"
    },
    {
        "name": "Torrej\u00f3n de la Calzada",
        "lat": "40.2000",
        "lng": "-3.8000",
        "country": "Spain"
    },
    {
        "name": "Birni Lafia",
        "lat": "11.9783",
        "lng": "3.2225",
        "country": "Benin"
    },
    {
        "name": "Ennamangalam",
        "lat": "11.6449",
        "lng": "77.5930",
        "country": "India"
    },
    {
        "name": "Cuicatlan",
        "lat": "17.8000",
        "lng": "-96.9500",
        "country": "Mexico"
    },
    {
        "name": "Heeze",
        "lat": "51.3825",
        "lng": "5.5683",
        "country": "Netherlands"
    },
    {
        "name": "Aboso",
        "lat": "5.3633",
        "lng": "-1.9478",
        "country": "Ghana"
    },
    {
        "name": "Chavusy",
        "lat": "53.8075",
        "lng": "30.9714",
        "country": "Belarus"
    },
    {
        "name": "Tamzoura",
        "lat": "35.4167",
        "lng": "-0.6500",
        "country": "Algeria"
    },
    {
        "name": "Bhado Khara",
        "lat": "24.9567",
        "lng": "85.5130",
        "country": "India"
    },
    {
        "name": "Ban Ngao",
        "lat": "19.6736",
        "lng": "100.2583",
        "country": "Thailand"
    },
    {
        "name": "Payerne",
        "lat": "46.8167",
        "lng": "6.9333",
        "country": "Switzerland"
    },
    {
        "name": "Bad Bevensen",
        "lat": "53.0792",
        "lng": "10.5833",
        "country": "Germany"
    },
    {
        "name": "Balatonalm\u00e1di",
        "lat": "47.0333",
        "lng": "18.0167",
        "country": "Hungary"
    },
    {
        "name": "Snezhnogorsk",
        "lat": "69.2000",
        "lng": "33.2333",
        "country": "Russia"
    },
    {
        "name": "Kamalasai",
        "lat": "16.3383",
        "lng": "103.5756",
        "country": "Thailand"
    },
    {
        "name": "Sniatyn",
        "lat": "48.4500",
        "lng": "25.5667",
        "country": "Ukraine"
    },
    {
        "name": "Th\u1ecb Tr\u1ea5n M\u1eadu A",
        "lat": "21.8781",
        "lng": "104.6956",
        "country": "Vietnam"
    },
    {
        "name": "Consuegra",
        "lat": "39.4619",
        "lng": "-3.6064",
        "country": "Spain"
    },
    {
        "name": "Aldenham",
        "lat": "51.6723",
        "lng": "-0.3546",
        "country": "United Kingdom"
    },
    {
        "name": "\u00d3csa",
        "lat": "47.2934",
        "lng": "19.2260",
        "country": "Hungary"
    },
    {
        "name": "Erquelinnes",
        "lat": "50.3000",
        "lng": "4.1167",
        "country": "Belgium"
    },
    {
        "name": "Cara\u00edbas",
        "lat": "-14.6000",
        "lng": "-41.3350",
        "country": "Brazil"
    },
    {
        "name": "Nari\u0101r",
        "lat": "25.8875",
        "lng": "86.5632",
        "country": "India"
    },
    {
        "name": "Fino Mornasco",
        "lat": "45.7500",
        "lng": "9.0333",
        "country": "Italy"
    },
    {
        "name": "P\u2019y\u014fngch\u2019ang",
        "lat": "37.3675",
        "lng": "128.3958",
        "country": "Korea, South"
    },
    {
        "name": "Pachch\u0101mp\u0101laiyam",
        "lat": "11.5723",
        "lng": "77.6096",
        "country": "India"
    },
    {
        "name": "Dubove",
        "lat": "48.1861",
        "lng": "23.8839",
        "country": "Ukraine"
    },
    {
        "name": "P\u00f4rto Xavier",
        "lat": "-27.9000",
        "lng": "-55.1333",
        "country": "Brazil"
    },
    {
        "name": "Ammanabrolu",
        "lat": "15.5802",
        "lng": "80.1488",
        "country": "India"
    },
    {
        "name": "Padilla",
        "lat": "3.2333",
        "lng": "-76.3167",
        "country": "Colombia"
    },
    {
        "name": "Kenafif",
        "lat": "30.4167",
        "lng": "-9.0333",
        "country": "Morocco"
    },
    {
        "name": "Coycoyan de las Flores",
        "lat": "17.2667",
        "lng": "-98.2667",
        "country": "Mexico"
    },
    {
        "name": "Bad Ems",
        "lat": "50.3381",
        "lng": "7.7106",
        "country": "Germany"
    },
    {
        "name": "Ipupiara",
        "lat": "-11.8167",
        "lng": "-42.6167",
        "country": "Brazil"
    },
    {
        "name": "Dongou",
        "lat": "2.0447",
        "lng": "18.0525",
        "country": "Congo (Brazzaville)"
    },
    {
        "name": "La Sierra",
        "lat": "2.2500",
        "lng": "-76.8333",
        "country": "Colombia"
    },
    {
        "name": "Marpingen",
        "lat": "49.4500",
        "lng": "7.0500",
        "country": "Germany"
    },
    {
        "name": "Burscough",
        "lat": "53.5960",
        "lng": "-2.8430",
        "country": "United Kingdom"
    },
    {
        "name": "Kamdoli",
        "lat": "15.2048",
        "lng": "75.2549",
        "country": "India"
    },
    {
        "name": "Nohfelden",
        "lat": "49.5667",
        "lng": "7.1500",
        "country": "Germany"
    },
    {
        "name": "Kraaipan",
        "lat": "-26.2940",
        "lng": "25.2970",
        "country": "South Africa"
    },
    {
        "name": "Waltenhofen",
        "lat": "47.6667",
        "lng": "10.3000",
        "country": "Germany"
    },
    {
        "name": "M\u012b\u0101ndasht",
        "lat": "33.0758",
        "lng": "50.1631",
        "country": "Iran"
    },
    {
        "name": "Hingyon",
        "lat": "16.8522",
        "lng": "121.0989",
        "country": "Philippines"
    },
    {
        "name": "La Pointe",
        "lat": "19.9500",
        "lng": "-72.7833",
        "country": "Haiti"
    },
    {
        "name": "Akal\u0101pura",
        "lat": "13.4852",
        "lng": "77.4621",
        "country": "India"
    },
    {
        "name": "Telpur",
        "lat": "27.0548",
        "lng": "84.3336",
        "country": "India"
    },
    {
        "name": "Kin\u0101l\u016br",
        "lat": "11.4667",
        "lng": "75.8333",
        "country": "India"
    },
    {
        "name": "Fosses",
        "lat": "49.0989",
        "lng": "2.5075",
        "country": "France"
    },
    {
        "name": "Kh\u0101pdeh",
        "lat": "26.2706",
        "lng": "87.1993",
        "country": "India"
    },
    {
        "name": "Bucine",
        "lat": "43.4833",
        "lng": "11.6167",
        "country": "Italy"
    }
]