[
    {
        "name": "Silv\u00e2nia",
        "lat": "-16.6678",
        "lng": "-48.5869",
        "country": "Brazil"
    },
    {
        "name": "Souahlia",
        "lat": "35.0333",
        "lng": "-1.8833",
        "country": "Algeria"
    },
    {
        "name": "Alang\u0101yam",
        "lat": "12.6223",
        "lng": "78.7521",
        "country": "India"
    },
    {
        "name": "Bah\u00e7e",
        "lat": "37.2000",
        "lng": "36.5833",
        "country": "Turkey"
    },
    {
        "name": "Litherland",
        "lat": "53.4727",
        "lng": "-2.9990",
        "country": "United Kingdom"
    },
    {
        "name": "Takahata",
        "lat": "38.0027",
        "lng": "140.1891",
        "country": "Japan"
    },
    {
        "name": "Koziatyn",
        "lat": "49.7167",
        "lng": "28.8333",
        "country": "Ukraine"
    },
    {
        "name": "Khe\u00efredine",
        "lat": "35.9806",
        "lng": "0.1681",
        "country": "Algeria"
    },
    {
        "name": "Combs-la-Ville",
        "lat": "48.6700",
        "lng": "2.5600",
        "country": "France"
    },
    {
        "name": "West Carson",
        "lat": "33.8229",
        "lng": "-118.2931",
        "country": "United States"
    },
    {
        "name": "Bignona",
        "lat": "12.8167",
        "lng": "-16.2333",
        "country": "Senegal"
    },
    {
        "name": "Picasent",
        "lat": "39.3611",
        "lng": "-0.4600",
        "country": "Spain"
    },
    {
        "name": "Huangzhai",
        "lat": "38.0605",
        "lng": "112.6701",
        "country": "China"
    },
    {
        "name": "Yeadon",
        "lat": "53.8690",
        "lng": "-1.6880",
        "country": "United Kingdom"
    },
    {
        "name": "Silver Firs",
        "lat": "47.8635",
        "lng": "-122.1497",
        "country": "United States"
    },
    {
        "name": "Ibi\u00e1",
        "lat": "-19.4778",
        "lng": "-46.5389",
        "country": "Brazil"
    },
    {
        "name": "Yahualica",
        "lat": "20.9531",
        "lng": "-98.3800",
        "country": "Mexico"
    },
    {
        "name": "Kundgol",
        "lat": "15.2561",
        "lng": "75.2474",
        "country": "India"
    },
    {
        "name": "S\u00e3o Filipe",
        "lat": "14.8950",
        "lng": "-24.4980",
        "country": "Cabo Verde"
    },
    {
        "name": "Sokolov",
        "lat": "50.1814",
        "lng": "12.6403",
        "country": "Czechia"
    },
    {
        "name": "H\u00e9rouville-Saint-Clair",
        "lat": "49.2044",
        "lng": "-0.3253",
        "country": "France"
    },
    {
        "name": "Eppingen",
        "lat": "49.1333",
        "lng": "8.9167",
        "country": "Germany"
    },
    {
        "name": "Ingabu",
        "lat": "17.8167",
        "lng": "95.2667",
        "country": "Burma"
    },
    {
        "name": "Metekora",
        "lat": "22.1189",
        "lng": "88.5772",
        "country": "India"
    },
    {
        "name": "Radevormwald",
        "lat": "51.2000",
        "lng": "7.3500",
        "country": "Germany"
    },
    {
        "name": "Murayama",
        "lat": "38.4833",
        "lng": "140.3833",
        "country": "Japan"
    },
    {
        "name": "Sh\u0101r\u016bnah",
        "lat": "28.5667",
        "lng": "30.8500",
        "country": "Egypt"
    },
    {
        "name": "\u015awiebodzice",
        "lat": "50.8667",
        "lng": "16.3333",
        "country": "Poland"
    },
    {
        "name": "Saint John\u2019s",
        "lat": "17.1167",
        "lng": "-61.8500",
        "country": "Antigua and Barbuda"
    },
    {
        "name": "Dasn\u0101pur",
        "lat": "19.4482",
        "lng": "78.6129",
        "country": "India"
    },
    {
        "name": "Poggiomarino",
        "lat": "40.8000",
        "lng": "14.5500",
        "country": "Italy"
    },
    {
        "name": "Acomb",
        "lat": "53.9550",
        "lng": "-1.1260",
        "country": "United Kingdom"
    },
    {
        "name": "Ab\u016b \u015e\u012br Ban\u0101",
        "lat": "30.9000",
        "lng": "31.2347",
        "country": "Egypt"
    },
    {
        "name": "Khorabar",
        "lat": "26.7410",
        "lng": "83.8880",
        "country": "India"
    },
    {
        "name": "Bah\u00eda de Car\u00e1quez",
        "lat": "-0.5995",
        "lng": "-80.4245",
        "country": "Ecuador"
    },
    {
        "name": "Ortona",
        "lat": "42.3500",
        "lng": "14.4000",
        "country": "Italy"
    },
    {
        "name": "Topola",
        "lat": "44.2500",
        "lng": "20.7000",
        "country": "Serbia"
    },
    {
        "name": "Tiruverumb\u016br",
        "lat": "10.7937",
        "lng": "78.7690",
        "country": "India"
    },
    {
        "name": "Ilsede",
        "lat": "52.2667",
        "lng": "10.1833",
        "country": "Germany"
    },
    {
        "name": "Zir\u0101pur",
        "lat": "24.0222",
        "lng": "76.3771",
        "country": "India"
    },
    {
        "name": "Sunny Isles Beach",
        "lat": "25.9385",
        "lng": "-80.1246",
        "country": "United States"
    },
    {
        "name": "Samtredia",
        "lat": "42.1625",
        "lng": "42.3417",
        "country": "Georgia"
    },
    {
        "name": "Tirat Karmel",
        "lat": "32.7667",
        "lng": "34.9667",
        "country": "Israel"
    },
    {
        "name": "West Deptford",
        "lat": "39.8431",
        "lng": "-75.1852",
        "country": "United States"
    },
    {
        "name": "Hillegom",
        "lat": "52.2833",
        "lng": "4.5833",
        "country": "Netherlands"
    },
    {
        "name": "Rioja",
        "lat": "-6.0500",
        "lng": "-77.1417",
        "country": "Peru"
    },
    {
        "name": "Guazacap\u00e1n",
        "lat": "14.0667",
        "lng": "-90.4167",
        "country": "Guatemala"
    },
    {
        "name": "Soroca",
        "lat": "48.1667",
        "lng": "28.3000",
        "country": "Moldova"
    },
    {
        "name": "Repel\u00f3n",
        "lat": "10.5500",
        "lng": "-75.1333",
        "country": "Colombia"
    },
    {
        "name": "Medeiros Neto",
        "lat": "-17.3333",
        "lng": "-40.2333",
        "country": "Brazil"
    },
    {
        "name": "Adalh\u0101t",
        "lat": "25.2820",
        "lng": "82.9563",
        "country": "India"
    },
    {
        "name": "Yavuzeli",
        "lat": "37.3192",
        "lng": "37.5686",
        "country": "Turkey"
    },
    {
        "name": "Chalmette",
        "lat": "29.9438",
        "lng": "-89.9660",
        "country": "United States"
    },
    {
        "name": "\u2019s-Gravenzande",
        "lat": "52.0000",
        "lng": "4.1667",
        "country": "Netherlands"
    },
    {
        "name": "Surdulica",
        "lat": "42.6833",
        "lng": "22.1667",
        "country": "Serbia"
    },
    {
        "name": "Sandomierz",
        "lat": "50.6833",
        "lng": "21.7500",
        "country": "Poland"
    },
    {
        "name": "McNair",
        "lat": "38.9513",
        "lng": "-77.4115",
        "country": "United States"
    },
    {
        "name": "Kondal\u0101mpatti",
        "lat": "11.6262",
        "lng": "78.1189",
        "country": "India"
    },
    {
        "name": "Phularwan",
        "lat": "32.1883",
        "lng": "73.0286",
        "country": "Pakistan"
    },
    {
        "name": "Pattiy\u016brgr\u0101mam",
        "lat": "9.2000",
        "lng": "76.5000",
        "country": "India"
    },
    {
        "name": "Las Torres de Cotillas",
        "lat": "38.0264",
        "lng": "-1.2436",
        "country": "Spain"
    },
    {
        "name": "Haderslev",
        "lat": "55.2428",
        "lng": "9.5250",
        "country": "Denmark"
    },
    {
        "name": "Gubbi",
        "lat": "13.3122",
        "lng": "76.9410",
        "country": "India"
    },
    {
        "name": "Shabestar",
        "lat": "38.1800",
        "lng": "45.7039",
        "country": "Iran"
    },
    {
        "name": "Granite Bay",
        "lat": "38.7601",
        "lng": "-121.1714",
        "country": "United States"
    },
    {
        "name": "G\u00fcm\u00fc\u015fhac\u0131k\u00f6y",
        "lat": "40.8667",
        "lng": "35.2167",
        "country": "Turkey"
    },
    {
        "name": "Kilkenny",
        "lat": "52.6477",
        "lng": "-7.2561",
        "country": "Ireland"
    },
    {
        "name": "Bakhri",
        "lat": "25.5989",
        "lng": "86.2607",
        "country": "India"
    },
    {
        "name": "Maribojoc",
        "lat": "9.7500",
        "lng": "123.8500",
        "country": "Philippines"
    },
    {
        "name": "Yabu",
        "lat": "35.4000",
        "lng": "134.7667",
        "country": "Japan"
    },
    {
        "name": "Nova Zagora",
        "lat": "42.4911",
        "lng": "26.0144",
        "country": "Bulgaria"
    },
    {
        "name": "Sulmona",
        "lat": "42.0333",
        "lng": "13.9333",
        "country": "Italy"
    },
    {
        "name": "Guabo",
        "lat": "-3.2388",
        "lng": "-79.8292",
        "country": "Ecuador"
    },
    {
        "name": "Qarazhal",
        "lat": "48.0253",
        "lng": "70.7999",
        "country": "Kazakhstan"
    },
    {
        "name": "Goleni\u00f3w",
        "lat": "53.5636",
        "lng": "14.8281",
        "country": "Poland"
    },
    {
        "name": "Mba\u00efki",
        "lat": "3.8833",
        "lng": "18.0000",
        "country": "Central African Republic"
    },
    {
        "name": "Jiangdi",
        "lat": "27.0126",
        "lng": "103.6041",
        "country": "China"
    },
    {
        "name": "Chestermere",
        "lat": "51.0500",
        "lng": "-113.8225",
        "country": "Canada"
    },
    {
        "name": "Les Pennes-Mirabeau",
        "lat": "43.4106",
        "lng": "5.3103",
        "country": "France"
    },
    {
        "name": "Salvaterra de Magos",
        "lat": "39.0167",
        "lng": "-8.7833",
        "country": "Portugal"
    },
    {
        "name": "Batad",
        "lat": "11.4200",
        "lng": "123.1200",
        "country": "Philippines"
    },
    {
        "name": "Vellithiruthi",
        "lat": "10.6434",
        "lng": "76.1624",
        "country": "India"
    },
    {
        "name": "Paraguar\u00ed",
        "lat": "-25.6333",
        "lng": "-57.1500",
        "country": "Paraguay"
    },
    {
        "name": "Takelsa",
        "lat": "36.7833",
        "lng": "10.6333",
        "country": "Tunisia"
    },
    {
        "name": "Ghriss",
        "lat": "35.2500",
        "lng": "0.1667",
        "country": "Algeria"
    },
    {
        "name": "Sarap\u0101ka",
        "lat": "17.6922",
        "lng": "80.8614",
        "country": "India"
    },
    {
        "name": "Aleksandr\u00f3w \u0141\u00f3dzki",
        "lat": "51.8194",
        "lng": "19.3039",
        "country": "Poland"
    },
    {
        "name": "Sant\u2019Arcangelo di Romagna",
        "lat": "44.0667",
        "lng": "12.4500",
        "country": "Italy"
    },
    {
        "name": "Ensley",
        "lat": "30.5259",
        "lng": "-87.2733",
        "country": "United States"
    },
    {
        "name": "Bavly",
        "lat": "54.3833",
        "lng": "53.2833",
        "country": "Russia"
    },
    {
        "name": "Vayal\u0101r",
        "lat": "9.7750",
        "lng": "76.4292",
        "country": "India"
    },
    {
        "name": "Katkol",
        "lat": "15.9500",
        "lng": "75.3000",
        "country": "India"
    },
    {
        "name": "Bh\u0101nvad",
        "lat": "21.9300",
        "lng": "69.7800",
        "country": "India"
    },
    {
        "name": "Golden Valley",
        "lat": "44.9901",
        "lng": "-93.3591",
        "country": "United States"
    },
    {
        "name": "West Rancho Dominguez",
        "lat": "33.9057",
        "lng": "-118.2683",
        "country": "United States"
    },
    {
        "name": "Ban Pa Tueng",
        "lat": "20.1339",
        "lng": "99.8325",
        "country": "Thailand"
    },
    {
        "name": "World Golf Village",
        "lat": "29.9654",
        "lng": "-81.4896",
        "country": "United States"
    },
    {
        "name": "Guryevsk",
        "lat": "54.2833",
        "lng": "85.9333",
        "country": "Russia"
    },
    {
        "name": "P\u012brmed",
        "lat": "9.3667",
        "lng": "76.8708",
        "country": "India"
    },
    {
        "name": "Waldkirch",
        "lat": "48.1000",
        "lng": "7.9667",
        "country": "Germany"
    }
]