[
    {
        "name": "Wareham",
        "lat": "41.7662",
        "lng": "-70.6999",
        "country": "United States"
    },
    {
        "name": "Tranquebar",
        "lat": "11.0292",
        "lng": "79.8494",
        "country": "India"
    },
    {
        "name": "Kazhukambalam",
        "lat": "10.0333",
        "lng": "76.4000",
        "country": "India"
    },
    {
        "name": "Capoterra",
        "lat": "39.1744",
        "lng": "8.9711",
        "country": "Italy"
    },
    {
        "name": "Bassar",
        "lat": "9.2500",
        "lng": "0.7833",
        "country": "Togo"
    },
    {
        "name": "Rastede",
        "lat": "53.2500",
        "lng": "8.2000",
        "country": "Germany"
    },
    {
        "name": "\u2018\u0100l\u012b Shahr",
        "lat": "28.9306",
        "lng": "51.0689",
        "country": "Iran"
    },
    {
        "name": "Nova Petr\u00f3polis",
        "lat": "-29.3670",
        "lng": "-51.1000",
        "country": "Brazil"
    },
    {
        "name": "Vilaseca de Solcina",
        "lat": "41.1108",
        "lng": "1.1450",
        "country": "Spain"
    },
    {
        "name": "Vukovar",
        "lat": "45.3444",
        "lng": "19.0025",
        "country": "Croatia"
    },
    {
        "name": "Ponmundam",
        "lat": "10.9628",
        "lng": "75.9519",
        "country": "India"
    },
    {
        "name": "Kannamangalam Tekku",
        "lat": "9.2167",
        "lng": "76.4833",
        "country": "India"
    },
    {
        "name": "Union Hill-Novelty Hill",
        "lat": "47.6788",
        "lng": "-122.0284",
        "country": "United States"
    },
    {
        "name": "Eastmont",
        "lat": "47.8968",
        "lng": "-122.1818",
        "country": "United States"
    },
    {
        "name": "Karben",
        "lat": "50.2322",
        "lng": "8.7681",
        "country": "Germany"
    },
    {
        "name": "Tototl\u00e1n",
        "lat": "20.5333",
        "lng": "-102.7833",
        "country": "Mexico"
    },
    {
        "name": "Pajapita",
        "lat": "14.7167",
        "lng": "-92.0333",
        "country": "Guatemala"
    },
    {
        "name": "Kouoro",
        "lat": "11.9681",
        "lng": "-5.6886",
        "country": "Mali"
    },
    {
        "name": "T\u016bkrah",
        "lat": "32.5322",
        "lng": "20.5722",
        "country": "Libya"
    },
    {
        "name": "Ashland",
        "lat": "37.6942",
        "lng": "-122.1159",
        "country": "United States"
    },
    {
        "name": "Concei\u00e7\u00e3o do Mato Dentro",
        "lat": "-19.0369",
        "lng": "-43.4250",
        "country": "Brazil"
    },
    {
        "name": "Bad Soden am Taunus",
        "lat": "50.1333",
        "lng": "8.5000",
        "country": "Germany"
    },
    {
        "name": "Vreden",
        "lat": "52.0333",
        "lng": "6.8333",
        "country": "Germany"
    },
    {
        "name": "Apatin",
        "lat": "45.6667",
        "lng": "18.9833",
        "country": "Serbia"
    },
    {
        "name": "Minamata",
        "lat": "32.2167",
        "lng": "130.4000",
        "country": "Japan"
    },
    {
        "name": "Puenteareas",
        "lat": "42.1667",
        "lng": "-8.5000",
        "country": "Spain"
    },
    {
        "name": "Zarautz",
        "lat": "43.2833",
        "lng": "-2.1667",
        "country": "Spain"
    },
    {
        "name": "Sonepur",
        "lat": "20.8333",
        "lng": "83.9167",
        "country": "India"
    },
    {
        "name": "Ribas do Rio Pardo",
        "lat": "-20.4428",
        "lng": "-53.7589",
        "country": "Brazil"
    },
    {
        "name": "Ban Bang Rin",
        "lat": "9.9531",
        "lng": "98.6342",
        "country": "Thailand"
    },
    {
        "name": "Abreus",
        "lat": "22.2806",
        "lng": "-80.5678",
        "country": "Cuba"
    },
    {
        "name": "Bia\u0142ogard",
        "lat": "54.0000",
        "lng": "15.9833",
        "country": "Poland"
    },
    {
        "name": "Ravulapalem",
        "lat": "16.4833",
        "lng": "81.9833",
        "country": "India"
    },
    {
        "name": "New Brighton",
        "lat": "45.0658",
        "lng": "-93.2060",
        "country": "United States"
    },
    {
        "name": "Edgewater",
        "lat": "28.9594",
        "lng": "-80.9406",
        "country": "United States"
    },
    {
        "name": "Planalto",
        "lat": "-14.6700",
        "lng": "-40.4708",
        "country": "Brazil"
    },
    {
        "name": "Easley",
        "lat": "34.8188",
        "lng": "-82.5827",
        "country": "United States"
    },
    {
        "name": "Shuilin",
        "lat": "23.5662",
        "lng": "120.2340",
        "country": "Taiwan"
    },
    {
        "name": "Bananeiras",
        "lat": "-6.7500",
        "lng": "-35.6328",
        "country": "Brazil"
    },
    {
        "name": "Douar Imoukkane",
        "lat": "35.0298",
        "lng": "-4.8125",
        "country": "Morocco"
    },
    {
        "name": "Puerto Concordia",
        "lat": "2.6833",
        "lng": "-72.7667",
        "country": "Colombia"
    },
    {
        "name": "Soledad Atzompa",
        "lat": "18.7500",
        "lng": "-97.1500",
        "country": "Mexico"
    },
    {
        "name": "Neihuzhai",
        "lat": "22.9748",
        "lng": "115.8345",
        "country": "China"
    },
    {
        "name": "Trotwood",
        "lat": "39.7926",
        "lng": "-84.3165",
        "country": "United States"
    },
    {
        "name": "Litom\u011b\u0159ice",
        "lat": "50.5342",
        "lng": "14.1328",
        "country": "Czechia"
    },
    {
        "name": "Lalganj",
        "lat": "26.1277",
        "lng": "80.7855",
        "country": "India"
    },
    {
        "name": "S\u00e3o Mamede de Infesta",
        "lat": "41.2000",
        "lng": "-8.6000",
        "country": "Portugal"
    },
    {
        "name": "Manage",
        "lat": "50.5000",
        "lng": "4.2333",
        "country": "Belgium"
    },
    {
        "name": "Mahthi",
        "lat": "25.7281",
        "lng": "86.0093",
        "country": "India"
    },
    {
        "name": "Tamiahua",
        "lat": "21.2788",
        "lng": "-97.4462",
        "country": "Mexico"
    },
    {
        "name": "Caba",
        "lat": "16.4316",
        "lng": "120.3446",
        "country": "Philippines"
    },
    {
        "name": "West Goshen",
        "lat": "39.9756",
        "lng": "-75.5927",
        "country": "United States"
    },
    {
        "name": "Ottaviano",
        "lat": "40.8500",
        "lng": "14.4833",
        "country": "Italy"
    },
    {
        "name": "Y\u00e1sica Arriba",
        "lat": "19.6333",
        "lng": "-70.6000",
        "country": "Dominican Republic"
    },
    {
        "name": "Rafael Delgado",
        "lat": "18.8167",
        "lng": "-97.0667",
        "country": "Mexico"
    },
    {
        "name": "Liberty Triangle",
        "lat": "29.0760",
        "lng": "-82.2191",
        "country": "United States"
    },
    {
        "name": "Los Arabos",
        "lat": "22.7400",
        "lng": "-80.7161",
        "country": "Cuba"
    },
    {
        "name": "Sansanding",
        "lat": "13.7267",
        "lng": "-6.0058",
        "country": "Mali"
    },
    {
        "name": "Singh\u0101ra Buzurg",
        "lat": "25.7964",
        "lng": "85.4539",
        "country": "India"
    },
    {
        "name": "F\u00e2nzeres",
        "lat": "41.1667",
        "lng": "-8.5333",
        "country": "Portugal"
    },
    {
        "name": "Chantilly",
        "lat": "38.8868",
        "lng": "-77.4453",
        "country": "United States"
    },
    {
        "name": "Calabasas",
        "lat": "34.1375",
        "lng": "-118.6689",
        "country": "United States"
    },
    {
        "name": "Vuliyattara",
        "lat": "8.5933",
        "lng": "76.9506",
        "country": "India"
    },
    {
        "name": "Cartersville",
        "lat": "34.1644",
        "lng": "-84.8009",
        "country": "United States"
    },
    {
        "name": "Son\u0101ri",
        "lat": "27.0246",
        "lng": "95.0163",
        "country": "India"
    },
    {
        "name": "Engandiy\u016br",
        "lat": "10.5000",
        "lng": "76.0400",
        "country": "India"
    },
    {
        "name": "Eustis",
        "lat": "28.8563",
        "lng": "-81.6771",
        "country": "United States"
    },
    {
        "name": "Roxbury",
        "lat": "40.8822",
        "lng": "-74.6523",
        "country": "United States"
    },
    {
        "name": "Tupiza",
        "lat": "-21.4375",
        "lng": "-65.7158",
        "country": "Bolivia"
    },
    {
        "name": "Qiryat Mal\u2019akhi",
        "lat": "31.7292",
        "lng": "34.7461",
        "country": "Israel"
    },
    {
        "name": "Hombori",
        "lat": "15.2800",
        "lng": "-1.7000",
        "country": "Mali"
    },
    {
        "name": "\u00dcberlingen",
        "lat": "47.7667",
        "lng": "9.1650",
        "country": "Germany"
    },
    {
        "name": "Oxkutzkab",
        "lat": "20.3056",
        "lng": "-89.4183",
        "country": "Mexico"
    },
    {
        "name": "Morris",
        "lat": "40.7959",
        "lng": "-74.4945",
        "country": "United States"
    },
    {
        "name": "Yunak",
        "lat": "38.8172",
        "lng": "31.7356",
        "country": "Turkey"
    },
    {
        "name": "Rochefort",
        "lat": "45.9421",
        "lng": "-0.9588",
        "country": "France"
    },
    {
        "name": "Sederot",
        "lat": "31.5228",
        "lng": "34.5953",
        "country": "Israel"
    },
    {
        "name": "Mujiayu",
        "lat": "40.4097",
        "lng": "116.9325",
        "country": "China"
    },
    {
        "name": "Gusinooz\u00ebrsk",
        "lat": "51.2833",
        "lng": "106.5167",
        "country": "Russia"
    },
    {
        "name": "Khirkiy\u0101n",
        "lat": "22.1673",
        "lng": "76.8614",
        "country": "India"
    },
    {
        "name": "Rucphen",
        "lat": "51.5333",
        "lng": "4.5833",
        "country": "Netherlands"
    },
    {
        "name": "S\u012bwah",
        "lat": "29.2000",
        "lng": "25.5167",
        "country": "Egypt"
    },
    {
        "name": "Maisons-Laffitte",
        "lat": "48.9469",
        "lng": "2.1456",
        "country": "France"
    },
    {
        "name": "Fokino",
        "lat": "42.9667",
        "lng": "132.4000",
        "country": "Russia"
    },
    {
        "name": "Vil\u0101chcheri",
        "lat": "9.8937",
        "lng": "78.0603",
        "country": "India"
    },
    {
        "name": "Qiryat Shemona",
        "lat": "33.2075",
        "lng": "35.5697",
        "country": "Israel"
    },
    {
        "name": "Tnine Lgharbia",
        "lat": "32.5719",
        "lng": "-8.8568",
        "country": "Morocco"
    },
    {
        "name": "Apolda",
        "lat": "51.0167",
        "lng": "11.5167",
        "country": "Germany"
    },
    {
        "name": "Vigonza",
        "lat": "45.4500",
        "lng": "11.9833",
        "country": "Italy"
    },
    {
        "name": "Bear",
        "lat": "39.6189",
        "lng": "-75.6808",
        "country": "United States"
    },
    {
        "name": "Saint-Dizier",
        "lat": "48.6383",
        "lng": "4.9497",
        "country": "France"
    },
    {
        "name": "Pallikondai",
        "lat": "12.9167",
        "lng": "78.9333",
        "country": "India"
    },
    {
        "name": "Yak\u0131nca",
        "lat": "38.3000",
        "lng": "38.2500",
        "country": "Turkey"
    },
    {
        "name": "Roissy-en-Brie",
        "lat": "48.7906",
        "lng": "2.6519",
        "country": "France"
    },
    {
        "name": "Orbassano",
        "lat": "45.0000",
        "lng": "7.5333",
        "country": "Italy"
    },
    {
        "name": "Cata\u00f1o",
        "lat": "18.4375",
        "lng": "-66.1440",
        "country": "Puerto Rico"
    },
    {
        "name": "Asaf\u0101b\u0101d",
        "lat": "19.3650",
        "lng": "79.2740",
        "country": "India"
    },
    {
        "name": "Cou\u00ebron",
        "lat": "47.2156",
        "lng": "-1.7228",
        "country": "France"
    },
    {
        "name": "Weilheim",
        "lat": "47.8333",
        "lng": "11.1500",
        "country": "Germany"
    },
    {
        "name": "Dom Pedro",
        "lat": "-4.4833",
        "lng": "-44.4500",
        "country": "Brazil"
    }
]