[
    {
        "name": "Port St. John",
        "lat": "28.4757",
        "lng": "-80.8104",
        "country": "United States"
    },
    {
        "name": "Benbrook",
        "lat": "32.6788",
        "lng": "-97.4637",
        "country": "United States"
    },
    {
        "name": "Putten",
        "lat": "52.2667",
        "lng": "5.6000",
        "country": "Netherlands"
    },
    {
        "name": "Valente",
        "lat": "-11.5667",
        "lng": "-39.4500",
        "country": "Brazil"
    },
    {
        "name": "Preah Vihear",
        "lat": "13.8167",
        "lng": "104.9667",
        "country": "Cambodia"
    },
    {
        "name": "Kenndi\u00e9",
        "lat": "14.6750",
        "lng": "-3.5111",
        "country": "Mali"
    },
    {
        "name": "Hirr\u012byat Raznah",
        "lat": "30.6028",
        "lng": "31.5372",
        "country": "Egypt"
    },
    {
        "name": "P\u00fdrgos",
        "lat": "37.6667",
        "lng": "21.4333",
        "country": "Greece"
    },
    {
        "name": "Duncan",
        "lat": "48.7787",
        "lng": "-123.7079",
        "country": "Canada"
    },
    {
        "name": "Birkirkara",
        "lat": "35.8967",
        "lng": "14.4625",
        "country": "Malta"
    },
    {
        "name": "Hennenman",
        "lat": "-27.9667",
        "lng": "27.0333",
        "country": "South Africa"
    },
    {
        "name": "Puerto Guzm\u00e1n",
        "lat": "0.9667",
        "lng": "-76.5833",
        "country": "Colombia"
    },
    {
        "name": "Nagarp\u0101ra",
        "lat": "25.4155",
        "lng": "86.8832",
        "country": "India"
    },
    {
        "name": "Ambohimasina",
        "lat": "-19.6500",
        "lng": "46.7333",
        "country": "Madagascar"
    },
    {
        "name": "West Memphis",
        "lat": "35.1530",
        "lng": "-90.1996",
        "country": "United States"
    },
    {
        "name": "Taquarituba",
        "lat": "-23.5328",
        "lng": "-49.2439",
        "country": "Brazil"
    },
    {
        "name": "Ruvo di Puglia",
        "lat": "41.1167",
        "lng": "16.4833",
        "country": "Italy"
    },
    {
        "name": "Asino",
        "lat": "57.0000",
        "lng": "86.1333",
        "country": "Russia"
    },
    {
        "name": "Nova Xavantina",
        "lat": "-14.6728",
        "lng": "-52.3528",
        "country": "Brazil"
    },
    {
        "name": "Paruth\u016br",
        "lat": "10.8174",
        "lng": "76.1178",
        "country": "India"
    },
    {
        "name": "Porto de M\u00f3s",
        "lat": "39.6017",
        "lng": "-8.8175",
        "country": "Portugal"
    },
    {
        "name": "Le Bouscat",
        "lat": "44.8651",
        "lng": "-0.5996",
        "country": "France"
    },
    {
        "name": "Grombalia",
        "lat": "36.6000",
        "lng": "10.5000",
        "country": "Tunisia"
    },
    {
        "name": "Sagbayan",
        "lat": "9.9200",
        "lng": "124.1000",
        "country": "Philippines"
    },
    {
        "name": "Kerrville",
        "lat": "30.0398",
        "lng": "-99.1320",
        "country": "United States"
    },
    {
        "name": "Horquetas",
        "lat": "10.3195",
        "lng": "-83.9647",
        "country": "Costa Rica"
    },
    {
        "name": "Canhotinho",
        "lat": "-8.8819",
        "lng": "-36.1908",
        "country": "Brazil"
    },
    {
        "name": "Martos",
        "lat": "37.7167",
        "lng": "-3.9667",
        "country": "Spain"
    },
    {
        "name": "Las Margaritas",
        "lat": "16.3159",
        "lng": "-91.9816",
        "country": "Mexico"
    },
    {
        "name": "Ballenger Creek",
        "lat": "39.3807",
        "lng": "-77.4206",
        "country": "United States"
    },
    {
        "name": "Singar\u0101yakonda",
        "lat": "15.2500",
        "lng": "80.0203",
        "country": "India"
    },
    {
        "name": "Ladera Ranch",
        "lat": "33.5492",
        "lng": "-117.6417",
        "country": "United States"
    },
    {
        "name": "Tadjmout",
        "lat": "33.8667",
        "lng": "2.5167",
        "country": "Algeria"
    },
    {
        "name": "Buturlinovka",
        "lat": "50.8333",
        "lng": "40.5833",
        "country": "Russia"
    },
    {
        "name": "Pallapatti",
        "lat": "9.4664",
        "lng": "77.8219",
        "country": "India"
    },
    {
        "name": "Iringal",
        "lat": "11.5667",
        "lng": "75.6000",
        "country": "India"
    },
    {
        "name": "Gose",
        "lat": "34.4667",
        "lng": "135.7333",
        "country": "Japan"
    },
    {
        "name": "White Bear Lake",
        "lat": "45.0656",
        "lng": "-93.0150",
        "country": "United States"
    },
    {
        "name": "Portogruaro",
        "lat": "45.7833",
        "lng": "12.8333",
        "country": "Italy"
    },
    {
        "name": "Sarykemer",
        "lat": "43.0106",
        "lng": "71.5172",
        "country": "Kazakhstan"
    },
    {
        "name": "Ipixuna",
        "lat": "-7.0508",
        "lng": "-71.6950",
        "country": "Brazil"
    },
    {
        "name": "Bij\u0101war",
        "lat": "24.6235",
        "lng": "79.4899",
        "country": "India"
    },
    {
        "name": "Qazi Ahmad",
        "lat": "26.4083",
        "lng": "68.1564",
        "country": "Pakistan"
    },
    {
        "name": "Cedros",
        "lat": "14.6000",
        "lng": "-87.1167",
        "country": "Honduras"
    },
    {
        "name": "Vel\u016br",
        "lat": "11.1114",
        "lng": "78.0048",
        "country": "India"
    },
    {
        "name": "Echemmaia Est",
        "lat": "32.0786",
        "lng": "-8.6325",
        "country": "Morocco"
    },
    {
        "name": "Bedburg",
        "lat": "51.0000",
        "lng": "6.5625",
        "country": "Germany"
    },
    {
        "name": "Alfreton",
        "lat": "53.0970",
        "lng": "-1.3800",
        "country": "United Kingdom"
    },
    {
        "name": "Oud-Beijerland",
        "lat": "51.8167",
        "lng": "4.4000",
        "country": "Netherlands"
    },
    {
        "name": "Freudenstadt",
        "lat": "48.4633",
        "lng": "8.4111",
        "country": "Germany"
    },
    {
        "name": "Qianwangcun",
        "lat": "29.2283",
        "lng": "121.3483",
        "country": "China"
    },
    {
        "name": "Kolori\u0101ng",
        "lat": "27.9167",
        "lng": "93.3500",
        "country": "India"
    },
    {
        "name": "Pinheiral",
        "lat": "-22.5128",
        "lng": "-44.0008",
        "country": "Brazil"
    },
    {
        "name": "Curacav\u00ed",
        "lat": "-33.4000",
        "lng": "-71.1500",
        "country": "Chile"
    },
    {
        "name": "Dak\u1e63i\u1e47k\u0101li\u0307\u0304",
        "lat": "27.5833",
        "lng": "85.2500",
        "country": "Nepal"
    },
    {
        "name": "Barnegat",
        "lat": "39.7668",
        "lng": "-74.2776",
        "country": "United States"
    },
    {
        "name": "Ajim",
        "lat": "33.7167",
        "lng": "10.7500",
        "country": "Tunisia"
    },
    {
        "name": "Collinsville",
        "lat": "38.6770",
        "lng": "-90.0063",
        "country": "United States"
    },
    {
        "name": "Sta\u00dffurt",
        "lat": "51.8667",
        "lng": "11.5667",
        "country": "Germany"
    },
    {
        "name": "R\u0103d\u0103u\u0163i",
        "lat": "47.8425",
        "lng": "25.9192",
        "country": "Romania"
    },
    {
        "name": "Raisio",
        "lat": "60.4858",
        "lng": "22.1692",
        "country": "Finland"
    },
    {
        "name": "Oulad Barhil",
        "lat": "30.6408",
        "lng": "-8.4750",
        "country": "Morocco"
    },
    {
        "name": "Ki\u00ean L\u01b0\u01a1ng",
        "lat": "10.2856",
        "lng": "104.6444",
        "country": "Vietnam"
    },
    {
        "name": "Saint-Laurent-du-Maroni",
        "lat": "5.4976",
        "lng": "-54.0325",
        "country": "French Guiana"
    },
    {
        "name": "Saky",
        "lat": "45.1336",
        "lng": "33.5772",
        "country": "Ukraine"
    },
    {
        "name": "Baheri",
        "lat": "25.9426",
        "lng": "86.0471",
        "country": "India"
    },
    {
        "name": "Almansa",
        "lat": "38.8682",
        "lng": "-1.0979",
        "country": "Spain"
    },
    {
        "name": "Mah\u0101r\u0101jgani",
        "lat": "26.1075",
        "lng": "84.5025",
        "country": "India"
    },
    {
        "name": "Volksrust",
        "lat": "-27.3667",
        "lng": "29.8833",
        "country": "South Africa"
    },
    {
        "name": "Zhuchangba",
        "lat": "26.6615",
        "lng": "106.5485",
        "country": "China"
    },
    {
        "name": "Elmwood Park",
        "lat": "41.9225",
        "lng": "-87.8163",
        "country": "United States"
    },
    {
        "name": "Satuba",
        "lat": "-9.5628",
        "lng": "-35.8239",
        "country": "Brazil"
    },
    {
        "name": "Nueva Paz",
        "lat": "22.7633",
        "lng": "-81.7581",
        "country": "Cuba"
    },
    {
        "name": "Starkville",
        "lat": "33.4608",
        "lng": "-88.8297",
        "country": "United States"
    },
    {
        "name": "South Plainfield",
        "lat": "40.5748",
        "lng": "-74.4152",
        "country": "United States"
    },
    {
        "name": "Borre",
        "lat": "59.3819",
        "lng": "10.4380",
        "country": "Norway"
    },
    {
        "name": "Carlow",
        "lat": "52.8306",
        "lng": "-6.9317",
        "country": "Ireland"
    },
    {
        "name": "Katrineholm",
        "lat": "59.0000",
        "lng": "16.2000",
        "country": "Sweden"
    },
    {
        "name": "Wekiwa Springs",
        "lat": "28.6984",
        "lng": "-81.4251",
        "country": "United States"
    },
    {
        "name": "Ayanavelikulangara Tekku",
        "lat": "9.0436",
        "lng": "76.5199",
        "country": "India"
    },
    {
        "name": "Middleborough",
        "lat": "41.8803",
        "lng": "-70.8745",
        "country": "United States"
    },
    {
        "name": "Palmetto Bay",
        "lat": "25.6219",
        "lng": "-80.3221",
        "country": "United States"
    },
    {
        "name": "Senador Pompeu",
        "lat": "-5.5833",
        "lng": "-39.3667",
        "country": "Brazil"
    },
    {
        "name": "Noto",
        "lat": "36.8833",
        "lng": "15.0833",
        "country": "Italy"
    },
    {
        "name": "Umga",
        "lat": "24.6396",
        "lng": "84.5577",
        "country": "India"
    },
    {
        "name": "Zhangshanying",
        "lat": "40.4775",
        "lng": "115.8508",
        "country": "China"
    },
    {
        "name": "S\u00e3o Geraldo do Araguaia",
        "lat": "-6.4000",
        "lng": "-48.5333",
        "country": "Brazil"
    },
    {
        "name": "Gazojak",
        "lat": "41.1833",
        "lng": "61.4000",
        "country": "Turkmenistan"
    },
    {
        "name": "Saint-Nicolas",
        "lat": "50.6333",
        "lng": "5.5333",
        "country": "Belgium"
    },
    {
        "name": "Lukaya",
        "lat": "-0.1508",
        "lng": "31.8744",
        "country": "Uganda"
    },
    {
        "name": "Tocopilla",
        "lat": "-22.0964",
        "lng": "-70.2000",
        "country": "Chile"
    },
    {
        "name": "Somerset",
        "lat": "40.5083",
        "lng": "-74.5010",
        "country": "United States"
    },
    {
        "name": "Mahaiza",
        "lat": "-19.9000",
        "lng": "46.8167",
        "country": "Madagascar"
    },
    {
        "name": "Fairfax",
        "lat": "38.8531",
        "lng": "-77.2997",
        "country": "United States"
    },
    {
        "name": "Douar \u2019Ayn Dfali",
        "lat": "33.9500",
        "lng": "-4.4500",
        "country": "Morocco"
    },
    {
        "name": "El Salto",
        "lat": "23.7823",
        "lng": "-105.3585",
        "country": "Mexico"
    },
    {
        "name": "Belton",
        "lat": "38.8192",
        "lng": "-94.5335",
        "country": "United States"
    },
    {
        "name": "El Factor",
        "lat": "19.3200",
        "lng": "-69.8800",
        "country": "Dominican Republic"
    },
    {
        "name": "May\u0101ng Imph\u0101l",
        "lat": "24.6000",
        "lng": "93.9000",
        "country": "India"
    },
    {
        "name": "uMhlanga Rocks",
        "lat": "-29.7333",
        "lng": "31.0708",
        "country": "South Africa"
    }
]