[
    {
        "name": "San Juan y Mart\u00ednez",
        "lat": "22.2667",
        "lng": "-83.8333",
        "country": "Cuba"
    },
    {
        "name": "Eql\u012bd",
        "lat": "30.8928",
        "lng": "52.6889",
        "country": "Iran"
    },
    {
        "name": "Ko\u0142obrzeg",
        "lat": "54.1761",
        "lng": "15.5761",
        "country": "Poland"
    },
    {
        "name": "Iwanuma",
        "lat": "38.1043",
        "lng": "140.8702",
        "country": "Japan"
    },
    {
        "name": "Kaimana",
        "lat": "-3.6444",
        "lng": "133.6953",
        "country": "Indonesia"
    },
    {
        "name": "S\u00e3o Miguel d\u2019Oeste",
        "lat": "-26.7308",
        "lng": "-53.5153",
        "country": "Brazil"
    },
    {
        "name": "Pagsanjan",
        "lat": "14.2700",
        "lng": "121.4500",
        "country": "Philippines"
    },
    {
        "name": "Changtoushang",
        "lat": "19.3441",
        "lng": "110.6096",
        "country": "China"
    },
    {
        "name": "The Colony",
        "lat": "33.0925",
        "lng": "-96.8976",
        "country": "United States"
    },
    {
        "name": "Jisr ash Shugh\u016br",
        "lat": "35.8126",
        "lng": "36.3176",
        "country": "Syria"
    },
    {
        "name": "Nanj\u014d",
        "lat": "26.1631",
        "lng": "127.7706",
        "country": "Japan"
    },
    {
        "name": "Deinze",
        "lat": "50.9833",
        "lng": "3.5333",
        "country": "Belgium"
    },
    {
        "name": "General Mamerto Natividad",
        "lat": "15.6030",
        "lng": "121.0510",
        "country": "Philippines"
    },
    {
        "name": "\u00c7ayeli",
        "lat": "40.7500",
        "lng": "41.0667",
        "country": "Turkey"
    },
    {
        "name": "Barw\u0101h",
        "lat": "22.2539",
        "lng": "76.0385",
        "country": "India"
    },
    {
        "name": "Chauk",
        "lat": "20.8833",
        "lng": "94.8167",
        "country": "Burma"
    },
    {
        "name": "Alapl\u0131",
        "lat": "41.1806",
        "lng": "31.3861",
        "country": "Turkey"
    },
    {
        "name": "Pinneberg",
        "lat": "53.6333",
        "lng": "9.8000",
        "country": "Germany"
    },
    {
        "name": "Labangan",
        "lat": "7.8667",
        "lng": "123.5167",
        "country": "Philippines"
    },
    {
        "name": "Bom Conselho",
        "lat": "-9.1700",
        "lng": "-36.6800",
        "country": "Brazil"
    },
    {
        "name": "Dr\u00e1ma",
        "lat": "41.1500",
        "lng": "24.1467",
        "country": "Greece"
    },
    {
        "name": "Sonqor",
        "lat": "34.7828",
        "lng": "47.5983",
        "country": "Iran"
    },
    {
        "name": "Medak",
        "lat": "18.0460",
        "lng": "78.2630",
        "country": "India"
    },
    {
        "name": "Kaarst",
        "lat": "51.2167",
        "lng": "6.6167",
        "country": "Germany"
    },
    {
        "name": "Talipparamba",
        "lat": "12.0368",
        "lng": "75.3601",
        "country": "India"
    },
    {
        "name": "Huatan",
        "lat": "24.0316",
        "lng": "120.5579",
        "country": "Taiwan"
    },
    {
        "name": "Manakara",
        "lat": "-22.1500",
        "lng": "48.0000",
        "country": "Madagascar"
    },
    {
        "name": "\u0130znik",
        "lat": "40.4292",
        "lng": "29.7211",
        "country": "Turkey"
    },
    {
        "name": "Jora",
        "lat": "26.3421",
        "lng": "77.8092",
        "country": "India"
    },
    {
        "name": "Pattani",
        "lat": "6.8664",
        "lng": "101.2508",
        "country": "Thailand"
    },
    {
        "name": "Burke",
        "lat": "38.7773",
        "lng": "-77.2633",
        "country": "United States"
    },
    {
        "name": "Loon",
        "lat": "9.8000",
        "lng": "123.8000",
        "country": "Philippines"
    },
    {
        "name": "Saint-Brieuc",
        "lat": "48.5136",
        "lng": "-2.7653",
        "country": "France"
    },
    {
        "name": "Ananipalle",
        "lat": "13.4902",
        "lng": "79.2895",
        "country": "India"
    },
    {
        "name": "Erkelenz",
        "lat": "51.0833",
        "lng": "6.3167",
        "country": "Germany"
    },
    {
        "name": "Majurwa",
        "lat": "26.1036",
        "lng": "86.9193",
        "country": "India"
    },
    {
        "name": "Freeport",
        "lat": "40.6515",
        "lng": "-73.5850",
        "country": "United States"
    },
    {
        "name": "Cateel",
        "lat": "7.7900",
        "lng": "126.4531",
        "country": "Philippines"
    },
    {
        "name": "Miliana",
        "lat": "36.3000",
        "lng": "2.2333",
        "country": "Algeria"
    },
    {
        "name": "Tiberias",
        "lat": "32.7944",
        "lng": "35.5333",
        "country": "Israel"
    },
    {
        "name": "Maitum",
        "lat": "6.0300",
        "lng": "124.4800",
        "country": "Philippines"
    },
    {
        "name": "Regla",
        "lat": "23.1317",
        "lng": "-82.3364",
        "country": "Cuba"
    },
    {
        "name": "El Centro",
        "lat": "32.7865",
        "lng": "-115.5595",
        "country": "United States"
    },
    {
        "name": "Dikili",
        "lat": "39.0667",
        "lng": "26.8833",
        "country": "Turkey"
    },
    {
        "name": "Germencik",
        "lat": "37.8697",
        "lng": "27.6058",
        "country": "Turkey"
    },
    {
        "name": "Al \u2018Ayy\u0101\u0163",
        "lat": "29.6167",
        "lng": "31.2500",
        "country": "Egypt"
    },
    {
        "name": "Kuybyshev",
        "lat": "55.4500",
        "lng": "78.3000",
        "country": "Russia"
    },
    {
        "name": "Rio Grande da Serra",
        "lat": "-23.7439",
        "lng": "-46.3978",
        "country": "Brazil"
    },
    {
        "name": "Las Matas de Farf\u00e1n",
        "lat": "18.8700",
        "lng": "-71.5200",
        "country": "Dominican Republic"
    },
    {
        "name": "Raisen",
        "lat": "23.3300",
        "lng": "77.8000",
        "country": "India"
    },
    {
        "name": "Albufeira",
        "lat": "37.0897",
        "lng": "-8.2458",
        "country": "Portugal"
    },
    {
        "name": "Hars\u012bn",
        "lat": "34.2728",
        "lng": "47.5875",
        "country": "Iran"
    },
    {
        "name": "Turnhout",
        "lat": "51.3167",
        "lng": "4.9500",
        "country": "Belgium"
    },
    {
        "name": "Shakopee",
        "lat": "44.7745",
        "lng": "-93.4772",
        "country": "United States"
    },
    {
        "name": "Central Signal Village",
        "lat": "14.5106",
        "lng": "121.0576",
        "country": "Philippines"
    },
    {
        "name": "Wilkes-Barre",
        "lat": "41.2469",
        "lng": "-75.8760",
        "country": "United States"
    },
    {
        "name": "Mandaon",
        "lat": "12.2259",
        "lng": "123.2842",
        "country": "Philippines"
    },
    {
        "name": "West Vancouver",
        "lat": "49.3667",
        "lng": "-123.1667",
        "country": "Canada"
    },
    {
        "name": "Hagi",
        "lat": "34.4081",
        "lng": "131.3992",
        "country": "Japan"
    },
    {
        "name": "Daijiazhuang",
        "lat": "38.1344",
        "lng": "114.3906",
        "country": "China"
    },
    {
        "name": "T\u014dg\u014d",
        "lat": "35.0966",
        "lng": "137.0525",
        "country": "Japan"
    },
    {
        "name": "Tlajomulco de Z\u00fa\u00f1iga",
        "lat": "20.4736",
        "lng": "-103.4431",
        "country": "Mexico"
    },
    {
        "name": "Roghun",
        "lat": "38.6978",
        "lng": "69.7522",
        "country": "Tajikistan"
    },
    {
        "name": "Yartsevo",
        "lat": "55.0667",
        "lng": "32.7000",
        "country": "Russia"
    },
    {
        "name": "Zevenaar",
        "lat": "51.9167",
        "lng": "6.0667",
        "country": "Netherlands"
    },
    {
        "name": "Lompoc",
        "lat": "34.6618",
        "lng": "-120.4714",
        "country": "United States"
    },
    {
        "name": "Hicksville",
        "lat": "40.7637",
        "lng": "-73.5245",
        "country": "United States"
    },
    {
        "name": "Talatamaty",
        "lat": "-18.8333",
        "lng": "47.4500",
        "country": "Madagascar"
    },
    {
        "name": "Noordwijk",
        "lat": "52.2333",
        "lng": "4.4500",
        "country": "Netherlands"
    },
    {
        "name": "J\u0101nakammapeta",
        "lat": "15.0125",
        "lng": "79.8439",
        "country": "India"
    },
    {
        "name": "Oakland Park",
        "lat": "26.1780",
        "lng": "-80.1528",
        "country": "United States"
    },
    {
        "name": "Lombard",
        "lat": "41.8741",
        "lng": "-88.0157",
        "country": "United States"
    },
    {
        "name": "Otofuke",
        "lat": "43.0000",
        "lng": "143.2000",
        "country": "Japan"
    },
    {
        "name": "Sihora",
        "lat": "23.0000",
        "lng": "80.1200",
        "country": "India"
    },
    {
        "name": "D\u0119bica",
        "lat": "50.0500",
        "lng": "21.4167",
        "country": "Poland"
    },
    {
        "name": "San Vicente de Tagua Tagua",
        "lat": "-34.4394",
        "lng": "-71.0761",
        "country": "Chile"
    },
    {
        "name": "Guinayangan",
        "lat": "13.9000",
        "lng": "122.4500",
        "country": "Philippines"
    },
    {
        "name": "Al Midhnab",
        "lat": "25.8601",
        "lng": "44.2223",
        "country": "Saudi Arabia"
    },
    {
        "name": "Nocera Inferiore",
        "lat": "40.7500",
        "lng": "14.6333",
        "country": "Italy"
    },
    {
        "name": "Murshid\u0101b\u0101d",
        "lat": "24.1800",
        "lng": "88.2700",
        "country": "India"
    },
    {
        "name": "Senigallia",
        "lat": "43.7167",
        "lng": "13.2167",
        "country": "Italy"
    },
    {
        "name": "Vilvoorde",
        "lat": "50.9333",
        "lng": "4.4167",
        "country": "Belgium"
    },
    {
        "name": "Boyabat",
        "lat": "41.4653",
        "lng": "34.7708",
        "country": "Turkey"
    },
    {
        "name": "Korogwe",
        "lat": "-5.1558",
        "lng": "38.4503",
        "country": "Tanzania"
    },
    {
        "name": "Ahmadpur",
        "lat": "18.7000",
        "lng": "76.9333",
        "country": "India"
    },
    {
        "name": "Tinajdad",
        "lat": "31.5000",
        "lng": "-5.0167",
        "country": "Morocco"
    },
    {
        "name": "Limache",
        "lat": "-33.0167",
        "lng": "-71.2667",
        "country": "Chile"
    },
    {
        "name": "Seoh\u0101ra",
        "lat": "29.2200",
        "lng": "78.5800",
        "country": "India"
    },
    {
        "name": "Yuchengcun",
        "lat": "23.5633",
        "lng": "116.2691",
        "country": "China"
    },
    {
        "name": "Mucaba",
        "lat": "-7.1667",
        "lng": "14.9333",
        "country": "Angola"
    },
    {
        "name": "Coatbridge",
        "lat": "55.8625",
        "lng": "-4.0266",
        "country": "United Kingdom"
    },
    {
        "name": "Tarbes",
        "lat": "43.2300",
        "lng": "0.0700",
        "country": "France"
    },
    {
        "name": "New Tecumseth",
        "lat": "44.0833",
        "lng": "-79.7500",
        "country": "Canada"
    },
    {
        "name": "Casale",
        "lat": "18.7990",
        "lng": "-72.3854",
        "country": "Haiti"
    },
    {
        "name": "Labason",
        "lat": "8.0647",
        "lng": "122.5200",
        "country": "Philippines"
    },
    {
        "name": "Yuanli",
        "lat": "24.4168",
        "lng": "120.6830",
        "country": "Taiwan"
    },
    {
        "name": "Bakamune",
        "lat": "7.7831",
        "lng": "80.8183",
        "country": "Sri Lanka"
    },
    {
        "name": "Goshikich\u014d-aihara-minamidani",
        "lat": "34.3000",
        "lng": "134.7833",
        "country": "Japan"
    },
    {
        "name": "Livramento de Nossa Senhora",
        "lat": "-13.6428",
        "lng": "-41.8408",
        "country": "Brazil"
    },
    {
        "name": "Comendador",
        "lat": "18.8833",
        "lng": "-71.7000",
        "country": "Dominican Republic"
    }
]