[
    {
        "name": "Friesoythe",
        "lat": "53.0206",
        "lng": "7.8586",
        "country": "Germany"
    },
    {
        "name": "Kitzingen",
        "lat": "49.7333",
        "lng": "10.1667",
        "country": "Germany"
    },
    {
        "name": "Muttupet",
        "lat": "10.3950",
        "lng": "79.4935",
        "country": "India"
    },
    {
        "name": "M\u00e9kh\u00e9",
        "lat": "15.1167",
        "lng": "-16.6333",
        "country": "Senegal"
    },
    {
        "name": "Hollola",
        "lat": "60.9867",
        "lng": "25.5167",
        "country": "Finland"
    },
    {
        "name": "Abu",
        "lat": "24.5925",
        "lng": "72.7083",
        "country": "India"
    },
    {
        "name": "Laguna Beach",
        "lat": "33.5455",
        "lng": "-117.7613",
        "country": "United States"
    },
    {
        "name": "Molodohvardiisk",
        "lat": "48.3444",
        "lng": "39.6583",
        "country": "Ukraine"
    },
    {
        "name": "Znamianka",
        "lat": "48.7136",
        "lng": "32.6733",
        "country": "Ukraine"
    },
    {
        "name": "Nijlen",
        "lat": "51.1667",
        "lng": "4.6500",
        "country": "Belgium"
    },
    {
        "name": "Huaibaijie",
        "lat": "35.7056",
        "lng": "109.5855",
        "country": "China"
    },
    {
        "name": "Loves Park",
        "lat": "42.3364",
        "lng": "-88.9975",
        "country": "United States"
    },
    {
        "name": "Blue Island",
        "lat": "41.6578",
        "lng": "-87.6811",
        "country": "United States"
    },
    {
        "name": "Swinton",
        "lat": "53.5122",
        "lng": "-2.3412",
        "country": "United Kingdom"
    },
    {
        "name": "Peters",
        "lat": "40.2739",
        "lng": "-80.0803",
        "country": "United States"
    },
    {
        "name": "Manosque",
        "lat": "43.8342",
        "lng": "5.7839",
        "country": "France"
    },
    {
        "name": "Famaill\u00e1",
        "lat": "-27.0500",
        "lng": "-65.4000",
        "country": "Argentina"
    },
    {
        "name": "Prairie Village",
        "lat": "38.9874",
        "lng": "-94.6362",
        "country": "United States"
    },
    {
        "name": "Bathgate",
        "lat": "55.9024",
        "lng": "-3.6431",
        "country": "United Kingdom"
    },
    {
        "name": "Itaocara",
        "lat": "-21.6789",
        "lng": "-42.0819",
        "country": "Brazil"
    },
    {
        "name": "Biancavilla",
        "lat": "37.6500",
        "lng": "14.8667",
        "country": "Italy"
    },
    {
        "name": "Pul-e \u2018Alam",
        "lat": "33.9808",
        "lng": "69.0350",
        "country": "Afghanistan"
    },
    {
        "name": "Kilk\u00eds",
        "lat": "40.9833",
        "lng": "22.8667",
        "country": "Greece"
    },
    {
        "name": "D\u00e1fni",
        "lat": "37.9500",
        "lng": "23.7333",
        "country": "Greece"
    },
    {
        "name": "Market Harborough",
        "lat": "52.4775",
        "lng": "-0.9206",
        "country": "United Kingdom"
    },
    {
        "name": "Nyakrom",
        "lat": "5.6167",
        "lng": "-0.7833",
        "country": "Ghana"
    },
    {
        "name": "Wulongpu",
        "lat": "37.9356",
        "lng": "110.3566",
        "country": "China"
    },
    {
        "name": "Edewecht",
        "lat": "53.1258",
        "lng": "7.9825",
        "country": "Germany"
    },
    {
        "name": "Dialakoroba",
        "lat": "12.2628",
        "lng": "-7.9269",
        "country": "Mali"
    },
    {
        "name": "Dokuchaievsk",
        "lat": "47.7519",
        "lng": "37.6783",
        "country": "Ukraine"
    },
    {
        "name": "Keene",
        "lat": "42.9494",
        "lng": "-72.2998",
        "country": "United States"
    },
    {
        "name": "Zdu\u0144ska Wola",
        "lat": "51.6000",
        "lng": "18.9667",
        "country": "Poland"
    },
    {
        "name": "Bhir\u0101ha",
        "lat": "25.7978",
        "lng": "86.0736",
        "country": "India"
    },
    {
        "name": "Isilkul",
        "lat": "54.9500",
        "lng": "71.2500",
        "country": "Russia"
    },
    {
        "name": "Shurugwi",
        "lat": "-19.6667",
        "lng": "30.0000",
        "country": "Zimbabwe"
    },
    {
        "name": "Kotido",
        "lat": "3.0061",
        "lng": "34.1125",
        "country": "Uganda"
    },
    {
        "name": "Vadakarai K\u012bl Pid\u0101gai",
        "lat": "9.0401",
        "lng": "77.2741",
        "country": "India"
    },
    {
        "name": "Ayos",
        "lat": "3.9069",
        "lng": "12.5272",
        "country": "Cameroon"
    },
    {
        "name": "Colorado",
        "lat": "-22.8378",
        "lng": "-51.9728",
        "country": "Brazil"
    },
    {
        "name": "Senden",
        "lat": "48.3167",
        "lng": "10.0667",
        "country": "Germany"
    },
    {
        "name": "Dorohoi",
        "lat": "47.9597",
        "lng": "26.3997",
        "country": "Romania"
    },
    {
        "name": "Lermontov",
        "lat": "44.1167",
        "lng": "42.9833",
        "country": "Russia"
    },
    {
        "name": "Fontaine",
        "lat": "45.1939",
        "lng": "5.6856",
        "country": "France"
    },
    {
        "name": "Trebi\u0161ov",
        "lat": "48.6278",
        "lng": "21.7172",
        "country": "Slovakia"
    },
    {
        "name": "Losser",
        "lat": "52.2667",
        "lng": "7.0000",
        "country": "Netherlands"
    },
    {
        "name": "Vellal\u016br",
        "lat": "10.9775",
        "lng": "77.0260",
        "country": "India"
    },
    {
        "name": "Pointe \u00e0 Raquettes",
        "lat": "18.7833",
        "lng": "-73.0667",
        "country": "Haiti"
    },
    {
        "name": "Ogre",
        "lat": "56.8186",
        "lng": "24.6056",
        "country": "Latvia"
    },
    {
        "name": "Garoua Boula\u00ef",
        "lat": "5.8833",
        "lng": "14.5500",
        "country": "Cameroon"
    },
    {
        "name": "Zeewolde",
        "lat": "52.3333",
        "lng": "5.5500",
        "country": "Netherlands"
    },
    {
        "name": "Ramos",
        "lat": "15.6667",
        "lng": "120.6417",
        "country": "Philippines"
    },
    {
        "name": "Kalat",
        "lat": "29.0300",
        "lng": "66.5890",
        "country": "Pakistan"
    },
    {
        "name": "Luruaco",
        "lat": "10.6083",
        "lng": "-75.1417",
        "country": "Colombia"
    },
    {
        "name": "Marcinelle",
        "lat": "50.4000",
        "lng": "4.4486",
        "country": "Belgium"
    },
    {
        "name": "Mah\u0101debnagar",
        "lat": "24.6896",
        "lng": "87.9384",
        "country": "India"
    },
    {
        "name": "Ekeren",
        "lat": "51.2833",
        "lng": "4.4167",
        "country": "Belgium"
    },
    {
        "name": "Neus\u00e4\u00df",
        "lat": "48.4000",
        "lng": "10.8333",
        "country": "Germany"
    },
    {
        "name": "Pietrasanta",
        "lat": "43.9667",
        "lng": "10.2333",
        "country": "Italy"
    },
    {
        "name": "Viga",
        "lat": "13.8700",
        "lng": "124.3000",
        "country": "Philippines"
    },
    {
        "name": "Baile \u00c1tha Luain",
        "lat": "53.4236",
        "lng": "-7.9425",
        "country": "Ireland"
    },
    {
        "name": "Bhad\u0101s",
        "lat": "25.5184",
        "lng": "86.4434",
        "country": "India"
    },
    {
        "name": "Genzano di Roma",
        "lat": "41.7000",
        "lng": "12.6833",
        "country": "Italy"
    },
    {
        "name": "Vale de Cambra",
        "lat": "40.8500",
        "lng": "-8.4000",
        "country": "Portugal"
    },
    {
        "name": "Laupheim",
        "lat": "48.2289",
        "lng": "9.8797",
        "country": "Germany"
    },
    {
        "name": "Ara\u00e7ariguama",
        "lat": "-23.4386",
        "lng": "-47.0614",
        "country": "Brazil"
    },
    {
        "name": "Nazca",
        "lat": "-14.8289",
        "lng": "-74.9436",
        "country": "Peru"
    },
    {
        "name": "Waltham Abbey",
        "lat": "51.6846",
        "lng": "0.0004",
        "country": "United Kingdom"
    },
    {
        "name": "Malacatancito",
        "lat": "15.2167",
        "lng": "-91.5167",
        "country": "Guatemala"
    },
    {
        "name": "Patacamaya",
        "lat": "-17.2333",
        "lng": "-67.9167",
        "country": "Bolivia"
    },
    {
        "name": "Oteiza",
        "lat": "8.7437",
        "lng": "126.2214",
        "country": "Philippines"
    },
    {
        "name": "Olivet",
        "lat": "47.8639",
        "lng": "1.9006",
        "country": "France"
    },
    {
        "name": "Azov\u00e9",
        "lat": "6.9500",
        "lng": "1.7000",
        "country": "Benin"
    },
    {
        "name": "Vagos",
        "lat": "40.5500",
        "lng": "-8.6833",
        "country": "Portugal"
    },
    {
        "name": "Hadyach",
        "lat": "50.3667",
        "lng": "34.0000",
        "country": "Ukraine"
    },
    {
        "name": "Sarandi",
        "lat": "-27.9439",
        "lng": "-52.9228",
        "country": "Brazil"
    },
    {
        "name": "Ventimiglia",
        "lat": "43.7903",
        "lng": "7.6083",
        "country": "Italy"
    },
    {
        "name": "Blangmangat",
        "lat": "5.1881",
        "lng": "97.1403",
        "country": "Indonesia"
    },
    {
        "name": "Krnov",
        "lat": "50.0906",
        "lng": "17.6986",
        "country": "Czechia"
    },
    {
        "name": "Arcos de Valdevez",
        "lat": "41.8472",
        "lng": "-8.4186",
        "country": "Portugal"
    },
    {
        "name": "Roselle",
        "lat": "41.9809",
        "lng": "-88.0861",
        "country": "United States"
    },
    {
        "name": "Villanueva de la Ca\u00f1ada",
        "lat": "40.4500",
        "lng": "-3.9833",
        "country": "Spain"
    },
    {
        "name": "Dammarie-l\u00e8-Lys",
        "lat": "48.5177",
        "lng": "2.6402",
        "country": "France"
    },
    {
        "name": "Gainsborough",
        "lat": "53.4016",
        "lng": "-0.7732",
        "country": "United Kingdom"
    },
    {
        "name": "Machesney Park",
        "lat": "42.3666",
        "lng": "-89.0266",
        "country": "United States"
    },
    {
        "name": "Guanajay",
        "lat": "22.9306",
        "lng": "-82.6881",
        "country": "Cuba"
    },
    {
        "name": "Nay\u0101gaon",
        "lat": "26.7486",
        "lng": "76.3273",
        "country": "India"
    },
    {
        "name": "Tadma\u00eft",
        "lat": "36.7500",
        "lng": "3.9000",
        "country": "Algeria"
    },
    {
        "name": "Chitarpur",
        "lat": "23.5794",
        "lng": "85.6548",
        "country": "India"
    },
    {
        "name": "Naolinco de Victoria",
        "lat": "19.6367",
        "lng": "-96.8525",
        "country": "Mexico"
    },
    {
        "name": "Ecoporanga",
        "lat": "-18.3728",
        "lng": "-40.8308",
        "country": "Brazil"
    },
    {
        "name": "Selvazzano Dentro",
        "lat": "45.3833",
        "lng": "11.7833",
        "country": "Italy"
    },
    {
        "name": "Qa\u0163an\u0101",
        "lat": "33.4333",
        "lng": "36.0833",
        "country": "Syria"
    },
    {
        "name": "Xinsi",
        "lat": "34.6503",
        "lng": "104.6302",
        "country": "China"
    },
    {
        "name": "Ahwa",
        "lat": "20.7500",
        "lng": "73.6833",
        "country": "India"
    },
    {
        "name": "Erdington",
        "lat": "52.5236",
        "lng": "-1.8378",
        "country": "United Kingdom"
    },
    {
        "name": "Katy",
        "lat": "29.7905",
        "lng": "-95.8353",
        "country": "United States"
    },
    {
        "name": "Millbrae",
        "lat": "37.5994",
        "lng": "-122.4023",
        "country": "United States"
    },
    {
        "name": "Nogoy\u00e1",
        "lat": "-32.4000",
        "lng": "-59.8000",
        "country": "Argentina"
    },
    {
        "name": "Ondangwa",
        "lat": "-17.9167",
        "lng": "15.9500",
        "country": "Namibia"
    },
    {
        "name": "Pawni",
        "lat": "20.7800",
        "lng": "79.6300",
        "country": "India"
    }
]