[
    {
        "name": "Kinston",
        "lat": "35.2747",
        "lng": "-77.5939",
        "country": "United States"
    },
    {
        "name": "B\u00fcckeburg",
        "lat": "52.2608",
        "lng": "9.0492",
        "country": "Germany"
    },
    {
        "name": "Rybnoye",
        "lat": "54.7333",
        "lng": "39.5167",
        "country": "Russia"
    },
    {
        "name": "Baban\u016bsah",
        "lat": "11.3333",
        "lng": "27.8000",
        "country": "Sudan"
    },
    {
        "name": "Leh\u0101ra",
        "lat": "26.1515",
        "lng": "86.1034",
        "country": "India"
    },
    {
        "name": "South El Monte",
        "lat": "34.0493",
        "lng": "-118.0484",
        "country": "United States"
    },
    {
        "name": "Su\u00e1rez",
        "lat": "2.9589",
        "lng": "-76.6953",
        "country": "Colombia"
    },
    {
        "name": "Colotl\u00e1n",
        "lat": "22.2000",
        "lng": "-103.3000",
        "country": "Mexico"
    },
    {
        "name": "San Salvo",
        "lat": "42.0500",
        "lng": "14.7167",
        "country": "Italy"
    },
    {
        "name": "Taketa",
        "lat": "32.9736",
        "lng": "131.3978",
        "country": "Japan"
    },
    {
        "name": "Jimaguay\u00fa",
        "lat": "21.2667",
        "lng": "-77.8303",
        "country": "Cuba"
    },
    {
        "name": "Dicholi",
        "lat": "15.5932",
        "lng": "73.9457",
        "country": "India"
    },
    {
        "name": "Harmanli",
        "lat": "41.9333",
        "lng": "25.9000",
        "country": "Bulgaria"
    },
    {
        "name": "Mok\u0113ri",
        "lat": "11.7432",
        "lng": "75.6178",
        "country": "India"
    },
    {
        "name": "Bu\u015fr\u00e1 ash Sh\u0101m",
        "lat": "32.5167",
        "lng": "36.4833",
        "country": "Syria"
    },
    {
        "name": "Silla",
        "lat": "39.3611",
        "lng": "-0.4114",
        "country": "Spain"
    },
    {
        "name": "K\u0101tp\u0101di",
        "lat": "12.9695",
        "lng": "79.1455",
        "country": "India"
    },
    {
        "name": "Kanniy\u0101kum\u0101ri",
        "lat": "8.0883",
        "lng": "77.5385",
        "country": "India"
    },
    {
        "name": "Calatayud",
        "lat": "41.3500",
        "lng": "-1.6333",
        "country": "Spain"
    },
    {
        "name": "Mougins",
        "lat": "43.6008",
        "lng": "6.9956",
        "country": "France"
    },
    {
        "name": "Namb\u016bru",
        "lat": "16.3600",
        "lng": "80.5200",
        "country": "India"
    },
    {
        "name": "Or\u00f3s",
        "lat": "-6.2439",
        "lng": "-38.9139",
        "country": "Brazil"
    },
    {
        "name": "Whitemarsh",
        "lat": "40.1040",
        "lng": "-75.2483",
        "country": "United States"
    },
    {
        "name": "Sinacaban",
        "lat": "8.2854",
        "lng": "123.8436",
        "country": "Philippines"
    },
    {
        "name": "Ma\u1e29m\u016bd\u0101b\u0101d Nem\u016bneh",
        "lat": "36.2903",
        "lng": "49.8994",
        "country": "Iran"
    },
    {
        "name": "Hajn\u00f3wka",
        "lat": "52.7333",
        "lng": "23.5667",
        "country": "Poland"
    },
    {
        "name": "Guantiankan",
        "lat": "28.2966",
        "lng": "106.6083",
        "country": "China"
    },
    {
        "name": "Udalguri",
        "lat": "26.7537",
        "lng": "92.1021",
        "country": "India"
    },
    {
        "name": "Korsholm",
        "lat": "63.1125",
        "lng": "21.6778",
        "country": "Finland"
    },
    {
        "name": "Pastores",
        "lat": "14.6000",
        "lng": "-90.7500",
        "country": "Guatemala"
    },
    {
        "name": "B\u016bdipuram",
        "lat": "10.3606",
        "lng": "78.0106",
        "country": "India"
    },
    {
        "name": "Westmount",
        "lat": "45.4833",
        "lng": "-73.6000",
        "country": "Canada"
    },
    {
        "name": "Andaingo Gara",
        "lat": "-18.2000",
        "lng": "48.2833",
        "country": "Madagascar"
    },
    {
        "name": "Chiconcuac",
        "lat": "19.5500",
        "lng": "-98.9000",
        "country": "Mexico"
    },
    {
        "name": "Pichor",
        "lat": "25.1756",
        "lng": "78.1886",
        "country": "India"
    },
    {
        "name": "Buriti dos Lopes",
        "lat": "-3.1667",
        "lng": "-41.8667",
        "country": "Brazil"
    },
    {
        "name": "Kom\u00e1rom",
        "lat": "47.7403",
        "lng": "18.1244",
        "country": "Hungary"
    },
    {
        "name": "Bruz",
        "lat": "48.0256",
        "lng": "-1.7447",
        "country": "France"
    },
    {
        "name": "Dura\u011fan",
        "lat": "41.4167",
        "lng": "35.0500",
        "country": "Turkey"
    },
    {
        "name": "Yuanhucun",
        "lat": "44.1977",
        "lng": "86.8928",
        "country": "China"
    },
    {
        "name": "Grafton",
        "lat": "42.2085",
        "lng": "-71.6838",
        "country": "United States"
    },
    {
        "name": "Chipiona",
        "lat": "36.7333",
        "lng": "-6.4333",
        "country": "Spain"
    },
    {
        "name": "Karuizawa",
        "lat": "36.3486",
        "lng": "138.5969",
        "country": "Japan"
    },
    {
        "name": "Kond\u016br",
        "lat": "9.6856",
        "lng": "76.7622",
        "country": "India"
    },
    {
        "name": "Nov\u00e9 Mesto nad V\u00e1hom",
        "lat": "48.7547",
        "lng": "17.8308",
        "country": "Slovakia"
    },
    {
        "name": "Lu\u00e9noufla",
        "lat": "7.0667",
        "lng": "-6.2500",
        "country": "C\u00f4te d\u2019Ivoire"
    },
    {
        "name": "Dayr Ab\u016b \u1e28innis",
        "lat": "27.7864",
        "lng": "30.9050",
        "country": "Egypt"
    },
    {
        "name": "Davyhulme",
        "lat": "53.4559",
        "lng": "-2.3683",
        "country": "United Kingdom"
    },
    {
        "name": "Villabate",
        "lat": "38.0833",
        "lng": "13.4500",
        "country": "Italy"
    },
    {
        "name": "Ahfir",
        "lat": "34.9514",
        "lng": "-2.1025",
        "country": "Morocco"
    },
    {
        "name": "Nilakkottai",
        "lat": "10.1700",
        "lng": "77.8700",
        "country": "India"
    },
    {
        "name": "Urumita",
        "lat": "10.5667",
        "lng": "-73.0167",
        "country": "Colombia"
    },
    {
        "name": "Hanumana",
        "lat": "24.7789",
        "lng": "82.0960",
        "country": "India"
    },
    {
        "name": "R\u0101wah",
        "lat": "34.4686",
        "lng": "41.9167",
        "country": "Iraq"
    },
    {
        "name": "Jussara",
        "lat": "-15.8642",
        "lng": "-50.8522",
        "country": "Brazil"
    },
    {
        "name": "V\u00e1rpalota",
        "lat": "47.1989",
        "lng": "18.1376",
        "country": "Hungary"
    },
    {
        "name": "Haiger",
        "lat": "50.7422",
        "lng": "8.2039",
        "country": "Germany"
    },
    {
        "name": "Bir Kasdali",
        "lat": "36.1500",
        "lng": "5.0333",
        "country": "Algeria"
    },
    {
        "name": "Amp\u00e8re",
        "lat": "-25.9150",
        "lng": "-53.4728",
        "country": "Brazil"
    },
    {
        "name": "Atas\u016b",
        "lat": "48.6903",
        "lng": "71.6499",
        "country": "Kazakhstan"
    },
    {
        "name": "Otjiwarongo",
        "lat": "-20.4642",
        "lng": "16.6528",
        "country": "Namibia"
    },
    {
        "name": "Yahotyn",
        "lat": "50.2569",
        "lng": "31.7817",
        "country": "Ukraine"
    },
    {
        "name": "Bad Aibling",
        "lat": "47.8639",
        "lng": "12.0100",
        "country": "Germany"
    },
    {
        "name": "Arvin",
        "lat": "35.1944",
        "lng": "-118.8306",
        "country": "United States"
    },
    {
        "name": "R\u0101mj\u012bbanpur",
        "lat": "22.8300",
        "lng": "87.6200",
        "country": "India"
    },
    {
        "name": "Cherepanovo",
        "lat": "54.2333",
        "lng": "83.3667",
        "country": "Russia"
    },
    {
        "name": "Lerdo de Tejada",
        "lat": "18.6380",
        "lng": "-95.5085",
        "country": "Mexico"
    },
    {
        "name": "Okhmalynka",
        "lat": "47.5333",
        "lng": "29.3000",
        "country": "Ukraine"
    },
    {
        "name": "Punta Gorda",
        "lat": "26.8941",
        "lng": "-82.0513",
        "country": "United States"
    },
    {
        "name": "Bad Pyrmont",
        "lat": "51.9867",
        "lng": "9.2636",
        "country": "Germany"
    },
    {
        "name": "Mayahaura",
        "lat": "22.1898",
        "lng": "88.5033",
        "country": "India"
    },
    {
        "name": "El Coco",
        "lat": "8.8834",
        "lng": "-79.8332",
        "country": "Panama"
    },
    {
        "name": "Ilija\u0161",
        "lat": "43.9500",
        "lng": "18.2667",
        "country": "Bosnia and Herzegovina"
    },
    {
        "name": "Veroli",
        "lat": "41.6833",
        "lng": "13.4167",
        "country": "Italy"
    },
    {
        "name": "Niiyama",
        "lat": "35.0533",
        "lng": "138.9455",
        "country": "Japan"
    },
    {
        "name": "Brigham City",
        "lat": "41.5035",
        "lng": "-112.0453",
        "country": "United States"
    },
    {
        "name": "Bondo",
        "lat": "3.8167",
        "lng": "23.6833",
        "country": "Congo (Kinshasa)"
    },
    {
        "name": "Kutina",
        "lat": "45.4667",
        "lng": "16.7833",
        "country": "Croatia"
    },
    {
        "name": "San Juan Zitlaltepec",
        "lat": "19.7167",
        "lng": "-99.0500",
        "country": "Mexico"
    },
    {
        "name": "Petrila",
        "lat": "45.4500",
        "lng": "23.4200",
        "country": "Romania"
    },
    {
        "name": "Diinsoor",
        "lat": "2.4106",
        "lng": "42.9767",
        "country": "Somalia"
    },
    {
        "name": "S\u0101dpur",
        "lat": "25.4758",
        "lng": "86.3786",
        "country": "India"
    },
    {
        "name": "Tapau\u00e1",
        "lat": "-5.6278",
        "lng": "-63.1828",
        "country": "Brazil"
    },
    {
        "name": "Ischia",
        "lat": "40.7333",
        "lng": "13.9500",
        "country": "Italy"
    },
    {
        "name": "Russell",
        "lat": "45.2569",
        "lng": "-75.3583",
        "country": "Canada"
    },
    {
        "name": "Turnu M\u0103gurele",
        "lat": "43.7517",
        "lng": "24.8708",
        "country": "Romania"
    },
    {
        "name": "Holtsville",
        "lat": "40.8124",
        "lng": "-73.0447",
        "country": "United States"
    },
    {
        "name": "Xapuri",
        "lat": "-10.6519",
        "lng": "-68.5039",
        "country": "Brazil"
    },
    {
        "name": "Lieto",
        "lat": "60.5050",
        "lng": "22.4583",
        "country": "Finland"
    },
    {
        "name": "Rhede",
        "lat": "51.8333",
        "lng": "6.7006",
        "country": "Germany"
    },
    {
        "name": "Yershov",
        "lat": "51.3500",
        "lng": "48.2667",
        "country": "Russia"
    },
    {
        "name": "Buritirama",
        "lat": "-10.7078",
        "lng": "-43.6308",
        "country": "Brazil"
    },
    {
        "name": "Lastra a Signa",
        "lat": "43.7667",
        "lng": "11.1000",
        "country": "Italy"
    },
    {
        "name": "Hidalgotitl\u00e1n",
        "lat": "17.7833",
        "lng": "-94.6333",
        "country": "Mexico"
    },
    {
        "name": "Visaginas",
        "lat": "55.5980",
        "lng": "26.4380",
        "country": "Lithuania"
    },
    {
        "name": "Venadillo",
        "lat": "4.7500",
        "lng": "-74.9167",
        "country": "Colombia"
    },
    {
        "name": "Schilde",
        "lat": "51.2333",
        "lng": "4.5667",
        "country": "Belgium"
    },
    {
        "name": "Engelskirchen",
        "lat": "50.9833",
        "lng": "7.4167",
        "country": "Germany"
    },
    {
        "name": "Liuliang",
        "lat": "35.2695",
        "lng": "105.9860",
        "country": "China"
    },
    {
        "name": "Les Coteaux",
        "lat": "45.2800",
        "lng": "-74.2300",
        "country": "Canada"
    }
]