[
    {
        "name": "P\u00e1jara",
        "lat": "28.3511",
        "lng": "-14.1075",
        "country": "Spain"
    },
    {
        "name": "Wielu\u0144",
        "lat": "51.2206",
        "lng": "18.5700",
        "country": "Poland"
    },
    {
        "name": "Linamon",
        "lat": "8.1800",
        "lng": "124.1700",
        "country": "Philippines"
    },
    {
        "name": "Mossaka",
        "lat": "-1.2258",
        "lng": "16.7947",
        "country": "Congo (Brazzaville)"
    },
    {
        "name": "Nowa Ruda",
        "lat": "50.5833",
        "lng": "16.5000",
        "country": "Poland"
    },
    {
        "name": "Agropoli",
        "lat": "40.3500",
        "lng": "14.9833",
        "country": "Italy"
    },
    {
        "name": "Vialonga",
        "lat": "38.8740",
        "lng": "-9.0820",
        "country": "Portugal"
    },
    {
        "name": "Almasi",
        "lat": "38.6833",
        "lng": "68.6000",
        "country": "Tajikistan"
    },
    {
        "name": "Dronfield",
        "lat": "53.3024",
        "lng": "-1.4664",
        "country": "United Kingdom"
    },
    {
        "name": "Oshoba",
        "lat": "40.7347",
        "lng": "70.4417",
        "country": "Tajikistan"
    },
    {
        "name": "Iruttarakonam",
        "lat": "8.5863",
        "lng": "76.8976",
        "country": "India"
    },
    {
        "name": "Rolante",
        "lat": "-29.6667",
        "lng": "-50.5667",
        "country": "Brazil"
    },
    {
        "name": "Traunstein",
        "lat": "47.8667",
        "lng": "12.6333",
        "country": "Germany"
    },
    {
        "name": "N\u0101magiripettai",
        "lat": "11.4700",
        "lng": "78.2700",
        "country": "India"
    },
    {
        "name": "Sulej\u00f3wek",
        "lat": "52.2442",
        "lng": "21.2800",
        "country": "Poland"
    },
    {
        "name": "West Pensacola",
        "lat": "30.4263",
        "lng": "-87.2679",
        "country": "United States"
    },
    {
        "name": "Tapalpa",
        "lat": "19.9445",
        "lng": "-103.7585",
        "country": "Mexico"
    },
    {
        "name": "Asni",
        "lat": "31.2500",
        "lng": "-7.9833",
        "country": "Morocco"
    },
    {
        "name": "Koduvil\u0101rpatti",
        "lat": "9.9695",
        "lng": "77.4915",
        "country": "India"
    },
    {
        "name": "Carrboro",
        "lat": "35.9259",
        "lng": "-79.0878",
        "country": "United States"
    },
    {
        "name": "Ntcheu",
        "lat": "-14.8333",
        "lng": "34.6667",
        "country": "Malawi"
    },
    {
        "name": "Sanxing",
        "lat": "24.6739",
        "lng": "121.6631",
        "country": "Taiwan"
    },
    {
        "name": "Suwanee",
        "lat": "34.0508",
        "lng": "-84.0686",
        "country": "United States"
    },
    {
        "name": "Aguadas",
        "lat": "5.6167",
        "lng": "-75.4667",
        "country": "Colombia"
    },
    {
        "name": "Manuel Tames",
        "lat": "20.1803",
        "lng": "-75.0514",
        "country": "Cuba"
    },
    {
        "name": "Lealman",
        "lat": "27.8197",
        "lng": "-82.6847",
        "country": "United States"
    },
    {
        "name": "Bhairi\u0307\u0304",
        "lat": "28.9300",
        "lng": "81.6300",
        "country": "Nepal"
    },
    {
        "name": "Ossett",
        "lat": "53.6800",
        "lng": "-1.5800",
        "country": "United Kingdom"
    },
    {
        "name": "Montecristo",
        "lat": "8.2994",
        "lng": "-74.4756",
        "country": "Colombia"
    },
    {
        "name": "Urk",
        "lat": "52.6667",
        "lng": "5.6000",
        "country": "Netherlands"
    },
    {
        "name": "Narkher",
        "lat": "21.4383",
        "lng": "78.5683",
        "country": "India"
    },
    {
        "name": "Degollado",
        "lat": "20.4667",
        "lng": "-102.1500",
        "country": "Mexico"
    },
    {
        "name": "T\u0101dikombu",
        "lat": "10.4390",
        "lng": "77.9546",
        "country": "India"
    },
    {
        "name": "Fierenana",
        "lat": "-18.5500",
        "lng": "45.8500",
        "country": "Madagascar"
    },
    {
        "name": "Dupax del Sur",
        "lat": "16.2842",
        "lng": "121.0917",
        "country": "Philippines"
    },
    {
        "name": "S\u00e3o Sep\u00e9",
        "lat": "-30.1667",
        "lng": "-53.5667",
        "country": "Brazil"
    },
    {
        "name": "Pillaiy\u0101rkuppam",
        "lat": "11.8119",
        "lng": "79.7922",
        "country": "India"
    },
    {
        "name": "Bobonong",
        "lat": "-21.9704",
        "lng": "28.4233",
        "country": "Botswana"
    },
    {
        "name": "Kosgi",
        "lat": "16.9878",
        "lng": "77.7169",
        "country": "India"
    },
    {
        "name": "Zonhoven",
        "lat": "50.9833",
        "lng": "5.3500",
        "country": "Belgium"
    },
    {
        "name": "Concepci\u00f3n Huista",
        "lat": "15.6167",
        "lng": "-91.6833",
        "country": "Guatemala"
    },
    {
        "name": "Jiangjiadong",
        "lat": "24.4985",
        "lng": "112.8397",
        "country": "China"
    },
    {
        "name": "Kontich",
        "lat": "51.1333",
        "lng": "4.4500",
        "country": "Belgium"
    },
    {
        "name": "Parasi",
        "lat": "24.1908",
        "lng": "82.7817",
        "country": "India"
    },
    {
        "name": "Matsuura",
        "lat": "33.3333",
        "lng": "129.7167",
        "country": "Japan"
    },
    {
        "name": "Rose Hill",
        "lat": "38.7872",
        "lng": "-77.1085",
        "country": "United States"
    },
    {
        "name": "Obock",
        "lat": "11.9667",
        "lng": "43.2833",
        "country": "Djibouti"
    },
    {
        "name": "Tabount",
        "lat": "30.8800",
        "lng": "-6.9100",
        "country": "Morocco"
    },
    {
        "name": "Varennes",
        "lat": "45.6833",
        "lng": "-73.4333",
        "country": "Canada"
    },
    {
        "name": "Luc\u00e9lia",
        "lat": "-21.7203",
        "lng": "-51.0189",
        "country": "Brazil"
    },
    {
        "name": "Chorw\u0101d",
        "lat": "21.0167",
        "lng": "70.2333",
        "country": "India"
    },
    {
        "name": "R\u0101tu",
        "lat": "23.4204",
        "lng": "85.2146",
        "country": "India"
    },
    {
        "name": "Saint-Mand\u00e9",
        "lat": "48.8422",
        "lng": "2.4186",
        "country": "France"
    },
    {
        "name": "Milwaukie",
        "lat": "45.4445",
        "lng": "-122.6219",
        "country": "United States"
    },
    {
        "name": "Caapor\u00e3",
        "lat": "-7.5167",
        "lng": "-34.9000",
        "country": "Brazil"
    },
    {
        "name": "Rio Maior",
        "lat": "39.3333",
        "lng": "-8.9333",
        "country": "Portugal"
    },
    {
        "name": "Valle Nacional",
        "lat": "17.7667",
        "lng": "-96.3000",
        "country": "Mexico"
    },
    {
        "name": "Qia\u2019erbagecun",
        "lat": "37.9724",
        "lng": "77.3399",
        "country": "China"
    },
    {
        "name": "N\u0101gamangala",
        "lat": "12.8194",
        "lng": "76.7546",
        "country": "India"
    },
    {
        "name": "Borgomanero",
        "lat": "45.7000",
        "lng": "8.4667",
        "country": "Italy"
    },
    {
        "name": "Boca da Mata",
        "lat": "-9.6408",
        "lng": "-36.2200",
        "country": "Brazil"
    },
    {
        "name": "Rupauli",
        "lat": "25.8695",
        "lng": "87.0600",
        "country": "India"
    },
    {
        "name": "\u0160a\u013ea",
        "lat": "48.1503",
        "lng": "17.8775",
        "country": "Slovakia"
    },
    {
        "name": "Vryburg",
        "lat": "-26.9586",
        "lng": "24.7322",
        "country": "South Africa"
    },
    {
        "name": "Floridia",
        "lat": "37.0833",
        "lng": "15.1500",
        "country": "Italy"
    },
    {
        "name": "Hyde Park",
        "lat": "41.8011",
        "lng": "-73.9060",
        "country": "United States"
    },
    {
        "name": "Sh\u0101zand",
        "lat": "33.9292",
        "lng": "49.4103",
        "country": "Iran"
    },
    {
        "name": "Belonia",
        "lat": "23.2500",
        "lng": "91.4500",
        "country": "India"
    },
    {
        "name": "Gardanne",
        "lat": "43.4553",
        "lng": "5.4760",
        "country": "France"
    },
    {
        "name": "L\u0101thi",
        "lat": "21.4500",
        "lng": "71.3800",
        "country": "India"
    },
    {
        "name": "Manlleu",
        "lat": "42.0000",
        "lng": "2.2836",
        "country": "Spain"
    },
    {
        "name": "Varadero",
        "lat": "23.1394",
        "lng": "-81.2861",
        "country": "Cuba"
    },
    {
        "name": "Tiburon",
        "lat": "18.3333",
        "lng": "-74.4000",
        "country": "Haiti"
    },
    {
        "name": "Penzance",
        "lat": "50.1190",
        "lng": "-5.5370",
        "country": "United Kingdom"
    },
    {
        "name": "Sar\u0101ri",
        "lat": "26.2523",
        "lng": "84.5484",
        "country": "India"
    },
    {
        "name": "Tinja",
        "lat": "37.1667",
        "lng": "9.7667",
        "country": "Tunisia"
    },
    {
        "name": "Guasipati",
        "lat": "7.4667",
        "lng": "-61.4667",
        "country": "Venezuela"
    },
    {
        "name": "Bologoye",
        "lat": "57.8833",
        "lng": "34.0500",
        "country": "Russia"
    },
    {
        "name": "Khromta\u016b",
        "lat": "50.2503",
        "lng": "58.4347",
        "country": "Kazakhstan"
    },
    {
        "name": "Varkaus",
        "lat": "62.3167",
        "lng": "27.8917",
        "country": "Finland"
    },
    {
        "name": "Wildeshausen",
        "lat": "52.9000",
        "lng": "8.4333",
        "country": "Germany"
    },
    {
        "name": "Hallein",
        "lat": "47.6831",
        "lng": "13.0969",
        "country": "Austria"
    },
    {
        "name": "Allschwil",
        "lat": "47.5500",
        "lng": "7.5333",
        "country": "Switzerland"
    },
    {
        "name": "Mor\u0101sar",
        "lat": "23.0942",
        "lng": "72.5961",
        "country": "India"
    },
    {
        "name": "Maraca\u00e7um\u00e9",
        "lat": "-2.0500",
        "lng": "-45.9333",
        "country": "Brazil"
    },
    {
        "name": "Hancha",
        "lat": "37.8572",
        "lng": "109.4972",
        "country": "China"
    },
    {
        "name": "Sapon\u00e9",
        "lat": "12.0528",
        "lng": "-1.6036",
        "country": "Burkina Faso"
    },
    {
        "name": "Ir\u00e1kleia",
        "lat": "41.1833",
        "lng": "23.2833",
        "country": "Greece"
    },
    {
        "name": "Kanmaki",
        "lat": "34.5667",
        "lng": "135.7167",
        "country": "Japan"
    },
    {
        "name": "Bayou Cane",
        "lat": "29.6243",
        "lng": "-90.7510",
        "country": "United States"
    },
    {
        "name": "Loyola Heights",
        "lat": "14.6403",
        "lng": "121.0744",
        "country": "Philippines"
    },
    {
        "name": "Kann\u0101nendal",
        "lat": "9.9649",
        "lng": "78.1416",
        "country": "India"
    },
    {
        "name": "Quirima",
        "lat": "-10.9000",
        "lng": "18.0833",
        "country": "Angola"
    },
    {
        "name": "Saurh",
        "lat": "25.3789",
        "lng": "86.8223",
        "country": "India"
    },
    {
        "name": "Cortona",
        "lat": "43.2756",
        "lng": "11.9881",
        "country": "Italy"
    },
    {
        "name": "Ka\u011f\u0131zman",
        "lat": "40.1583",
        "lng": "43.1342",
        "country": "Turkey"
    },
    {
        "name": "Forbach",
        "lat": "49.1900",
        "lng": "6.9000",
        "country": "France"
    },
    {
        "name": "Villeneuve-le-Roi",
        "lat": "48.7333",
        "lng": "2.4167",
        "country": "France"
    },
    {
        "name": "Aguinaldo",
        "lat": "16.9789",
        "lng": "121.3272",
        "country": "Philippines"
    },
    {
        "name": "Cartaya",
        "lat": "37.2833",
        "lng": "-7.1500",
        "country": "Spain"
    }
]