[
    {
        "name": "Harelbeke",
        "lat": "50.8500",
        "lng": "3.3000",
        "country": "Belgium"
    },
    {
        "name": "Cecina",
        "lat": "43.3167",
        "lng": "10.5167",
        "country": "Italy"
    },
    {
        "name": "Dingalan",
        "lat": "15.3800",
        "lng": "121.4000",
        "country": "Philippines"
    },
    {
        "name": "Melga\u00e7o",
        "lat": "-1.8039",
        "lng": "-50.7119",
        "country": "Brazil"
    },
    {
        "name": "Talusan",
        "lat": "7.4263",
        "lng": "122.8084",
        "country": "Philippines"
    },
    {
        "name": "Orvault",
        "lat": "47.2717",
        "lng": "-1.6225",
        "country": "France"
    },
    {
        "name": "Mytil\u00edni",
        "lat": "39.1000",
        "lng": "26.5500",
        "country": "Greece"
    },
    {
        "name": "Chichaoua",
        "lat": "31.5333",
        "lng": "-8.7667",
        "country": "Morocco"
    },
    {
        "name": "Zanandore",
        "lat": "-3.2500",
        "lng": "30.1167",
        "country": "Burundi"
    },
    {
        "name": "Ampasimanolotra",
        "lat": "-18.8194",
        "lng": "49.0736",
        "country": "Madagascar"
    },
    {
        "name": "Mahaplag",
        "lat": "10.6072",
        "lng": "124.9636",
        "country": "Philippines"
    },
    {
        "name": "Quiroga",
        "lat": "19.6667",
        "lng": "-101.5333",
        "country": "Mexico"
    },
    {
        "name": "Daphne",
        "lat": "30.6263",
        "lng": "-87.8816",
        "country": "United States"
    },
    {
        "name": "Villa Luvianos",
        "lat": "18.9200",
        "lng": "-100.2983",
        "country": "Mexico"
    },
    {
        "name": "Topki",
        "lat": "55.3333",
        "lng": "85.7500",
        "country": "Russia"
    },
    {
        "name": "Sirakorola",
        "lat": "13.2833",
        "lng": "-7.5667",
        "country": "Mali"
    },
    {
        "name": "Chalhuanca",
        "lat": "-14.2950",
        "lng": "-73.2444",
        "country": "Peru"
    },
    {
        "name": "Umarg\u0101m",
        "lat": "20.2000",
        "lng": "72.7500",
        "country": "India"
    },
    {
        "name": "Gua\u00e7u\u00ed",
        "lat": "-20.7758",
        "lng": "-41.6789",
        "country": "Brazil"
    },
    {
        "name": "Kakuda",
        "lat": "37.9770",
        "lng": "140.7821",
        "country": "Japan"
    },
    {
        "name": "Zolotonosha",
        "lat": "49.6667",
        "lng": "32.0333",
        "country": "Ukraine"
    },
    {
        "name": "Hamtramck",
        "lat": "42.3954",
        "lng": "-83.0559",
        "country": "United States"
    },
    {
        "name": "B\u0101rughutu",
        "lat": "23.8038",
        "lng": "85.5555",
        "country": "India"
    },
    {
        "name": "Griesheim",
        "lat": "49.8639",
        "lng": "8.5639",
        "country": "Germany"
    },
    {
        "name": "Uchturpan",
        "lat": "41.2136",
        "lng": "79.2319",
        "country": "China"
    },
    {
        "name": "Muchun",
        "lat": "39.8833",
        "lng": "69.1833",
        "country": "Tajikistan"
    },
    {
        "name": "Sestao",
        "lat": "43.3108",
        "lng": "-3.0056",
        "country": "Spain"
    },
    {
        "name": "Sachse",
        "lat": "32.9726",
        "lng": "-96.5793",
        "country": "United States"
    },
    {
        "name": "Traipu",
        "lat": "-9.9708",
        "lng": "-37.0028",
        "country": "Brazil"
    },
    {
        "name": "W\u0101si",
        "lat": "18.5422",
        "lng": "75.7789",
        "country": "India"
    },
    {
        "name": "Mizumaki",
        "lat": "33.8556",
        "lng": "130.6917",
        "country": "Japan"
    },
    {
        "name": "Darlaston",
        "lat": "52.5708",
        "lng": "-2.0457",
        "country": "United Kingdom"
    },
    {
        "name": "Belmont",
        "lat": "37.5154",
        "lng": "-122.2953",
        "country": "United States"
    },
    {
        "name": "Nibria",
        "lat": "22.6100",
        "lng": "88.2500",
        "country": "India"
    },
    {
        "name": "Magdalena",
        "lat": "14.2000",
        "lng": "121.4300",
        "country": "Philippines"
    },
    {
        "name": "Motozintla",
        "lat": "15.3632",
        "lng": "-92.2477",
        "country": "Mexico"
    },
    {
        "name": "Vleuten",
        "lat": "52.1081",
        "lng": "5.0150",
        "country": "Netherlands"
    },
    {
        "name": "Lohne",
        "lat": "52.6667",
        "lng": "8.2386",
        "country": "Germany"
    },
    {
        "name": "Rockledge",
        "lat": "28.3203",
        "lng": "-80.7360",
        "country": "United States"
    },
    {
        "name": "M\u0101tt\u016bl",
        "lat": "11.9580",
        "lng": "75.2942",
        "country": "India"
    },
    {
        "name": "Tualatin",
        "lat": "45.3772",
        "lng": "-122.7748",
        "country": "United States"
    },
    {
        "name": "Wilmette",
        "lat": "42.0771",
        "lng": "-87.7282",
        "country": "United States"
    },
    {
        "name": "Vadnagar",
        "lat": "23.7850",
        "lng": "72.6400",
        "country": "India"
    },
    {
        "name": "Aci Catena",
        "lat": "37.6000",
        "lng": "15.1333",
        "country": "Italy"
    },
    {
        "name": "Tlalpujahua de Ray\u00f3n",
        "lat": "19.8050",
        "lng": "-100.1744",
        "country": "Mexico"
    },
    {
        "name": "Williston",
        "lat": "48.1814",
        "lng": "-103.6364",
        "country": "United States"
    },
    {
        "name": "Chato",
        "lat": "-2.6378",
        "lng": "31.7669",
        "country": "Tanzania"
    },
    {
        "name": "Ramsey",
        "lat": "45.2617",
        "lng": "-93.4494",
        "country": "United States"
    },
    {
        "name": "Desnogorsk",
        "lat": "54.1500",
        "lng": "33.2833",
        "country": "Russia"
    },
    {
        "name": "Vi\u00f1ales",
        "lat": "22.6153",
        "lng": "-83.7158",
        "country": "Cuba"
    },
    {
        "name": "Soledad de Doblado",
        "lat": "19.0500",
        "lng": "-96.4167",
        "country": "Mexico"
    },
    {
        "name": "Bongor",
        "lat": "10.2806",
        "lng": "15.3722",
        "country": "Chad"
    },
    {
        "name": "Bernards",
        "lat": "40.6761",
        "lng": "-74.5677",
        "country": "United States"
    },
    {
        "name": "Ivanjica",
        "lat": "43.5811",
        "lng": "20.2297",
        "country": "Serbia"
    },
    {
        "name": "Tenares",
        "lat": "19.3700",
        "lng": "-70.3500",
        "country": "Dominican Republic"
    },
    {
        "name": "Ashington",
        "lat": "55.1810",
        "lng": "-1.5680",
        "country": "United Kingdom"
    },
    {
        "name": "Chaska",
        "lat": "44.8164",
        "lng": "-93.6091",
        "country": "United States"
    },
    {
        "name": "Mongo",
        "lat": "12.1837",
        "lng": "18.7000",
        "country": "Chad"
    },
    {
        "name": "F\u016bman",
        "lat": "37.2242",
        "lng": "49.3125",
        "country": "Iran"
    },
    {
        "name": "Ramotswa",
        "lat": "-24.8667",
        "lng": "25.8167",
        "country": "Botswana"
    },
    {
        "name": "Charkh\u0101ri",
        "lat": "25.4000",
        "lng": "79.7500",
        "country": "India"
    },
    {
        "name": "Paivalike",
        "lat": "12.6875",
        "lng": "74.9833",
        "country": "India"
    },
    {
        "name": "Williamsport",
        "lat": "41.2399",
        "lng": "-77.0370",
        "country": "United States"
    },
    {
        "name": "Pirap\u00f2zinho",
        "lat": "-22.2753",
        "lng": "-51.5000",
        "country": "Brazil"
    },
    {
        "name": "Immokalee",
        "lat": "26.4253",
        "lng": "-81.4251",
        "country": "United States"
    },
    {
        "name": "Mon\u00e7\u00e3o",
        "lat": "-3.4919",
        "lng": "-45.2508",
        "country": "Brazil"
    },
    {
        "name": "Qibray",
        "lat": "41.3897",
        "lng": "69.4650",
        "country": "Uzbekistan"
    },
    {
        "name": "Itapissuma",
        "lat": "-7.7758",
        "lng": "-34.8919",
        "country": "Brazil"
    },
    {
        "name": "\u014cuda-yamaguchi",
        "lat": "34.5167",
        "lng": "135.9667",
        "country": "Japan"
    },
    {
        "name": "Kh\u0101tegaon",
        "lat": "22.5957",
        "lng": "76.9133",
        "country": "India"
    },
    {
        "name": "As Sarw",
        "lat": "31.2387",
        "lng": "31.6538",
        "country": "Egypt"
    },
    {
        "name": "Gabasumdo",
        "lat": "35.2481",
        "lng": "100.5903",
        "country": "China"
    },
    {
        "name": "Havran",
        "lat": "39.5583",
        "lng": "27.0983",
        "country": "Turkey"
    },
    {
        "name": "Hidrol\u00e2ndia",
        "lat": "-16.9658",
        "lng": "-49.2303",
        "country": "Brazil"
    },
    {
        "name": "Sundern",
        "lat": "51.3167",
        "lng": "8.0000",
        "country": "Germany"
    },
    {
        "name": "Lapuyan",
        "lat": "7.6325",
        "lng": "123.1914",
        "country": "Philippines"
    },
    {
        "name": "Ocean",
        "lat": "40.2520",
        "lng": "-74.0392",
        "country": "United States"
    },
    {
        "name": "Batken",
        "lat": "40.0667",
        "lng": "70.8167",
        "country": "Kyrgyzstan"
    },
    {
        "name": "Tahla",
        "lat": "34.0500",
        "lng": "-4.4200",
        "country": "Morocco"
    },
    {
        "name": "Palmar de Varela",
        "lat": "10.7500",
        "lng": "-74.7500",
        "country": "Colombia"
    },
    {
        "name": "Lebrija",
        "lat": "36.9194",
        "lng": "-6.0781",
        "country": "Spain"
    },
    {
        "name": "Jo\u00e3o Alfredo",
        "lat": "-7.8558",
        "lng": "-35.5878",
        "country": "Brazil"
    },
    {
        "name": "Itacar\u00e9",
        "lat": "-14.2781",
        "lng": "-38.9961",
        "country": "Brazil"
    },
    {
        "name": "Tudiyal\u016br",
        "lat": "11.0816",
        "lng": "76.9446",
        "country": "India"
    },
    {
        "name": "Parabiago",
        "lat": "45.5500",
        "lng": "8.9500",
        "country": "Italy"
    },
    {
        "name": "Mogliano Veneto",
        "lat": "45.5786",
        "lng": "12.2364",
        "country": "Italy"
    },
    {
        "name": "Dodge City",
        "lat": "37.7611",
        "lng": "-100.0182",
        "country": "United States"
    },
    {
        "name": "San Giovanni in Persiceto",
        "lat": "44.6333",
        "lng": "11.1833",
        "country": "Italy"
    },
    {
        "name": "Axim",
        "lat": "4.8667",
        "lng": "-2.2333",
        "country": "Ghana"
    },
    {
        "name": "North Kingstown",
        "lat": "41.5687",
        "lng": "-71.4629",
        "country": "United States"
    },
    {
        "name": "Koewarasan",
        "lat": "5.7697",
        "lng": "-55.2922",
        "country": "Suriname"
    },
    {
        "name": "Bor\u015fa",
        "lat": "47.6553",
        "lng": "24.6631",
        "country": "Romania"
    },
    {
        "name": "San Miniato",
        "lat": "43.6833",
        "lng": "10.8500",
        "country": "Italy"
    },
    {
        "name": "Shuiding",
        "lat": "44.0500",
        "lng": "80.8667",
        "country": "China"
    },
    {
        "name": "Bellaa",
        "lat": "30.0314",
        "lng": "-9.5542",
        "country": "Morocco"
    },
    {
        "name": "Wajimazakimachi",
        "lat": "37.3906",
        "lng": "136.8992",
        "country": "Japan"
    },
    {
        "name": "Teltow",
        "lat": "52.4022",
        "lng": "13.2706",
        "country": "Germany"
    },
    {
        "name": "Spinea",
        "lat": "45.5000",
        "lng": "12.1500",
        "country": "Italy"
    },
    {
        "name": "Santa Rosa de Lima",
        "lat": "13.6167",
        "lng": "-87.9000",
        "country": "El Salvador"
    },
    {
        "name": "Alatri",
        "lat": "41.7250",
        "lng": "13.3417",
        "country": "Italy"
    }
]