[
    {
        "name": "Mostardas",
        "lat": "-31.1000",
        "lng": "-50.9500",
        "country": "Brazil"
    },
    {
        "name": "North Tidworth",
        "lat": "51.2370",
        "lng": "-1.6640",
        "country": "United Kingdom"
    },
    {
        "name": "Narhat",
        "lat": "24.7774",
        "lng": "85.4237",
        "country": "India"
    },
    {
        "name": "Zlatograd",
        "lat": "41.3833",
        "lng": "25.1000",
        "country": "Bulgaria"
    },
    {
        "name": "Si Mustapha",
        "lat": "36.7247",
        "lng": "3.6153",
        "country": "Algeria"
    },
    {
        "name": "Albox",
        "lat": "37.3833",
        "lng": "-2.1333",
        "country": "Spain"
    },
    {
        "name": "Sedgley",
        "lat": "52.5400",
        "lng": "-2.1230",
        "country": "United Kingdom"
    },
    {
        "name": "Baozhong",
        "lat": "23.6956",
        "lng": "120.3117",
        "country": "Taiwan"
    },
    {
        "name": "Mmadinare",
        "lat": "-21.8746",
        "lng": "27.7496",
        "country": "Botswana"
    },
    {
        "name": "Glen Rock",
        "lat": "40.9601",
        "lng": "-74.1250",
        "country": "United States"
    },
    {
        "name": "Durmersheim",
        "lat": "48.9383",
        "lng": "8.2769",
        "country": "Germany"
    },
    {
        "name": "Portales",
        "lat": "34.1754",
        "lng": "-103.3565",
        "country": "United States"
    },
    {
        "name": "Lower Gwynedd",
        "lat": "40.1880",
        "lng": "-75.2373",
        "country": "United States"
    },
    {
        "name": "Ban Muang Ngam",
        "lat": "7.3536",
        "lng": "100.4898",
        "country": "Thailand"
    },
    {
        "name": "P\u0101pampeta",
        "lat": "14.6855",
        "lng": "77.5780",
        "country": "India"
    },
    {
        "name": "Ganapatip\u0101laiyam",
        "lat": "11.0309",
        "lng": "77.3367",
        "country": "India"
    },
    {
        "name": "Paal",
        "lat": "51.0392",
        "lng": "5.1728",
        "country": "Belgium"
    },
    {
        "name": "Ipaumirim",
        "lat": "-6.7833",
        "lng": "-38.7167",
        "country": "Brazil"
    },
    {
        "name": "Miesbach",
        "lat": "47.7833",
        "lng": "11.8333",
        "country": "Germany"
    },
    {
        "name": "Louvres",
        "lat": "49.0447",
        "lng": "2.5056",
        "country": "France"
    },
    {
        "name": "Mugalivakkam",
        "lat": "13.0205",
        "lng": "80.1653",
        "country": "India"
    },
    {
        "name": "Bird\u0101ban",
        "lat": "26.4012",
        "lng": "84.9934",
        "country": "India"
    },
    {
        "name": "Kodusseri",
        "lat": "10.3431",
        "lng": "76.3931",
        "country": "India"
    },
    {
        "name": "Dalby",
        "lat": "-27.1813",
        "lng": "151.2661",
        "country": "Australia"
    },
    {
        "name": "Mettlach",
        "lat": "49.4942",
        "lng": "6.6052",
        "country": "Germany"
    },
    {
        "name": "La Queue-en-Brie",
        "lat": "48.7900",
        "lng": "2.5775",
        "country": "France"
    },
    {
        "name": "Motta Sant\u2019Anastasia",
        "lat": "37.5000",
        "lng": "14.9667",
        "country": "Italy"
    },
    {
        "name": "Solli\u00e8s-Pont",
        "lat": "43.1911",
        "lng": "6.0417",
        "country": "France"
    },
    {
        "name": "R\u0101mpur Kudarkatti",
        "lat": "26.0672",
        "lng": "87.4795",
        "country": "India"
    },
    {
        "name": "Nih\u0101l Singhw\u0101la",
        "lat": "30.5919",
        "lng": "75.2804",
        "country": "India"
    },
    {
        "name": "Borgosesia",
        "lat": "45.7167",
        "lng": "8.2667",
        "country": "Italy"
    },
    {
        "name": "Hasbrouck Heights",
        "lat": "40.8618",
        "lng": "-74.0741",
        "country": "United States"
    },
    {
        "name": "Bridgnorth",
        "lat": "52.5350",
        "lng": "-2.4195",
        "country": "United Kingdom"
    },
    {
        "name": "Viswan\u0101thaperi",
        "lat": "9.3359",
        "lng": "77.4500",
        "country": "India"
    },
    {
        "name": "Bhagw\u0101npur Desua",
        "lat": "25.8124",
        "lng": "85.8382",
        "country": "India"
    },
    {
        "name": "Unebich\u014d",
        "lat": "34.4806",
        "lng": "135.7926",
        "country": "Japan"
    },
    {
        "name": "East Renton Highlands",
        "lat": "47.4718",
        "lng": "-122.0854",
        "country": "United States"
    },
    {
        "name": "Iwate",
        "lat": "39.9728",
        "lng": "141.2122",
        "country": "Japan"
    },
    {
        "name": "Uzyn",
        "lat": "49.8242",
        "lng": "30.4425",
        "country": "Ukraine"
    },
    {
        "name": "Piketberg",
        "lat": "-32.9000",
        "lng": "18.7667",
        "country": "South Africa"
    },
    {
        "name": "Ugento",
        "lat": "39.9272",
        "lng": "18.1614",
        "country": "Italy"
    },
    {
        "name": "F\u0103le\u015fti",
        "lat": "47.5722",
        "lng": "27.7139",
        "country": "Moldova"
    },
    {
        "name": "Pas\u0142\u0119k",
        "lat": "54.0500",
        "lng": "19.6667",
        "country": "Poland"
    },
    {
        "name": "Kalaidasht",
        "lat": "38.6333",
        "lng": "69.5000",
        "country": "Tajikistan"
    },
    {
        "name": "Nova Laranjeiras",
        "lat": "-25.3000",
        "lng": "-52.5333",
        "country": "Brazil"
    },
    {
        "name": "Kesabpur",
        "lat": "22.6196",
        "lng": "88.2075",
        "country": "India"
    },
    {
        "name": "Valley Falls",
        "lat": "41.9233",
        "lng": "-71.3924",
        "country": "United States"
    },
    {
        "name": "T\u00e1bua",
        "lat": "40.3603",
        "lng": "-8.0292",
        "country": "Portugal"
    },
    {
        "name": "Dhaula",
        "lat": "30.2856",
        "lng": "75.4602",
        "country": "India"
    },
    {
        "name": "Fenton",
        "lat": "52.9977",
        "lng": "-2.1578",
        "country": "United Kingdom"
    },
    {
        "name": "Liuba",
        "lat": "38.1634",
        "lng": "102.1493",
        "country": "China"
    },
    {
        "name": "Sinalunga",
        "lat": "43.2167",
        "lng": "11.7333",
        "country": "Italy"
    },
    {
        "name": "Woodward",
        "lat": "36.4247",
        "lng": "-99.4058",
        "country": "United States"
    },
    {
        "name": "Filandia",
        "lat": "4.6667",
        "lng": "-75.6333",
        "country": "Colombia"
    },
    {
        "name": "Le Chambon-Feugerolles",
        "lat": "45.3969",
        "lng": "4.3258",
        "country": "France"
    },
    {
        "name": "Al Majma\u2018ah",
        "lat": "25.9039",
        "lng": "45.3456",
        "country": "Saudi Arabia"
    },
    {
        "name": "Poranga",
        "lat": "-4.7450",
        "lng": "-40.9258",
        "country": "Brazil"
    },
    {
        "name": "Curit\u00ed",
        "lat": "6.6667",
        "lng": "-73.0000",
        "country": "Colombia"
    },
    {
        "name": "Ciudad-Rodrigo",
        "lat": "40.5969",
        "lng": "-6.5392",
        "country": "Spain"
    },
    {
        "name": "S\u00e3o Francisco do Maranh\u00e3o",
        "lat": "-6.2500",
        "lng": "-42.8667",
        "country": "Brazil"
    },
    {
        "name": "Oiba",
        "lat": "6.2667",
        "lng": "-73.3000",
        "country": "Colombia"
    },
    {
        "name": "Bishn\u0101h",
        "lat": "32.6106",
        "lng": "74.8556",
        "country": "India"
    },
    {
        "name": "Bharokhara",
        "lat": "25.8655",
        "lng": "85.6834",
        "country": "India"
    },
    {
        "name": "Pharkia",
        "lat": "25.9384",
        "lng": "87.4034",
        "country": "India"
    },
    {
        "name": "Ponte da Barca",
        "lat": "41.8000",
        "lng": "-8.4000",
        "country": "Portugal"
    },
    {
        "name": "H\u014ddatsushimizu",
        "lat": "36.8627",
        "lng": "136.7976",
        "country": "Japan"
    },
    {
        "name": "Mays Chapel",
        "lat": "39.4343",
        "lng": "-76.6516",
        "country": "United States"
    },
    {
        "name": "Arroio do Tigre",
        "lat": "-29.3328",
        "lng": "-53.0928",
        "country": "Brazil"
    },
    {
        "name": "Jacala",
        "lat": "21.0053",
        "lng": "-99.1719",
        "country": "Mexico"
    },
    {
        "name": "Destrehan",
        "lat": "29.9626",
        "lng": "-90.3676",
        "country": "United States"
    },
    {
        "name": "Gardnerville Ranchos",
        "lat": "38.8957",
        "lng": "-119.7492",
        "country": "United States"
    },
    {
        "name": "N\u0101ttarampalli",
        "lat": "12.5920",
        "lng": "78.5116",
        "country": "India"
    },
    {
        "name": "Tall Dhahab",
        "lat": "34.8581",
        "lng": "36.4517",
        "country": "Syria"
    },
    {
        "name": "Wolgast",
        "lat": "54.0500",
        "lng": "13.7667",
        "country": "Germany"
    },
    {
        "name": "V\u00f5ru",
        "lat": "57.8486",
        "lng": "26.9928",
        "country": "Estonia"
    },
    {
        "name": "Raismes",
        "lat": "50.3897",
        "lng": "3.4867",
        "country": "France"
    },
    {
        "name": "Walton-on-the-Naze",
        "lat": "51.8480",
        "lng": "1.2680",
        "country": "United Kingdom"
    },
    {
        "name": "Chalgeri",
        "lat": "14.5652",
        "lng": "75.7166",
        "country": "India"
    },
    {
        "name": "Eiras",
        "lat": "40.2350",
        "lng": "-8.4178",
        "country": "Portugal"
    },
    {
        "name": "Solofra",
        "lat": "40.8333",
        "lng": "14.8500",
        "country": "Italy"
    },
    {
        "name": "Nilo Pe\u00e7anha",
        "lat": "-13.5989",
        "lng": "-39.1069",
        "country": "Brazil"
    },
    {
        "name": "Bang\u0101w\u0101n",
        "lat": "26.0427",
        "lng": "87.4202",
        "country": "India"
    },
    {
        "name": "Ban Pae",
        "lat": "18.2108",
        "lng": "98.6164",
        "country": "Thailand"
    },
    {
        "name": "Erfelek",
        "lat": "41.8833",
        "lng": "34.9167",
        "country": "Turkey"
    },
    {
        "name": "Goner",
        "lat": "26.7795",
        "lng": "75.9123",
        "country": "India"
    },
    {
        "name": "Toropets",
        "lat": "56.5000",
        "lng": "31.6500",
        "country": "Russia"
    },
    {
        "name": "Novalukoml\u2019",
        "lat": "54.6569",
        "lng": "29.1500",
        "country": "Belarus"
    },
    {
        "name": "Bentley",
        "lat": "53.5510",
        "lng": "-1.1440",
        "country": "United Kingdom"
    },
    {
        "name": "Rosdorf",
        "lat": "51.5000",
        "lng": "9.9000",
        "country": "Germany"
    },
    {
        "name": "Snihurivka",
        "lat": "47.0736",
        "lng": "32.8000",
        "country": "Ukraine"
    },
    {
        "name": "Karagwe",
        "lat": "0.6769",
        "lng": "30.1967",
        "country": "Uganda"
    },
    {
        "name": "Gbanhi",
        "lat": "8.4497",
        "lng": "2.4737",
        "country": "Benin"
    },
    {
        "name": "Lajia",
        "lat": "34.6797",
        "lng": "100.6406",
        "country": "China"
    },
    {
        "name": "Honeygo",
        "lat": "39.4055",
        "lng": "-76.4282",
        "country": "United States"
    },
    {
        "name": "V\u0103lenii de Munte",
        "lat": "45.1856",
        "lng": "26.0397",
        "country": "Romania"
    },
    {
        "name": "Alavus",
        "lat": "62.5917",
        "lng": "23.6167",
        "country": "Finland"
    },
    {
        "name": "Berwick-Upon-Tweed",
        "lat": "55.7692",
        "lng": "-2.0025",
        "country": "United Kingdom"
    },
    {
        "name": "Sarmastpur",
        "lat": "25.9490",
        "lng": "85.5751",
        "country": "India"
    },
    {
        "name": "Vil\u0101ngurichchi",
        "lat": "11.0709",
        "lng": "77.0178",
        "country": "India"
    },
    {
        "name": "North Lebanon",
        "lat": "40.3668",
        "lng": "-76.4215",
        "country": "United States"
    }
]