[
    {
        "name": "Cagwait",
        "lat": "8.9181",
        "lng": "126.3017",
        "country": "Philippines"
    },
    {
        "name": "Sarai Ranjan",
        "lat": "25.7671",
        "lng": "85.7245",
        "country": "India"
    },
    {
        "name": "Chapa de Mota",
        "lat": "19.8144",
        "lng": "-99.5269",
        "country": "Mexico"
    },
    {
        "name": "Puerto Triunfo",
        "lat": "5.8667",
        "lng": "-74.6500",
        "country": "Colombia"
    },
    {
        "name": "Eislingen",
        "lat": "48.6933",
        "lng": "9.7067",
        "country": "Germany"
    },
    {
        "name": "Hockenheim",
        "lat": "49.3181",
        "lng": "8.5472",
        "country": "Germany"
    },
    {
        "name": "B\u0101napur",
        "lat": "19.7789",
        "lng": "85.1703",
        "country": "India"
    },
    {
        "name": "Zoersel",
        "lat": "51.2667",
        "lng": "4.7000",
        "country": "Belgium"
    },
    {
        "name": "Guipos",
        "lat": "7.7350",
        "lng": "123.3231",
        "country": "Philippines"
    },
    {
        "name": "Bad Harzburg",
        "lat": "51.8811",
        "lng": "10.5622",
        "country": "Germany"
    },
    {
        "name": "Chimor\u00e9",
        "lat": "-16.9833",
        "lng": "-65.1333",
        "country": "Bolivia"
    },
    {
        "name": "Anamalais",
        "lat": "10.5830",
        "lng": "76.9344",
        "country": "India"
    },
    {
        "name": "Shanywathit",
        "lat": "17.4244",
        "lng": "97.8878",
        "country": "Burma"
    },
    {
        "name": "Sori",
        "lat": "10.7281",
        "lng": "2.7825",
        "country": "Benin"
    },
    {
        "name": "Kurikka",
        "lat": "62.6167",
        "lng": "22.4000",
        "country": "Finland"
    },
    {
        "name": "Kalleribh\u0101gam",
        "lat": "9.0500",
        "lng": "76.5500",
        "country": "India"
    },
    {
        "name": "Massarosa",
        "lat": "43.8667",
        "lng": "10.3333",
        "country": "Italy"
    },
    {
        "name": "V\u0101manapuram",
        "lat": "8.7251",
        "lng": "76.9012",
        "country": "India"
    },
    {
        "name": "Miguel\u00f3polis",
        "lat": "-20.1794",
        "lng": "-48.0319",
        "country": "Brazil"
    },
    {
        "name": "Comalapa",
        "lat": "15.6500",
        "lng": "-92.1500",
        "country": "Mexico"
    },
    {
        "name": "Zabr\u00e9",
        "lat": "11.1833",
        "lng": "-0.6333",
        "country": "Burkina Faso"
    },
    {
        "name": "Mezdra",
        "lat": "43.1500",
        "lng": "23.7000",
        "country": "Bulgaria"
    },
    {
        "name": "Yaojiazhuangcun",
        "lat": "40.7158",
        "lng": "114.8733",
        "country": "China"
    },
    {
        "name": "Yaojiafen",
        "lat": "40.6669",
        "lng": "115.0586",
        "country": "China"
    },
    {
        "name": "Erval d\u2019Oeste",
        "lat": "-27.1939",
        "lng": "-51.4950",
        "country": "Brazil"
    },
    {
        "name": "Idukki",
        "lat": "9.8500",
        "lng": "76.9700",
        "country": "India"
    },
    {
        "name": "Tixtla de Guerrero",
        "lat": "17.5667",
        "lng": "-99.4000",
        "country": "Mexico"
    },
    {
        "name": "Vendram",
        "lat": "16.5620",
        "lng": "81.4696",
        "country": "India"
    },
    {
        "name": "Moular\u00e8s",
        "lat": "34.4833",
        "lng": "8.2667",
        "country": "Tunisia"
    },
    {
        "name": "W\u00e4denswil",
        "lat": "47.2333",
        "lng": "8.6667",
        "country": "Switzerland"
    },
    {
        "name": "Bankoumana",
        "lat": "12.2047",
        "lng": "-8.2667",
        "country": "Mali"
    },
    {
        "name": "Caransebe\u015f",
        "lat": "45.4214",
        "lng": "22.2219",
        "country": "Romania"
    },
    {
        "name": "Pachino",
        "lat": "36.7167",
        "lng": "15.1000",
        "country": "Italy"
    },
    {
        "name": "S\u00e3o Jo\u00e3o da Madeira",
        "lat": "40.8972",
        "lng": "-8.4889",
        "country": "Portugal"
    },
    {
        "name": "Alhandra",
        "lat": "-7.4333",
        "lng": "-34.9000",
        "country": "Brazil"
    },
    {
        "name": "Millau",
        "lat": "44.0986",
        "lng": "3.0783",
        "country": "France"
    },
    {
        "name": "Shelby",
        "lat": "35.2904",
        "lng": "-81.5451",
        "country": "United States"
    },
    {
        "name": "Guapia\u00e7u",
        "lat": "-20.7950",
        "lng": "-49.2203",
        "country": "Brazil"
    },
    {
        "name": "Port Alberni",
        "lat": "49.2339",
        "lng": "-124.8050",
        "country": "Canada"
    },
    {
        "name": "Kozakai-ch\u014d",
        "lat": "34.8000",
        "lng": "137.3667",
        "country": "Japan"
    },
    {
        "name": "Pampierstad",
        "lat": "-27.7760",
        "lng": "24.6900",
        "country": "South Africa"
    },
    {
        "name": "Tidili Masfiywat",
        "lat": "31.4667",
        "lng": "-7.6167",
        "country": "Morocco"
    },
    {
        "name": "Ch\u0101gallu",
        "lat": "16.9833",
        "lng": "81.6667",
        "country": "India"
    },
    {
        "name": "Sombrerete",
        "lat": "23.6333",
        "lng": "-103.6397",
        "country": "Mexico"
    },
    {
        "name": "Springwater",
        "lat": "44.4333",
        "lng": "-79.7333",
        "country": "Canada"
    },
    {
        "name": "Eyl",
        "lat": "7.9667",
        "lng": "49.8500",
        "country": "Somalia"
    },
    {
        "name": "Saint-Jean-de-Braye",
        "lat": "47.9128",
        "lng": "1.9719",
        "country": "France"
    },
    {
        "name": "Biggleswade",
        "lat": "52.0855",
        "lng": "-0.2557",
        "country": "United Kingdom"
    },
    {
        "name": "Yucca Valley",
        "lat": "34.1234",
        "lng": "-116.4216",
        "country": "United States"
    },
    {
        "name": "Chaumont",
        "lat": "48.1117",
        "lng": "5.1389",
        "country": "France"
    },
    {
        "name": "Millburn",
        "lat": "40.7394",
        "lng": "-74.3240",
        "country": "United States"
    },
    {
        "name": "Assar\u00e9",
        "lat": "-6.8667",
        "lng": "-39.8667",
        "country": "Brazil"
    },
    {
        "name": "M\u00fchldorf",
        "lat": "48.2456",
        "lng": "12.5228",
        "country": "Germany"
    },
    {
        "name": "Paramirim",
        "lat": "-13.4428",
        "lng": "-42.2389",
        "country": "Brazil"
    },
    {
        "name": "Kavak",
        "lat": "41.0736",
        "lng": "36.0403",
        "country": "Turkey"
    },
    {
        "name": "Q\u0101dirganj",
        "lat": "24.9138",
        "lng": "85.5926",
        "country": "India"
    },
    {
        "name": "Duarte",
        "lat": "34.1610",
        "lng": "-117.9504",
        "country": "United States"
    },
    {
        "name": "Geseke",
        "lat": "51.6500",
        "lng": "8.5167",
        "country": "Germany"
    },
    {
        "name": "Bad Krozingen",
        "lat": "47.9167",
        "lng": "7.7000",
        "country": "Germany"
    },
    {
        "name": "Kadiapattanam",
        "lat": "8.1312",
        "lng": "77.3067",
        "country": "India"
    },
    {
        "name": "Can-Avid",
        "lat": "12.0000",
        "lng": "125.4500",
        "country": "Philippines"
    },
    {
        "name": "Del City",
        "lat": "35.4483",
        "lng": "-97.4408",
        "country": "United States"
    },
    {
        "name": "P\u0101mpur",
        "lat": "34.0200",
        "lng": "74.9300",
        "country": "India"
    },
    {
        "name": "Al Karak",
        "lat": "31.1833",
        "lng": "35.7000",
        "country": "Jordan"
    },
    {
        "name": "Sirat",
        "lat": "35.7800",
        "lng": "0.1919",
        "country": "Algeria"
    },
    {
        "name": "Ocotl\u00e1n de Morelos",
        "lat": "16.7914",
        "lng": "-96.6750",
        "country": "Mexico"
    },
    {
        "name": "Tigbao",
        "lat": "7.8205",
        "lng": "123.2277",
        "country": "Philippines"
    },
    {
        "name": "San Luis Talpa",
        "lat": "13.4667",
        "lng": "-89.0833",
        "country": "El Salvador"
    },
    {
        "name": "Gallup",
        "lat": "35.5182",
        "lng": "-108.7431",
        "country": "United States"
    },
    {
        "name": "Kangal",
        "lat": "39.2367",
        "lng": "37.3886",
        "country": "Turkey"
    },
    {
        "name": "Kop\u0159ivnice",
        "lat": "49.5994",
        "lng": "18.1447",
        "country": "Czechia"
    },
    {
        "name": "American Canyon",
        "lat": "38.1796",
        "lng": "-122.2583",
        "country": "United States"
    },
    {
        "name": "Senda",
        "lat": "24.4017",
        "lng": "87.9875",
        "country": "India"
    },
    {
        "name": "Zanti\u00e9bougou",
        "lat": "11.4000",
        "lng": "-7.2500",
        "country": "Mali"
    },
    {
        "name": "Ibicara\u00ed",
        "lat": "-14.8500",
        "lng": "-39.6000",
        "country": "Brazil"
    },
    {
        "name": "Lindlar",
        "lat": "51.0167",
        "lng": "7.3833",
        "country": "Germany"
    },
    {
        "name": "Bailleston",
        "lat": "55.8474",
        "lng": "-4.1147",
        "country": "United Kingdom"
    },
    {
        "name": "Gros Islet",
        "lat": "14.0810",
        "lng": "-60.9530",
        "country": "Saint Lucia"
    },
    {
        "name": "Nangavaram",
        "lat": "10.8692",
        "lng": "78.5392",
        "country": "India"
    },
    {
        "name": "Kobilo",
        "lat": "15.9251",
        "lng": "-13.5242",
        "country": "Senegal"
    },
    {
        "name": "G\u00f6k\u00e7ebey",
        "lat": "41.3081",
        "lng": "32.1417",
        "country": "Turkey"
    },
    {
        "name": "Nefta",
        "lat": "33.8833",
        "lng": "7.8833",
        "country": "Tunisia"
    },
    {
        "name": "Himora",
        "lat": "14.2861",
        "lng": "36.6097",
        "country": "Ethiopia"
    },
    {
        "name": "P\u0101pan\u0101sam",
        "lat": "10.9273",
        "lng": "79.2708",
        "country": "India"
    },
    {
        "name": "Lohut\u00ed",
        "lat": "40.2500",
        "lng": "70.1333",
        "country": "Tajikistan"
    },
    {
        "name": "Jaipur Chuhar",
        "lat": "25.4187",
        "lng": "86.8352",
        "country": "India"
    },
    {
        "name": "An\u016bppur",
        "lat": "23.1034",
        "lng": "81.6908",
        "country": "India"
    },
    {
        "name": "K\u0101nke",
        "lat": "23.4348",
        "lng": "85.3206",
        "country": "India"
    },
    {
        "name": "Sarzana",
        "lat": "44.1167",
        "lng": "9.9667",
        "country": "Italy"
    },
    {
        "name": "Lentini",
        "lat": "37.2833",
        "lng": "15.0000",
        "country": "Italy"
    },
    {
        "name": "Ayamonte",
        "lat": "37.2000",
        "lng": "-7.4000",
        "country": "Spain"
    },
    {
        "name": "R\u0101ja P\u0101kar",
        "lat": "25.7350",
        "lng": "85.3376",
        "country": "India"
    },
    {
        "name": "Tiruvankod",
        "lat": "8.2452",
        "lng": "77.3010",
        "country": "India"
    },
    {
        "name": "\u014ckuchi-shinohara",
        "lat": "32.0500",
        "lng": "130.6167",
        "country": "Japan"
    },
    {
        "name": "Riach\u00e3o das Neves",
        "lat": "-11.7458",
        "lng": "-44.9100",
        "country": "Brazil"
    },
    {
        "name": "Kumla",
        "lat": "59.1167",
        "lng": "15.1333",
        "country": "Sweden"
    },
    {
        "name": "Howick",
        "lat": "-29.4667",
        "lng": "30.2333",
        "country": "South Africa"
    },
    {
        "name": "Iisalmi",
        "lat": "63.5567",
        "lng": "27.1883",
        "country": "Finland"
    },
    {
        "name": "Tlaltenango de S\u00e1nchez Rom\u00e1n",
        "lat": "21.7815",
        "lng": "-103.3059",
        "country": "Mexico"
    },
    {
        "name": "S\u00e3o Miguel do Guapor\u00e9",
        "lat": "-11.6936",
        "lng": "-62.7114",
        "country": "Brazil"
    }
]