[
    {
        "name": "Ollioules",
        "lat": "43.1330",
        "lng": "5.8500",
        "country": "France"
    },
    {
        "name": "Ilampillai",
        "lat": "11.6066",
        "lng": "78.0068",
        "country": "India"
    },
    {
        "name": "Hawaiian Gardens",
        "lat": "33.8304",
        "lng": "-118.0728",
        "country": "United States"
    },
    {
        "name": "Haivoron",
        "lat": "48.3333",
        "lng": "29.8667",
        "country": "Ukraine"
    },
    {
        "name": "Ke\u0101l",
        "lat": "25.1218",
        "lng": "84.6324",
        "country": "India"
    },
    {
        "name": "Hokuei",
        "lat": "35.4833",
        "lng": "133.7667",
        "country": "Japan"
    },
    {
        "name": "Turuttiyad",
        "lat": "11.5167",
        "lng": "75.6500",
        "country": "India"
    },
    {
        "name": "Selmana",
        "lat": "34.1833",
        "lng": "3.6000",
        "country": "Algeria"
    },
    {
        "name": "R\u0101n\u0101pur",
        "lat": "22.6470",
        "lng": "74.5212",
        "country": "India"
    },
    {
        "name": "Riposto",
        "lat": "37.7333",
        "lng": "15.2000",
        "country": "Italy"
    },
    {
        "name": "Solhan",
        "lat": "38.9681",
        "lng": "41.0536",
        "country": "Turkey"
    },
    {
        "name": "Marlow",
        "lat": "51.5700",
        "lng": "-0.7800",
        "country": "United Kingdom"
    },
    {
        "name": "Alewah",
        "lat": "29.4767",
        "lng": "76.4522",
        "country": "India"
    },
    {
        "name": "Fujikawa",
        "lat": "35.5611",
        "lng": "138.4614",
        "country": "Japan"
    },
    {
        "name": "Martinho Campos",
        "lat": "-19.3319",
        "lng": "-45.2369",
        "country": "Brazil"
    },
    {
        "name": "R\u0101j\u0101s\u016br",
        "lat": "17.8600",
        "lng": "76.9500",
        "country": "India"
    },
    {
        "name": "Busto Garolfo",
        "lat": "45.5478",
        "lng": "8.8867",
        "country": "Italy"
    },
    {
        "name": "Beraketa",
        "lat": "-24.1833",
        "lng": "45.6833",
        "country": "Madagascar"
    },
    {
        "name": "Ambahita",
        "lat": "-24.0000",
        "lng": "45.2667",
        "country": "Madagascar"
    },
    {
        "name": "Marotsiraka",
        "lat": "-24.2833",
        "lng": "45.9833",
        "country": "Madagascar"
    },
    {
        "name": "Mahajamba",
        "lat": "-15.7000",
        "lng": "47.1000",
        "country": "Madagascar"
    },
    {
        "name": "Ambatomarina",
        "lat": "-20.5833",
        "lng": "47.0167",
        "country": "Madagascar"
    },
    {
        "name": "Antanambaobe",
        "lat": "-16.2500",
        "lng": "49.6667",
        "country": "Madagascar"
    },
    {
        "name": "Kalandy",
        "lat": "-15.7500",
        "lng": "48.7333",
        "country": "Madagascar"
    },
    {
        "name": "Bekipay",
        "lat": "-16.2500",
        "lng": "46.1333",
        "country": "Madagascar"
    },
    {
        "name": "Marokarima",
        "lat": "-21.2167",
        "lng": "48.1333",
        "country": "Madagascar"
    },
    {
        "name": "Mahatsinjony",
        "lat": "-21.4167",
        "lng": "47.2000",
        "country": "Madagascar"
    },
    {
        "name": "Vanono",
        "lat": "-16.0333",
        "lng": "49.4500",
        "country": "Madagascar"
    },
    {
        "name": "Talata-Vohimena",
        "lat": "-20.8500",
        "lng": "46.9667",
        "country": "Madagascar"
    },
    {
        "name": "Vatolatsaka",
        "lat": "-23.3000",
        "lng": "44.3000",
        "country": "Madagascar"
    },
    {
        "name": "Belambo",
        "lat": "-19.4000",
        "lng": "47.5167",
        "country": "Madagascar"
    },
    {
        "name": "Beharona",
        "lat": "-21.5167",
        "lng": "44.3000",
        "country": "Madagascar"
    },
    {
        "name": "Ambohimitombo",
        "lat": "-20.7167",
        "lng": "47.4333",
        "country": "Madagascar"
    },
    {
        "name": "Tsarahasina",
        "lat": "-15.7667",
        "lng": "47.5833",
        "country": "Madagascar"
    },
    {
        "name": "Bevato",
        "lat": "-18.6833",
        "lng": "46.2500",
        "country": "Madagascar"
    },
    {
        "name": "Ankiliabo",
        "lat": "-21.7000",
        "lng": "43.9000",
        "country": "Madagascar"
    },
    {
        "name": "Amborondra",
        "lat": "-21.9167",
        "lng": "47.7667",
        "country": "Madagascar"
    },
    {
        "name": "Bealanana",
        "lat": "-14.5500",
        "lng": "48.7333",
        "country": "Madagascar"
    },
    {
        "name": "Sahalanona",
        "lat": "-22.0500",
        "lng": "47.6167",
        "country": "Madagascar"
    },
    {
        "name": "Ambodihara",
        "lat": "-14.7500",
        "lng": "48.9833",
        "country": "Madagascar"
    },
    {
        "name": "Ilha de Mo\u00e7ambique",
        "lat": "-15.0367",
        "lng": "40.7328",
        "country": "Mozambique"
    },
    {
        "name": "O\u2018nhayot",
        "lat": "41.0103",
        "lng": "71.7614",
        "country": "Uzbekistan"
    },
    {
        "name": "Shofirkon Shahri",
        "lat": "40.1167",
        "lng": "64.5000",
        "country": "Uzbekistan"
    },
    {
        "name": "Rafa\u00ef",
        "lat": "4.9731",
        "lng": "23.9319",
        "country": "Central African Republic"
    },
    {
        "name": "Takerbouzt",
        "lat": "36.4180",
        "lng": "4.3428",
        "country": "Algeria"
    },
    {
        "name": "Thouars",
        "lat": "46.9758",
        "lng": "-0.2142",
        "country": "France"
    },
    {
        "name": "Brahm\u0101nandapuram",
        "lat": "16.9583",
        "lng": "82.0056",
        "country": "India"
    },
    {
        "name": "Tall Ban\u0101t",
        "lat": "36.2550",
        "lng": "42.0164",
        "country": "Iraq"
    },
    {
        "name": "Milh\u00e3",
        "lat": "-5.6750",
        "lng": "-39.1939",
        "country": "Brazil"
    },
    {
        "name": "Meilen",
        "lat": "47.2667",
        "lng": "8.6333",
        "country": "Switzerland"
    },
    {
        "name": "Montfoort",
        "lat": "52.0500",
        "lng": "4.9500",
        "country": "Netherlands"
    },
    {
        "name": "Persan",
        "lat": "49.1542",
        "lng": "2.2719",
        "country": "France"
    },
    {
        "name": "Kamituga",
        "lat": "-3.0600",
        "lng": "28.1800",
        "country": "Congo (Kinshasa)"
    },
    {
        "name": "Beach Park",
        "lat": "42.4260",
        "lng": "-87.8583",
        "country": "United States"
    },
    {
        "name": "Schneeberg",
        "lat": "50.5942",
        "lng": "12.6456",
        "country": "Germany"
    },
    {
        "name": "Ann\u0101ram",
        "lat": "16.7840",
        "lng": "79.3020",
        "country": "India"
    },
    {
        "name": "\u015ea\u1e29n\u0101y\u0101",
        "lat": "33.4242",
        "lng": "36.2244",
        "country": "Syria"
    },
    {
        "name": "Crist\u00f3polis",
        "lat": "-12.2339",
        "lng": "-44.4208",
        "country": "Brazil"
    },
    {
        "name": "Lone Tree",
        "lat": "39.5309",
        "lng": "-104.8709",
        "country": "United States"
    },
    {
        "name": "Tulle",
        "lat": "45.2673",
        "lng": "1.7655",
        "country": "France"
    },
    {
        "name": "Novoulyanovsk",
        "lat": "54.1667",
        "lng": "48.3833",
        "country": "Russia"
    },
    {
        "name": "Coribe",
        "lat": "-13.8333",
        "lng": "-44.4667",
        "country": "Brazil"
    },
    {
        "name": "Koundara",
        "lat": "12.4800",
        "lng": "-13.2960",
        "country": "Guinea"
    },
    {
        "name": "Bandraboua",
        "lat": "-12.7254",
        "lng": "45.1072",
        "country": "Mayotte"
    },
    {
        "name": "Lorsch",
        "lat": "49.6539",
        "lng": "8.5675",
        "country": "Germany"
    },
    {
        "name": "Dubovka",
        "lat": "49.0500",
        "lng": "44.8333",
        "country": "Russia"
    },
    {
        "name": "Pathum Thani",
        "lat": "14.0500",
        "lng": "100.4833",
        "country": "Thailand"
    },
    {
        "name": "Taiyong",
        "lat": "26.4726",
        "lng": "108.5105",
        "country": "China"
    },
    {
        "name": "Sh\u0101nd\u012bz",
        "lat": "36.3961",
        "lng": "59.3092",
        "country": "Iran"
    },
    {
        "name": "Matane",
        "lat": "48.8500",
        "lng": "-67.5333",
        "country": "Canada"
    },
    {
        "name": "Donji Vakuf",
        "lat": "44.1500",
        "lng": "17.4000",
        "country": "Bosnia and Herzegovina"
    },
    {
        "name": "S\u00e3o Jo\u00e3o d\u2019Alian\u00e7a",
        "lat": "-14.7114",
        "lng": "-47.5161",
        "country": "Brazil"
    },
    {
        "name": "Kongarapalli",
        "lat": "10.0448",
        "lng": "76.3552",
        "country": "India"
    },
    {
        "name": "Ambohimiera",
        "lat": "-21.0500",
        "lng": "47.5000",
        "country": "Madagascar"
    },
    {
        "name": "Chumpak",
        "lat": "41.8585",
        "lng": "84.1370",
        "country": "China"
    },
    {
        "name": "Bebra",
        "lat": "50.9711",
        "lng": "9.7903",
        "country": "Germany"
    },
    {
        "name": "Fleury-M\u00e9rogis",
        "lat": "48.6300",
        "lng": "2.3620",
        "country": "France"
    },
    {
        "name": "East Norriton",
        "lat": "40.1506",
        "lng": "-75.3364",
        "country": "United States"
    },
    {
        "name": "Kuraymah",
        "lat": "18.5500",
        "lng": "31.8500",
        "country": "Sudan"
    },
    {
        "name": "Ganguv\u0101rpatti",
        "lat": "10.1694",
        "lng": "77.6973",
        "country": "India"
    },
    {
        "name": "Beiwusidui",
        "lat": "40.0692",
        "lng": "116.8228",
        "country": "China"
    },
    {
        "name": "Thames Centre",
        "lat": "43.0300",
        "lng": "-81.0800",
        "country": "Canada"
    },
    {
        "name": "Felixl\u00e2ndia",
        "lat": "-18.7580",
        "lng": "-44.8990",
        "country": "Brazil"
    },
    {
        "name": "Mirinzal",
        "lat": "-2.0167",
        "lng": "-44.7167",
        "country": "Brazil"
    },
    {
        "name": "Oud-Turnhout",
        "lat": "51.3167",
        "lng": "4.9833",
        "country": "Belgium"
    },
    {
        "name": "Jardim de Piranhas",
        "lat": "-6.3667",
        "lng": "-37.3333",
        "country": "Brazil"
    },
    {
        "name": "Erbach",
        "lat": "49.6583",
        "lng": "8.9958",
        "country": "Germany"
    },
    {
        "name": "Sutih\u0101r",
        "lat": "25.8482",
        "lng": "84.9712",
        "country": "India"
    },
    {
        "name": "Boha",
        "lat": "29.8348",
        "lng": "75.5237",
        "country": "India"
    },
    {
        "name": "Santa Branca",
        "lat": "-23.3967",
        "lng": "-45.8839",
        "country": "Brazil"
    },
    {
        "name": "Kambila",
        "lat": "12.7967",
        "lng": "-8.1033",
        "country": "Mali"
    },
    {
        "name": "Mankal",
        "lat": "17.2014",
        "lng": "78.4678",
        "country": "India"
    },
    {
        "name": "East Milton",
        "lat": "30.6175",
        "lng": "-86.9636",
        "country": "United States"
    },
    {
        "name": "S\u00f6\u011f\u00fctl\u00fc",
        "lat": "40.9000",
        "lng": "30.4833",
        "country": "Turkey"
    },
    {
        "name": "Raydah",
        "lat": "15.8233",
        "lng": "44.0386",
        "country": "Yemen"
    },
    {
        "name": "McFarland",
        "lat": "35.6781",
        "lng": "-119.2413",
        "country": "United States"
    },
    {
        "name": "Beasain",
        "lat": "43.0458",
        "lng": "-2.1894",
        "country": "Spain"
    },
    {
        "name": "Ovidiu",
        "lat": "44.2700",
        "lng": "28.5600",
        "country": "Romania"
    },
    {
        "name": "Mero\u0161ina",
        "lat": "43.2833",
        "lng": "21.7167",
        "country": "Serbia"
    },
    {
        "name": "Thala",
        "lat": "35.5667",
        "lng": "8.6667",
        "country": "Tunisia"
    }
]