[
    {
        "name": "Zarzal",
        "lat": "4.3983",
        "lng": "-76.0772",
        "country": "Colombia"
    },
    {
        "name": "Oro Valley",
        "lat": "32.4208",
        "lng": "-110.9767",
        "country": "United States"
    },
    {
        "name": "Cha\u00efd\u00e1ri",
        "lat": "38.0167",
        "lng": "23.6500",
        "country": "Greece"
    },
    {
        "name": "Dracena",
        "lat": "-21.4828",
        "lng": "-51.5328",
        "country": "Brazil"
    },
    {
        "name": "Hagaribommanahalli",
        "lat": "15.0400",
        "lng": "76.2000",
        "country": "India"
    },
    {
        "name": "H\u00e0 Ti\u00ean",
        "lat": "10.3833",
        "lng": "104.4833",
        "country": "Vietnam"
    },
    {
        "name": "Pallip\u0101laiyam",
        "lat": "11.3679",
        "lng": "77.7435",
        "country": "India"
    },
    {
        "name": "Calimaya",
        "lat": "19.1608",
        "lng": "-99.6172",
        "country": "Mexico"
    },
    {
        "name": "Corato",
        "lat": "41.1500",
        "lng": "16.4000",
        "country": "Italy"
    },
    {
        "name": "East Providence",
        "lat": "41.8065",
        "lng": "-71.3565",
        "country": "United States"
    },
    {
        "name": "Saranambana",
        "lat": "-17.2500",
        "lng": "49.1833",
        "country": "Madagascar"
    },
    {
        "name": "Dahutang",
        "lat": "28.0694",
        "lng": "112.5442",
        "country": "China"
    },
    {
        "name": "Al Balyan\u0101",
        "lat": "26.2333",
        "lng": "32.0000",
        "country": "Egypt"
    },
    {
        "name": "Banisilan",
        "lat": "7.5000",
        "lng": "124.7000",
        "country": "Philippines"
    },
    {
        "name": "Haeryong",
        "lat": "34.9131",
        "lng": "127.5394",
        "country": "Korea, South"
    },
    {
        "name": "Casalnuovo di Napoli",
        "lat": "40.9167",
        "lng": "14.3500",
        "country": "Italy"
    },
    {
        "name": "Liulin",
        "lat": "36.5478",
        "lng": "109.4725",
        "country": "China"
    },
    {
        "name": "Viti",
        "lat": "42.3167",
        "lng": "21.3500",
        "country": "Kosovo"
    },
    {
        "name": "Jitaicun",
        "lat": "36.3533",
        "lng": "115.3048",
        "country": "China"
    },
    {
        "name": "Cuilapa",
        "lat": "14.2833",
        "lng": "-90.3000",
        "country": "Guatemala"
    },
    {
        "name": "San Benedetto del Tronto",
        "lat": "42.9500",
        "lng": "13.8833",
        "country": "Italy"
    },
    {
        "name": "Nandikotk\u016br",
        "lat": "15.8670",
        "lng": "78.2670",
        "country": "India"
    },
    {
        "name": "Herzogenrath",
        "lat": "50.8667",
        "lng": "6.1000",
        "country": "Germany"
    },
    {
        "name": "Chomutov",
        "lat": "50.4611",
        "lng": "13.4167",
        "country": "Czechia"
    },
    {
        "name": "Tomioka",
        "lat": "36.2599",
        "lng": "138.8899",
        "country": "Japan"
    },
    {
        "name": "Esplugas de Llobregat",
        "lat": "41.3767",
        "lng": "2.0858",
        "country": "Spain"
    },
    {
        "name": "Selu",
        "lat": "19.4551",
        "lng": "76.4372",
        "country": "India"
    },
    {
        "name": "Stretford",
        "lat": "53.4466",
        "lng": "-2.3086",
        "country": "United Kingdom"
    },
    {
        "name": "Vyshniy Voloch\u00ebk",
        "lat": "57.5833",
        "lng": "34.5667",
        "country": "Russia"
    },
    {
        "name": "Ma\u0163\u0101y",
        "lat": "28.4167",
        "lng": "30.7500",
        "country": "Egypt"
    },
    {
        "name": "M\u0113la G\u016bdal\u016br",
        "lat": "9.6806",
        "lng": "77.2462",
        "country": "India"
    },
    {
        "name": "Martina Franca",
        "lat": "40.6333",
        "lng": "17.0333",
        "country": "Italy"
    },
    {
        "name": "Boujad",
        "lat": "32.7667",
        "lng": "-6.4000",
        "country": "Morocco"
    },
    {
        "name": "Campo Maior",
        "lat": "-4.8333",
        "lng": "-42.1736",
        "country": "Brazil"
    },
    {
        "name": "Borgne",
        "lat": "19.8500",
        "lng": "-72.5333",
        "country": "Haiti"
    },
    {
        "name": "Kabasalan",
        "lat": "7.7968",
        "lng": "122.7627",
        "country": "Philippines"
    },
    {
        "name": "Neunkirchen",
        "lat": "49.3500",
        "lng": "7.1667",
        "country": "Germany"
    },
    {
        "name": "Po\u00e7\u00f5es",
        "lat": "-14.5167",
        "lng": "-40.3500",
        "country": "Brazil"
    },
    {
        "name": "Lecco",
        "lat": "45.8500",
        "lng": "9.4000",
        "country": "Italy"
    },
    {
        "name": "Banbury",
        "lat": "52.0610",
        "lng": "-1.3360",
        "country": "United Kingdom"
    },
    {
        "name": "Beckenham",
        "lat": "51.4080",
        "lng": "-0.0220",
        "country": "United Kingdom"
    },
    {
        "name": "Noboribetsu",
        "lat": "42.4167",
        "lng": "141.1000",
        "country": "Japan"
    },
    {
        "name": "Blois",
        "lat": "47.5939",
        "lng": "1.3281",
        "country": "France"
    },
    {
        "name": "Pearl City",
        "lat": "21.4031",
        "lng": "-157.9566",
        "country": "United States"
    },
    {
        "name": "Jo\u00e3o Pinheiro",
        "lat": "-17.7442",
        "lng": "-46.1739",
        "country": "Brazil"
    },
    {
        "name": "L\u00f8renskog",
        "lat": "59.8989",
        "lng": "10.9642",
        "country": "Norway"
    },
    {
        "name": "Nanzhuangzhen",
        "lat": "23.7210",
        "lng": "102.8231",
        "country": "China"
    },
    {
        "name": "Greenford",
        "lat": "51.5299",
        "lng": "-0.3488",
        "country": "United Kingdom"
    },
    {
        "name": "Lohja",
        "lat": "60.2500",
        "lng": "24.0667",
        "country": "Finland"
    },
    {
        "name": "Isabel",
        "lat": "10.9300",
        "lng": "124.4300",
        "country": "Philippines"
    },
    {
        "name": "Ayr",
        "lat": "55.4580",
        "lng": "-4.6290",
        "country": "United Kingdom"
    },
    {
        "name": "Teotihuacan",
        "lat": "19.6897",
        "lng": "-98.8608",
        "country": "Mexico"
    },
    {
        "name": "San Jacinto de Buena Fe",
        "lat": "-0.8986",
        "lng": "-79.4889",
        "country": "Ecuador"
    },
    {
        "name": "Santa Ana Chiautempan",
        "lat": "19.3167",
        "lng": "-98.1833",
        "country": "Mexico"
    },
    {
        "name": "Al Qu\u015fayr",
        "lat": "34.5119",
        "lng": "36.5764",
        "country": "Syria"
    },
    {
        "name": "Araioses",
        "lat": "-2.8900",
        "lng": "-41.9028",
        "country": "Brazil"
    },
    {
        "name": "Kotelniki",
        "lat": "55.6617",
        "lng": "37.8672",
        "country": "Russia"
    },
    {
        "name": "Wokingham",
        "lat": "51.4100",
        "lng": "-0.8400",
        "country": "United Kingdom"
    },
    {
        "name": "Hyvink\u00e4\u00e4",
        "lat": "60.6333",
        "lng": "24.8500",
        "country": "Finland"
    },
    {
        "name": "Rovenky",
        "lat": "48.0711",
        "lng": "39.3428",
        "country": "Ukraine"
    },
    {
        "name": "Salina",
        "lat": "38.8136",
        "lng": "-97.6143",
        "country": "United States"
    },
    {
        "name": "Lukavac",
        "lat": "44.5500",
        "lng": "18.5167",
        "country": "Bosnia and Herzegovina"
    },
    {
        "name": "Jes\u00fas Men\u00e9ndez",
        "lat": "21.1633",
        "lng": "-76.4775",
        "country": "Cuba"
    },
    {
        "name": "Sanuki",
        "lat": "34.3200",
        "lng": "134.1794",
        "country": "Japan"
    },
    {
        "name": "La Jagua de Ibirico",
        "lat": "9.5667",
        "lng": "-73.3333",
        "country": "Colombia"
    },
    {
        "name": "South Brunswick",
        "lat": "40.3840",
        "lng": "-74.5256",
        "country": "United States"
    },
    {
        "name": "Taebaek",
        "lat": "37.1667",
        "lng": "128.9833",
        "country": "Korea, South"
    },
    {
        "name": "Stepnogorsk",
        "lat": "52.3497",
        "lng": "71.8900",
        "country": "Kazakhstan"
    },
    {
        "name": "Guaramirim",
        "lat": "-26.4500",
        "lng": "-49.0000",
        "country": "Brazil"
    },
    {
        "name": "Cologno Monzese",
        "lat": "45.5286",
        "lng": "9.2783",
        "country": "Italy"
    },
    {
        "name": "Woodstock",
        "lat": "43.1306",
        "lng": "-80.7467",
        "country": "Canada"
    },
    {
        "name": "Punal\u016br",
        "lat": "9.0170",
        "lng": "76.9260",
        "country": "India"
    },
    {
        "name": "Kampli",
        "lat": "15.4063",
        "lng": "76.6001",
        "country": "India"
    },
    {
        "name": "Bizerte",
        "lat": "37.2778",
        "lng": "9.8639",
        "country": "Tunisia"
    },
    {
        "name": "Yashan",
        "lat": "22.4776",
        "lng": "112.7289",
        "country": "China"
    },
    {
        "name": "Ramat HaSharon",
        "lat": "32.1500",
        "lng": "34.8333",
        "country": "Israel"
    },
    {
        "name": "La Caleta",
        "lat": "18.4639",
        "lng": "-69.6806",
        "country": "Dominican Republic"
    },
    {
        "name": "Kuilsrivier",
        "lat": "-33.9414",
        "lng": "18.7066",
        "country": "South Africa"
    },
    {
        "name": "Norala",
        "lat": "6.5500",
        "lng": "124.6700",
        "country": "Philippines"
    },
    {
        "name": "Nellikkuppam",
        "lat": "11.7667",
        "lng": "79.6833",
        "country": "India"
    },
    {
        "name": "Daxiang",
        "lat": "22.3775",
        "lng": "112.8008",
        "country": "China"
    },
    {
        "name": "Ridderkerk",
        "lat": "51.8667",
        "lng": "4.6000",
        "country": "Netherlands"
    },
    {
        "name": "Hioki",
        "lat": "31.6117",
        "lng": "130.3731",
        "country": "Japan"
    },
    {
        "name": "Dongnanyanfa",
        "lat": "39.6300",
        "lng": "116.4083",
        "country": "China"
    },
    {
        "name": "Padra",
        "lat": "22.2300",
        "lng": "73.0800",
        "country": "India"
    },
    {
        "name": "Fujiyoshida",
        "lat": "35.4875",
        "lng": "138.8077",
        "country": "Japan"
    },
    {
        "name": "Schwerte",
        "lat": "51.4458",
        "lng": "7.5653",
        "country": "Germany"
    },
    {
        "name": "Hof",
        "lat": "50.3167",
        "lng": "11.9167",
        "country": "Germany"
    },
    {
        "name": "Muara Teweh",
        "lat": "-0.9535",
        "lng": "114.8981",
        "country": "Indonesia"
    },
    {
        "name": "Yalva\u00e7",
        "lat": "38.2956",
        "lng": "31.1800",
        "country": "Turkey"
    },
    {
        "name": "Wangtan",
        "lat": "39.2847",
        "lng": "118.9800",
        "country": "China"
    },
    {
        "name": "Libertador General San Mart\u00edn",
        "lat": "-23.8000",
        "lng": "-64.7833",
        "country": "Argentina"
    },
    {
        "name": "Puerto Villarroel",
        "lat": "-16.8667",
        "lng": "-64.7831",
        "country": "Bolivia"
    },
    {
        "name": "Suluova",
        "lat": "40.8333",
        "lng": "35.6500",
        "country": "Turkey"
    },
    {
        "name": "Brive-la-Gaillarde",
        "lat": "45.1583",
        "lng": "1.5321",
        "country": "France"
    },
    {
        "name": "Zarinsk",
        "lat": "53.7089",
        "lng": "84.9672",
        "country": "Russia"
    },
    {
        "name": "Bruchsal",
        "lat": "49.1333",
        "lng": "8.6000",
        "country": "Germany"
    },
    {
        "name": "Langford Station",
        "lat": "48.4506",
        "lng": "-123.5058",
        "country": "Canada"
    },
    {
        "name": "Beavercreek",
        "lat": "39.7310",
        "lng": "-84.0624",
        "country": "United States"
    },
    {
        "name": "Obra",
        "lat": "24.4200",
        "lng": "82.9800",
        "country": "India"
    }
]