[
    {
        "name": "Miho",
        "lat": "36.0045",
        "lng": "140.3019",
        "country": "Japan"
    },
    {
        "name": "L\u00f6bau",
        "lat": "51.0944",
        "lng": "14.6667",
        "country": "Germany"
    },
    {
        "name": "Thondiamannu",
        "lat": "9.2639",
        "lng": "76.8833",
        "country": "India"
    },
    {
        "name": "Sim\u00f5es",
        "lat": "-7.5989",
        "lng": "-40.8178",
        "country": "Brazil"
    },
    {
        "name": "Tornesch",
        "lat": "53.7000",
        "lng": "9.7167",
        "country": "Germany"
    },
    {
        "name": "Rehlingen-Siersburg",
        "lat": "49.3686",
        "lng": "6.6786",
        "country": "Germany"
    },
    {
        "name": "Breyten",
        "lat": "-26.3000",
        "lng": "29.9833",
        "country": "South Africa"
    },
    {
        "name": "Zaouiat Moulay Bouchta El Khammar",
        "lat": "34.4833",
        "lng": "-5.1167",
        "country": "Morocco"
    },
    {
        "name": "Ihaddadene",
        "lat": "31.2000",
        "lng": "-9.6500",
        "country": "Morocco"
    },
    {
        "name": "Niederzier",
        "lat": "50.8831",
        "lng": "6.4667",
        "country": "Germany"
    },
    {
        "name": "Baulia",
        "lat": "25.3990",
        "lng": "87.6002",
        "country": "India"
    },
    {
        "name": "Bihpuri\u0101gaon",
        "lat": "27.0172",
        "lng": "93.9167",
        "country": "India"
    },
    {
        "name": "Bradley Gardens",
        "lat": "40.5711",
        "lng": "-74.6678",
        "country": "United States"
    },
    {
        "name": "Zhutang",
        "lat": "23.8528",
        "lng": "120.4114",
        "country": "Taiwan"
    },
    {
        "name": "Jiaoxiyakou",
        "lat": "26.1274",
        "lng": "102.4502",
        "country": "China"
    },
    {
        "name": "Balangiga",
        "lat": "11.1092",
        "lng": "125.3867",
        "country": "Philippines"
    },
    {
        "name": "Tianguistengo",
        "lat": "20.7278",
        "lng": "-98.6289",
        "country": "Mexico"
    },
    {
        "name": "Medvezhyegorsk",
        "lat": "62.9000",
        "lng": "34.4667",
        "country": "Russia"
    },
    {
        "name": "Narhan",
        "lat": "25.6941",
        "lng": "86.0074",
        "country": "India"
    },
    {
        "name": "Bh\u0101nukum\u0101ri",
        "lat": "26.3395",
        "lng": "89.7697",
        "country": "India"
    },
    {
        "name": "Wilkinsburg",
        "lat": "40.4442",
        "lng": "-79.8733",
        "country": "United States"
    },
    {
        "name": "Alto Long\u00e1",
        "lat": "-5.2500",
        "lng": "-42.2000",
        "country": "Brazil"
    },
    {
        "name": "Strathmore",
        "lat": "51.0378",
        "lng": "-113.4003",
        "country": "Canada"
    },
    {
        "name": "Pont-\u00e0-Mousson",
        "lat": "48.9053",
        "lng": "6.0547",
        "country": "France"
    },
    {
        "name": "Leno",
        "lat": "45.3667",
        "lng": "10.2167",
        "country": "Italy"
    },
    {
        "name": "Hindalgi",
        "lat": "16.1364",
        "lng": "74.6547",
        "country": "India"
    },
    {
        "name": "Monte Alegre de Sergipe",
        "lat": "-10.0269",
        "lng": "-37.5619",
        "country": "Brazil"
    },
    {
        "name": "San Andr\u00e9s Timilpan",
        "lat": "19.8667",
        "lng": "-99.7333",
        "country": "Mexico"
    },
    {
        "name": "Pazar",
        "lat": "40.2620",
        "lng": "36.3130",
        "country": "Turkey"
    },
    {
        "name": "Conisbrough",
        "lat": "53.4790",
        "lng": "-1.2270",
        "country": "United Kingdom"
    },
    {
        "name": "Muttuk\u016bru",
        "lat": "14.2667",
        "lng": "80.1000",
        "country": "India"
    },
    {
        "name": "Belazao",
        "lat": "-19.8833",
        "lng": "46.9667",
        "country": "Madagascar"
    },
    {
        "name": "Mittweida",
        "lat": "50.9856",
        "lng": "12.9811",
        "country": "Germany"
    },
    {
        "name": "Lakhsetipet",
        "lat": "18.8873",
        "lng": "79.2069",
        "country": "India"
    },
    {
        "name": "Hasami",
        "lat": "33.1336",
        "lng": "129.8994",
        "country": "Japan"
    },
    {
        "name": "Horta",
        "lat": "38.5794",
        "lng": "-28.7164",
        "country": "Portugal"
    },
    {
        "name": "Yanshuiguan",
        "lat": "36.8252",
        "lng": "110.2345",
        "country": "China"
    },
    {
        "name": "Brookside",
        "lat": "39.6665",
        "lng": "-75.7152",
        "country": "United States"
    },
    {
        "name": "Zapolyarnyy",
        "lat": "69.4167",
        "lng": "30.8000",
        "country": "Russia"
    },
    {
        "name": "Lakinsk",
        "lat": "56.0333",
        "lng": "39.9667",
        "country": "Russia"
    },
    {
        "name": "Mascali",
        "lat": "37.7500",
        "lng": "15.2000",
        "country": "Italy"
    },
    {
        "name": "Anpachi",
        "lat": "35.3353",
        "lng": "136.6654",
        "country": "Japan"
    },
    {
        "name": "Baia-Sprie",
        "lat": "47.6592",
        "lng": "23.7042",
        "country": "Romania"
    },
    {
        "name": "Salda\u00f1a",
        "lat": "3.9347",
        "lng": "-75.0203",
        "country": "Colombia"
    },
    {
        "name": "P\u0101lda",
        "lat": "22.6800",
        "lng": "75.8939",
        "country": "India"
    },
    {
        "name": "W\u0101l\u0101j\u0101b\u0101d",
        "lat": "12.7904",
        "lng": "79.8236",
        "country": "India"
    },
    {
        "name": "Vil\u2019nyans\u2019k",
        "lat": "47.9419",
        "lng": "35.4281",
        "country": "Ukraine"
    },
    {
        "name": "Kl\u00e1\u0161terec nad Oh\u0159\u00ed",
        "lat": "50.3903",
        "lng": "13.1719",
        "country": "Czechia"
    },
    {
        "name": "Rottingdean",
        "lat": "50.8150",
        "lng": "-0.0650",
        "country": "United Kingdom"
    },
    {
        "name": "High River",
        "lat": "50.5808",
        "lng": "-113.8744",
        "country": "Canada"
    },
    {
        "name": "Gua",
        "lat": "22.2136",
        "lng": "85.3877",
        "country": "India"
    },
    {
        "name": "Jori Kal\u0101n",
        "lat": "24.2045",
        "lng": "84.8770",
        "country": "India"
    },
    {
        "name": "Tepecoyo",
        "lat": "13.7003",
        "lng": "-89.4678",
        "country": "El Salvador"
    },
    {
        "name": "Pol\u0101ia Kal\u0101n",
        "lat": "23.2119",
        "lng": "76.5529",
        "country": "India"
    },
    {
        "name": "Chikhli Kal\u0101n",
        "lat": "22.2152",
        "lng": "78.7430",
        "country": "India"
    },
    {
        "name": "Ustka",
        "lat": "54.5833",
        "lng": "16.8500",
        "country": "Poland"
    },
    {
        "name": "Sadovoye",
        "lat": "46.0500",
        "lng": "30.3667",
        "country": "Ukraine"
    },
    {
        "name": "Kottavalasa",
        "lat": "17.9000",
        "lng": "83.2000",
        "country": "India"
    },
    {
        "name": "Tenerife",
        "lat": "9.8989",
        "lng": "-74.8589",
        "country": "Colombia"
    },
    {
        "name": "M\u00e9ru",
        "lat": "49.2356",
        "lng": "2.1339",
        "country": "France"
    },
    {
        "name": "Kizhariy\u016br",
        "lat": "11.4833",
        "lng": "75.6833",
        "country": "India"
    },
    {
        "name": "Saddle Brook",
        "lat": "40.9033",
        "lng": "-74.0955",
        "country": "United States"
    },
    {
        "name": "Balangkas",
        "lat": "14.7381",
        "lng": "120.9978",
        "country": "Philippines"
    },
    {
        "name": "Estremoz",
        "lat": "38.8500",
        "lng": "-7.5833",
        "country": "Portugal"
    },
    {
        "name": "Saint-Paul-l\u00e8s-Dax",
        "lat": "43.7264",
        "lng": "-1.0517",
        "country": "France"
    },
    {
        "name": "Doctor Juan Eulogio Estigarribia",
        "lat": "-25.3700",
        "lng": "-55.7000",
        "country": "Paraguay"
    },
    {
        "name": "K\u0101rk\u016bdalpatti",
        "lat": "11.5002",
        "lng": "78.3521",
        "country": "India"
    },
    {
        "name": "V\u012braghattam",
        "lat": "18.6833",
        "lng": "83.6000",
        "country": "India"
    },
    {
        "name": "Radzymin",
        "lat": "52.4167",
        "lng": "21.1833",
        "country": "Poland"
    },
    {
        "name": "Lotte",
        "lat": "52.2764",
        "lng": "7.9167",
        "country": "Germany"
    },
    {
        "name": "Peumo",
        "lat": "-34.3961",
        "lng": "-71.1694",
        "country": "Chile"
    },
    {
        "name": "Iflissen",
        "lat": "36.8636",
        "lng": "4.2203",
        "country": "Algeria"
    },
    {
        "name": "Rokycany",
        "lat": "49.7425",
        "lng": "13.5956",
        "country": "Czechia"
    },
    {
        "name": "Sumbas",
        "lat": "37.4431",
        "lng": "36.0322",
        "country": "Turkey"
    },
    {
        "name": "Lengede",
        "lat": "52.2000",
        "lng": "10.3000",
        "country": "Germany"
    },
    {
        "name": "M\u016brak",
        "lat": "35.3753",
        "lng": "36.6872",
        "country": "Syria"
    },
    {
        "name": "M\u0101ngoli",
        "lat": "16.6500",
        "lng": "75.8100",
        "country": "India"
    },
    {
        "name": "Tsukawaki",
        "lat": "33.2831",
        "lng": "131.1515",
        "country": "Japan"
    },
    {
        "name": "Amay",
        "lat": "50.5500",
        "lng": "5.3167",
        "country": "Belgium"
    },
    {
        "name": "Sarqan",
        "lat": "45.4100",
        "lng": "79.9186",
        "country": "Kazakhstan"
    },
    {
        "name": "Santo Ant\u00f4nio dos Lopes",
        "lat": "-4.8689",
        "lng": "-44.3600",
        "country": "Brazil"
    },
    {
        "name": "Huliy\u0101r",
        "lat": "13.5828",
        "lng": "76.5361",
        "country": "India"
    },
    {
        "name": "Woippy",
        "lat": "49.1519",
        "lng": "6.1522",
        "country": "France"
    },
    {
        "name": "Fakola",
        "lat": "10.5444",
        "lng": "-6.9147",
        "country": "Mali"
    },
    {
        "name": "Novohrodivka",
        "lat": "48.2000",
        "lng": "37.3394",
        "country": "Ukraine"
    },
    {
        "name": "Nagongera",
        "lat": "0.7700",
        "lng": "34.0261",
        "country": "Uganda"
    },
    {
        "name": "Romitan Shahri",
        "lat": "39.9333",
        "lng": "64.3833",
        "country": "Uzbekistan"
    },
    {
        "name": "Sariosiyo",
        "lat": "38.4133",
        "lng": "67.9572",
        "country": "Uzbekistan"
    },
    {
        "name": "Kidbrooke",
        "lat": "51.4621",
        "lng": "0.0273",
        "country": "United Kingdom"
    },
    {
        "name": "Rold\u00e1n",
        "lat": "-32.9011",
        "lng": "-60.9072",
        "country": "Argentina"
    },
    {
        "name": "Kambainell\u016br",
        "lat": "12.2071",
        "lng": "78.3187",
        "country": "India"
    },
    {
        "name": "Rock Ferry",
        "lat": "53.3730",
        "lng": "-3.0080",
        "country": "United Kingdom"
    },
    {
        "name": "Baruun-Urt",
        "lat": "46.6814",
        "lng": "113.2803",
        "country": "Mongolia"
    },
    {
        "name": "Coronel Bogado",
        "lat": "-27.1700",
        "lng": "-56.2500",
        "country": "Paraguay"
    },
    {
        "name": "Dayr al Barsh\u0101",
        "lat": "27.7500",
        "lng": "30.9000",
        "country": "Egypt"
    },
    {
        "name": "Neutraubling",
        "lat": "48.9936",
        "lng": "12.1953",
        "country": "Germany"
    },
    {
        "name": "Pollokshaws",
        "lat": "55.8252",
        "lng": "-4.2947",
        "country": "United Kingdom"
    },
    {
        "name": "Iona",
        "lat": "26.5160",
        "lng": "-81.9601",
        "country": "United States"
    },
    {
        "name": "Algarrobo",
        "lat": "10.1000",
        "lng": "-74.2667",
        "country": "Colombia"
    },
    {
        "name": "Bad Camberg",
        "lat": "50.3000",
        "lng": "8.2667",
        "country": "Germany"
    }
]