[
    {
        "name": "Lai Ch\u00e2u",
        "lat": "22.3992",
        "lng": "103.4392",
        "country": "Vietnam"
    },
    {
        "name": "Middleton",
        "lat": "53.5550",
        "lng": "-2.1870",
        "country": "United Kingdom"
    },
    {
        "name": "Aurich",
        "lat": "53.4714",
        "lng": "7.4836",
        "country": "Germany"
    },
    {
        "name": "Ch\u00e2teauroux",
        "lat": "46.8103",
        "lng": "1.6911",
        "country": "France"
    },
    {
        "name": "Jatibonico",
        "lat": "21.9464",
        "lng": "-79.1675",
        "country": "Cuba"
    },
    {
        "name": "Heist-op-den-Berg",
        "lat": "51.0833",
        "lng": "4.7167",
        "country": "Belgium"
    },
    {
        "name": "Santo Ant\u00f4nio",
        "lat": "-29.8333",
        "lng": "-50.5333",
        "country": "Brazil"
    },
    {
        "name": "San Crist\u00f3bal Totonicap\u00e1n",
        "lat": "14.9167",
        "lng": "-91.4333",
        "country": "Guatemala"
    },
    {
        "name": "Nandongcun",
        "lat": "38.1031",
        "lng": "114.7582",
        "country": "China"
    },
    {
        "name": "Nandazhang",
        "lat": "38.1024",
        "lng": "114.7658",
        "country": "China"
    },
    {
        "name": "Buffalo Grove",
        "lat": "42.1675",
        "lng": "-87.9615",
        "country": "United States"
    },
    {
        "name": "Badulla",
        "lat": "6.9847",
        "lng": "81.0564",
        "country": "Sri Lanka"
    },
    {
        "name": "Akda\u011fmadeni",
        "lat": "39.6658",
        "lng": "35.8836",
        "country": "Turkey"
    },
    {
        "name": "Char Fasson",
        "lat": "22.1861",
        "lng": "90.7597",
        "country": "Bangladesh"
    },
    {
        "name": "Zhangcun",
        "lat": "38.1333",
        "lng": "114.9333",
        "country": "China"
    },
    {
        "name": "Bair\u0101gnia",
        "lat": "26.7381",
        "lng": "85.2736",
        "country": "India"
    },
    {
        "name": "Sevanagala",
        "lat": "6.3867",
        "lng": "80.9092",
        "country": "Sri Lanka"
    },
    {
        "name": "Pirth\u012bpur",
        "lat": "25.1853",
        "lng": "78.6650",
        "country": "India"
    },
    {
        "name": "Bradford West Gwillimbury",
        "lat": "44.1333",
        "lng": "-79.6333",
        "country": "Canada"
    },
    {
        "name": "Tepalcatepec",
        "lat": "19.1833",
        "lng": "-102.8500",
        "country": "Mexico"
    },
    {
        "name": "Villaba",
        "lat": "11.2200",
        "lng": "124.4000",
        "country": "Philippines"
    },
    {
        "name": "Shimabara",
        "lat": "32.7878",
        "lng": "130.3697",
        "country": "Japan"
    },
    {
        "name": "Mahb\u016bb\u0101b\u0101d",
        "lat": "17.6167",
        "lng": "80.0167",
        "country": "India"
    },
    {
        "name": "Garges-l\u00e8s-Gonesse",
        "lat": "48.9728",
        "lng": "2.4008",
        "country": "France"
    },
    {
        "name": "Fleet",
        "lat": "51.2834",
        "lng": "-0.8456",
        "country": "United Kingdom"
    },
    {
        "name": "Kalaiy\u0101",
        "lat": "27.0333",
        "lng": "85.0000",
        "country": "Nepal"
    },
    {
        "name": "Longtoushan Jiezi",
        "lat": "27.1157",
        "lng": "103.3817",
        "country": "China"
    },
    {
        "name": "Puerto Colombia",
        "lat": "11.0167",
        "lng": "-74.8833",
        "country": "Colombia"
    },
    {
        "name": "King\u2019s Lynn",
        "lat": "52.7540",
        "lng": "0.3980",
        "country": "United Kingdom"
    },
    {
        "name": "Salaberry-de-Valleyfield",
        "lat": "45.2500",
        "lng": "-74.1300",
        "country": "Canada"
    },
    {
        "name": "Chefchaouene",
        "lat": "35.1714",
        "lng": "-5.2697",
        "country": "Morocco"
    },
    {
        "name": "Laguna",
        "lat": "-28.4825",
        "lng": "-48.7808",
        "country": "Brazil"
    },
    {
        "name": "La Mata",
        "lat": "19.1000",
        "lng": "-70.1681",
        "country": "Dominican Republic"
    },
    {
        "name": "West Babylon",
        "lat": "40.7129",
        "lng": "-73.3585",
        "country": "United States"
    },
    {
        "name": "Ban Pet",
        "lat": "16.4379",
        "lng": "102.7645",
        "country": "Thailand"
    },
    {
        "name": "Nueva Valencia",
        "lat": "10.5259",
        "lng": "122.5398",
        "country": "Philippines"
    },
    {
        "name": "Al Bad\u0101r\u012b",
        "lat": "26.9925",
        "lng": "31.4156",
        "country": "Egypt"
    },
    {
        "name": "Limbdi",
        "lat": "22.5685",
        "lng": "71.7949",
        "country": "India"
    },
    {
        "name": "Catonsville",
        "lat": "39.2646",
        "lng": "-76.7424",
        "country": "United States"
    },
    {
        "name": "Barreiros",
        "lat": "-8.8178",
        "lng": "-35.1858",
        "country": "Brazil"
    },
    {
        "name": "Atenco",
        "lat": "19.5167",
        "lng": "-98.9167",
        "country": "Mexico"
    },
    {
        "name": "Mrirt",
        "lat": "33.1667",
        "lng": "-5.5667",
        "country": "Morocco"
    },
    {
        "name": "Itarema",
        "lat": "-2.9233",
        "lng": "-39.9144",
        "country": "Brazil"
    },
    {
        "name": "Altadena",
        "lat": "34.1927",
        "lng": "-118.1346",
        "country": "United States"
    },
    {
        "name": "Bukama",
        "lat": "-9.2000",
        "lng": "25.8333",
        "country": "Congo (Kinshasa)"
    },
    {
        "name": "Naranjo",
        "lat": "10.1053",
        "lng": "-84.3885",
        "country": "Costa Rica"
    },
    {
        "name": "Ciechan\u00f3w",
        "lat": "52.8667",
        "lng": "20.6333",
        "country": "Poland"
    },
    {
        "name": "Edmonds",
        "lat": "47.8115",
        "lng": "-122.3533",
        "country": "United States"
    },
    {
        "name": "Lokeren",
        "lat": "51.1000",
        "lng": "3.9833",
        "country": "Belgium"
    },
    {
        "name": "Gravina in Puglia",
        "lat": "40.8167",
        "lng": "16.4167",
        "country": "Italy"
    },
    {
        "name": "Linton Hall",
        "lat": "38.7551",
        "lng": "-77.5750",
        "country": "United States"
    },
    {
        "name": "Thol",
        "lat": "23.0674",
        "lng": "72.5121",
        "country": "India"
    },
    {
        "name": "Spanish Fork",
        "lat": "40.1101",
        "lng": "-111.6405",
        "country": "United States"
    },
    {
        "name": "Hammam Sousse",
        "lat": "35.8589",
        "lng": "10.5939",
        "country": "Tunisia"
    },
    {
        "name": "Newnan",
        "lat": "33.3767",
        "lng": "-84.7761",
        "country": "United States"
    },
    {
        "name": "Sar\u0131kam\u0131\u015f",
        "lat": "40.3381",
        "lng": "42.5731",
        "country": "Turkey"
    },
    {
        "name": "Taniyama-ch\u016b\u014d",
        "lat": "31.5211",
        "lng": "130.5176",
        "country": "Japan"
    },
    {
        "name": "Musina",
        "lat": "-22.3381",
        "lng": "30.0417",
        "country": "South Africa"
    },
    {
        "name": "Orl\u00e2ndia",
        "lat": "-20.7203",
        "lng": "-47.8867",
        "country": "Brazil"
    },
    {
        "name": "Meru",
        "lat": "0.0500",
        "lng": "37.6500",
        "country": "Kenya"
    },
    {
        "name": "Laatzen",
        "lat": "52.3167",
        "lng": "9.8000",
        "country": "Germany"
    },
    {
        "name": "Castres",
        "lat": "43.6000",
        "lng": "2.2500",
        "country": "France"
    },
    {
        "name": "Proper Bansud",
        "lat": "12.8594",
        "lng": "121.4567",
        "country": "Philippines"
    },
    {
        "name": "Quinh\u00e1mel",
        "lat": "11.8833",
        "lng": "-15.8500",
        "country": "Guinea-Bissau"
    },
    {
        "name": "Vineyard",
        "lat": "38.4740",
        "lng": "-121.3240",
        "country": "United States"
    },
    {
        "name": "Evere",
        "lat": "50.8667",
        "lng": "4.4000",
        "country": "Belgium"
    },
    {
        "name": "Mengdong",
        "lat": "23.1475",
        "lng": "99.2492",
        "country": "China"
    },
    {
        "name": "Cabo Bojador",
        "lat": "26.1333",
        "lng": "-14.5000",
        "country": "Morocco"
    },
    {
        "name": "Kafr al Kurd\u012b",
        "lat": "31.1429",
        "lng": "31.7826",
        "country": "Egypt"
    },
    {
        "name": "Barpeta",
        "lat": "26.3200",
        "lng": "91.0000",
        "country": "India"
    },
    {
        "name": "Jefferson City",
        "lat": "38.5676",
        "lng": "-92.1759",
        "country": "United States"
    },
    {
        "name": "Webuye",
        "lat": "0.6167",
        "lng": "34.7667",
        "country": "Kenya"
    },
    {
        "name": "Miranda",
        "lat": "3.2500",
        "lng": "-76.2500",
        "country": "Colombia"
    },
    {
        "name": "Kharik",
        "lat": "25.3679",
        "lng": "87.0026",
        "country": "India"
    },
    {
        "name": "Sidi Mohamed Lahmar",
        "lat": "34.7167",
        "lng": "-6.2667",
        "country": "Morocco"
    },
    {
        "name": "Mondoro",
        "lat": "14.6761",
        "lng": "-1.9511",
        "country": "Mali"
    },
    {
        "name": "El Affroun",
        "lat": "36.4667",
        "lng": "2.6333",
        "country": "Algeria"
    },
    {
        "name": "Sukheke Mandi",
        "lat": "31.8833",
        "lng": "73.4667",
        "country": "Pakistan"
    },
    {
        "name": "Manassas",
        "lat": "38.7479",
        "lng": "-77.4838",
        "country": "United States"
    },
    {
        "name": "Tecoanapa",
        "lat": "16.8000",
        "lng": "-99.1500",
        "country": "Mexico"
    },
    {
        "name": "Biella",
        "lat": "45.5667",
        "lng": "8.0667",
        "country": "Italy"
    },
    {
        "name": "Zharkent",
        "lat": "44.1667",
        "lng": "80.0000",
        "country": "Kazakhstan"
    },
    {
        "name": "Puyallup",
        "lat": "47.1793",
        "lng": "-122.2902",
        "country": "United States"
    },
    {
        "name": "San Francisco Men\u00e9ndez",
        "lat": "13.8425",
        "lng": "-90.0167",
        "country": "El Salvador"
    },
    {
        "name": "Fianga",
        "lat": "9.9153",
        "lng": "15.1375",
        "country": "Chad"
    },
    {
        "name": "Arras",
        "lat": "50.2920",
        "lng": "2.7800",
        "country": "France"
    },
    {
        "name": "\u0160ibenik",
        "lat": "43.7350",
        "lng": "15.8906",
        "country": "Croatia"
    },
    {
        "name": "Awaji",
        "lat": "34.4333",
        "lng": "134.9167",
        "country": "Japan"
    },
    {
        "name": "S\u0101l\u0101r",
        "lat": "23.7748",
        "lng": "88.1026",
        "country": "India"
    },
    {
        "name": "Nyunzu",
        "lat": "-5.9500",
        "lng": "28.0333",
        "country": "Congo (Kinshasa)"
    },
    {
        "name": "Hwange",
        "lat": "-18.3647",
        "lng": "26.5000",
        "country": "Zimbabwe"
    },
    {
        "name": "Sim\u00e3o Dias",
        "lat": "-10.7378",
        "lng": "-37.8108",
        "country": "Brazil"
    },
    {
        "name": "Shuilou",
        "lat": "22.3360",
        "lng": "112.7929",
        "country": "China"
    },
    {
        "name": "Vera Cruz",
        "lat": "-12.9600",
        "lng": "-38.6089",
        "country": "Brazil"
    },
    {
        "name": "Machal\u00ed",
        "lat": "-34.1825",
        "lng": "-70.6514",
        "country": "Chile"
    },
    {
        "name": "Mata de S\u00e3o Jo\u00e3o",
        "lat": "-12.5305",
        "lng": "-38.2996",
        "country": "Brazil"
    },
    {
        "name": "Panitan",
        "lat": "11.4639",
        "lng": "122.7694",
        "country": "Philippines"
    },
    {
        "name": "Jos\u00e9 de Freitas",
        "lat": "-4.7500",
        "lng": "-42.5833",
        "country": "Brazil"
    },
    {
        "name": "Thomassique",
        "lat": "19.0833",
        "lng": "-71.8333",
        "country": "Haiti"
    },
    {
        "name": "J\u0101jpur",
        "lat": "21.2140",
        "lng": "86.1070",
        "country": "India"
    }
]