[
    {
        "name": "Dajab\u00f3n",
        "lat": "19.5667",
        "lng": "-71.7100",
        "country": "Dominican Republic"
    },
    {
        "name": "Djugu",
        "lat": "1.9184",
        "lng": "30.5019",
        "country": "Congo (Kinshasa)"
    },
    {
        "name": "Kalw\u0101kurti",
        "lat": "16.6500",
        "lng": "78.4800",
        "country": "India"
    },
    {
        "name": "East Hampton",
        "lat": "41.0117",
        "lng": "-72.1277",
        "country": "United States"
    },
    {
        "name": "Reddish",
        "lat": "53.4383",
        "lng": "-2.1613",
        "country": "United Kingdom"
    },
    {
        "name": "Converse",
        "lat": "29.5091",
        "lng": "-98.3084",
        "country": "United States"
    },
    {
        "name": "Rhennouch",
        "lat": "33.9300",
        "lng": "10.0700",
        "country": "Tunisia"
    },
    {
        "name": "Devanhalli",
        "lat": "13.2300",
        "lng": "77.7000",
        "country": "India"
    },
    {
        "name": "Gingee",
        "lat": "12.2528",
        "lng": "79.4173",
        "country": "India"
    },
    {
        "name": "Leichlingen",
        "lat": "51.1167",
        "lng": "7.0167",
        "country": "Germany"
    },
    {
        "name": "Villaz\u00f3n",
        "lat": "-22.0911",
        "lng": "-65.5961",
        "country": "Bolivia"
    },
    {
        "name": "Khust",
        "lat": "48.1814",
        "lng": "23.2978",
        "country": "Ukraine"
    },
    {
        "name": "\u00c5kersberga",
        "lat": "59.4833",
        "lng": "18.3000",
        "country": "Sweden"
    },
    {
        "name": "Oakdale",
        "lat": "44.9876",
        "lng": "-92.9641",
        "country": "United States"
    },
    {
        "name": "Vallauris",
        "lat": "43.5805",
        "lng": "7.0538",
        "country": "France"
    },
    {
        "name": "Kefar Yona",
        "lat": "32.3171",
        "lng": "34.9358",
        "country": "Israel"
    },
    {
        "name": "Bayang",
        "lat": "7.7930",
        "lng": "124.1920",
        "country": "Philippines"
    },
    {
        "name": "Nunspeet",
        "lat": "52.3833",
        "lng": "5.7833",
        "country": "Netherlands"
    },
    {
        "name": "Navahrudak",
        "lat": "53.5833",
        "lng": "25.8167",
        "country": "Belarus"
    },
    {
        "name": "Mainit",
        "lat": "9.5369",
        "lng": "125.5231",
        "country": "Philippines"
    },
    {
        "name": "Vanves",
        "lat": "48.8208",
        "lng": "2.2897",
        "country": "France"
    },
    {
        "name": "Mchinji",
        "lat": "-13.8167",
        "lng": "32.9000",
        "country": "Malawi"
    },
    {
        "name": "Anaj\u00e1s",
        "lat": "-0.9869",
        "lng": "-49.9400",
        "country": "Brazil"
    },
    {
        "name": "Lomme",
        "lat": "50.6358",
        "lng": "3.0142",
        "country": "France"
    },
    {
        "name": "Twentynine Palms",
        "lat": "34.1478",
        "lng": "-116.0659",
        "country": "United States"
    },
    {
        "name": "Douentza",
        "lat": "15.0000",
        "lng": "-2.9500",
        "country": "Mali"
    },
    {
        "name": "Tainai",
        "lat": "38.0597",
        "lng": "139.4103",
        "country": "Japan"
    },
    {
        "name": "D\u00fcbendorf",
        "lat": "47.4167",
        "lng": "8.6167",
        "country": "Switzerland"
    },
    {
        "name": "Geldrop",
        "lat": "51.4222",
        "lng": "5.5578",
        "country": "Netherlands"
    },
    {
        "name": "Qornet Chahou\u00e2ne",
        "lat": "33.9200",
        "lng": "35.6700",
        "country": "Lebanon"
    },
    {
        "name": "Sahavato",
        "lat": "-20.6000",
        "lng": "48.3333",
        "country": "Madagascar"
    },
    {
        "name": "Imito",
        "lat": "-20.4167",
        "lng": "47.3167",
        "country": "Madagascar"
    },
    {
        "name": "Sandrandahy",
        "lat": "-20.3500",
        "lng": "47.3000",
        "country": "Madagascar"
    },
    {
        "name": "Ambohijanahary",
        "lat": "-17.4000",
        "lng": "48.3667",
        "country": "Madagascar"
    },
    {
        "name": "Masanwa",
        "lat": "-3.1833",
        "lng": "33.7833",
        "country": "Tanzania"
    },
    {
        "name": "Bo\u2018ka",
        "lat": "40.8136",
        "lng": "69.2019",
        "country": "Uzbekistan"
    },
    {
        "name": "Qianshanhong Nongchang",
        "lat": "29.1442",
        "lng": "112.4347",
        "country": "China"
    },
    {
        "name": "Jiaoxiling",
        "lat": "28.2190",
        "lng": "113.4764",
        "country": "China"
    },
    {
        "name": "S\u0101ila",
        "lat": "25.3330",
        "lng": "72.3670",
        "country": "India"
    },
    {
        "name": "Limeil-Br\u00e9vannes",
        "lat": "48.7464",
        "lng": "2.4883",
        "country": "France"
    },
    {
        "name": "K\u0101r\u0101kurisshi",
        "lat": "10.9667",
        "lng": "76.4917",
        "country": "India"
    },
    {
        "name": "Billericay",
        "lat": "51.6280",
        "lng": "0.4184",
        "country": "United Kingdom"
    },
    {
        "name": "Cuartero",
        "lat": "11.3428",
        "lng": "122.6714",
        "country": "Philippines"
    },
    {
        "name": "Langedijk",
        "lat": "52.6833",
        "lng": "4.8000",
        "country": "Netherlands"
    },
    {
        "name": "Isser",
        "lat": "36.7160",
        "lng": "3.6660",
        "country": "Algeria"
    },
    {
        "name": "Almazora",
        "lat": "39.9403",
        "lng": "-0.0625",
        "country": "Spain"
    },
    {
        "name": "Lubok Antu",
        "lat": "1.0500",
        "lng": "111.8333",
        "country": "Malaysia"
    },
    {
        "name": "Montfermeil",
        "lat": "48.9000",
        "lng": "2.5667",
        "country": "France"
    },
    {
        "name": "San Felipe Jalapa de D\u00edaz",
        "lat": "18.0667",
        "lng": "-96.5333",
        "country": "Mexico"
    },
    {
        "name": "Pacho",
        "lat": "5.1306",
        "lng": "-74.1583",
        "country": "Colombia"
    },
    {
        "name": "Belpasso",
        "lat": "37.5833",
        "lng": "14.9833",
        "country": "Italy"
    },
    {
        "name": "Zeitz",
        "lat": "51.0478",
        "lng": "12.1383",
        "country": "Germany"
    },
    {
        "name": "Yangyuhe",
        "lat": "33.8614",
        "lng": "109.8740",
        "country": "China"
    },
    {
        "name": "Orlov\u00e1",
        "lat": "49.8453",
        "lng": "18.4303",
        "country": "Czechia"
    },
    {
        "name": "Shaler",
        "lat": "40.5229",
        "lng": "-79.9632",
        "country": "United States"
    },
    {
        "name": "San Andr\u00e9s Sajcabaj\u00e1",
        "lat": "15.1756",
        "lng": "-90.9417",
        "country": "Guatemala"
    },
    {
        "name": "Kasangulu",
        "lat": "-4.5911",
        "lng": "15.1703",
        "country": "Congo (Kinshasa)"
    },
    {
        "name": "Kushtagi",
        "lat": "15.7562",
        "lng": "76.1911",
        "country": "India"
    },
    {
        "name": "Gragnano",
        "lat": "40.6833",
        "lng": "14.5167",
        "country": "Italy"
    },
    {
        "name": "Shalqar",
        "lat": "47.8333",
        "lng": "59.6000",
        "country": "Kazakhstan"
    },
    {
        "name": "San Mart\u00edn de los Andes",
        "lat": "-40.1667",
        "lng": "-71.3500",
        "country": "Argentina"
    },
    {
        "name": "Kanav\u0101ikuli",
        "lat": "9.8500",
        "lng": "76.9400",
        "country": "India"
    },
    {
        "name": "Punceres",
        "lat": "9.9898",
        "lng": "-63.3366",
        "country": "Venezuela"
    },
    {
        "name": "\u0100ron",
        "lat": "24.3811",
        "lng": "77.4174",
        "country": "India"
    },
    {
        "name": "Lake Jackson",
        "lat": "29.0516",
        "lng": "-95.4521",
        "country": "United States"
    },
    {
        "name": "Dhabauli",
        "lat": "25.8346",
        "lng": "86.8057",
        "country": "India"
    },
    {
        "name": "Labasa",
        "lat": "-16.4311",
        "lng": "179.3703",
        "country": "Fiji"
    },
    {
        "name": "Goriar",
        "lat": "25.5513",
        "lng": "87.2046",
        "country": "India"
    },
    {
        "name": "Hamar",
        "lat": "60.7945",
        "lng": "11.0679",
        "country": "Norway"
    },
    {
        "name": "Canosa di Puglia",
        "lat": "41.2167",
        "lng": "16.0667",
        "country": "Italy"
    },
    {
        "name": "Vil\u0101ngudi",
        "lat": "9.9458",
        "lng": "78.0935",
        "country": "India"
    },
    {
        "name": "No\u00e9",
        "lat": "5.2833",
        "lng": "-2.8000",
        "country": "C\u00f4te d\u2019Ivoire"
    },
    {
        "name": "Douglas",
        "lat": "54.1500",
        "lng": "-4.4775",
        "country": "Isle of Man"
    },
    {
        "name": "Aloran",
        "lat": "8.4146",
        "lng": "123.8228",
        "country": "Philippines"
    },
    {
        "name": "Garden City",
        "lat": "37.9753",
        "lng": "-100.8527",
        "country": "United States"
    },
    {
        "name": "Nochistl\u00e1n de Mej\u00eda",
        "lat": "21.3642",
        "lng": "-102.8464",
        "country": "Mexico"
    },
    {
        "name": "Bitam",
        "lat": "2.0833",
        "lng": "11.4833",
        "country": "Gabon"
    },
    {
        "name": "Ennis",
        "lat": "52.8463",
        "lng": "-8.9807",
        "country": "Ireland"
    },
    {
        "name": "Malmal",
        "lat": "26.4833",
        "lng": "86.0500",
        "country": "India"
    },
    {
        "name": "Iguaba Grande",
        "lat": "-22.8389",
        "lng": "-42.2289",
        "country": "Brazil"
    },
    {
        "name": "Sfizef",
        "lat": "35.2333",
        "lng": "-0.2500",
        "country": "Algeria"
    },
    {
        "name": "Newry",
        "lat": "54.1760",
        "lng": "-6.3490",
        "country": "United Kingdom"
    },
    {
        "name": "Danvers",
        "lat": "42.5740",
        "lng": "-70.9494",
        "country": "United States"
    },
    {
        "name": "Moc\u00edmboa",
        "lat": "-11.3196",
        "lng": "40.3500",
        "country": "Mozambique"
    },
    {
        "name": "Dahmani",
        "lat": "35.9500",
        "lng": "8.8333",
        "country": "Tunisia"
    },
    {
        "name": "\u0141uk\u00f3w",
        "lat": "51.9272",
        "lng": "22.3833",
        "country": "Poland"
    },
    {
        "name": "Bouka",
        "lat": "10.2167",
        "lng": "3.1333",
        "country": "Benin"
    },
    {
        "name": "Ash Shajarah",
        "lat": "32.6417",
        "lng": "35.9417",
        "country": "Jordan"
    },
    {
        "name": "El Sauce",
        "lat": "12.8833",
        "lng": "-86.5333",
        "country": "Nicaragua"
    },
    {
        "name": "Reina Mercedes Viejo",
        "lat": "16.9872",
        "lng": "121.8272",
        "country": "Philippines"
    },
    {
        "name": "Reina Mercedes",
        "lat": "16.9872",
        "lng": "121.8272",
        "country": "Philippines"
    },
    {
        "name": "Bordj el Bahri",
        "lat": "36.8167",
        "lng": "3.2333",
        "country": "Algeria"
    },
    {
        "name": "Ambohitompoina",
        "lat": "-19.7500",
        "lng": "47.5667",
        "country": "Madagascar"
    },
    {
        "name": "Larreynaga",
        "lat": "12.6744",
        "lng": "-86.5708",
        "country": "Nicaragua"
    },
    {
        "name": "Majayjay",
        "lat": "14.1463",
        "lng": "121.4729",
        "country": "Philippines"
    },
    {
        "name": "Caridad",
        "lat": "14.4828",
        "lng": "120.8958",
        "country": "Philippines"
    },
    {
        "name": "G\u00fclnar",
        "lat": "36.3389",
        "lng": "33.3986",
        "country": "Turkey"
    },
    {
        "name": "Maple Valley",
        "lat": "47.3659",
        "lng": "-122.0368",
        "country": "United States"
    },
    {
        "name": "Gy\u00f6ngy\u00f6s",
        "lat": "47.7833",
        "lng": "19.9333",
        "country": "Hungary"
    },
    {
        "name": "Hiji",
        "lat": "33.3694",
        "lng": "131.5322",
        "country": "Japan"
    }
]