[
    {
        "name": "W\u014fnsan",
        "lat": "39.1475",
        "lng": "127.4461",
        "country": "Korea, North"
    },
    {
        "name": "Iligan",
        "lat": "8.2300",
        "lng": "124.2500",
        "country": "Philippines"
    },
    {
        "name": "Anguo",
        "lat": "38.4180",
        "lng": "115.3270",
        "country": "China"
    },
    {
        "name": "K\u2019ebr\u012b Dehar",
        "lat": "6.7333",
        "lng": "44.2667",
        "country": "Ethiopia"
    },
    {
        "name": "Coventry",
        "lat": "52.4081",
        "lng": "-1.5106",
        "country": "United Kingdom"
    },
    {
        "name": "Kayap\u0131nar",
        "lat": "37.9500",
        "lng": "40.1667",
        "country": "Turkey"
    },
    {
        "name": "Trenton",
        "lat": "40.2237",
        "lng": "-74.7641",
        "country": "United States"
    },
    {
        "name": "Cuenca",
        "lat": "-2.8974",
        "lng": "-79.0045",
        "country": "Ecuador"
    },
    {
        "name": "Blumenau",
        "lat": "-26.9333",
        "lng": "-49.0500",
        "country": "Brazil"
    },
    {
        "name": "Nanqiao",
        "lat": "30.9167",
        "lng": "121.4547",
        "country": "China"
    },
    {
        "name": "Florence",
        "lat": "43.7714",
        "lng": "11.2542",
        "country": "Italy"
    },
    {
        "name": "Buurhakaba",
        "lat": "2.7833",
        "lng": "44.0833",
        "country": "Somalia"
    },
    {
        "name": "Bengkulu",
        "lat": "-3.7956",
        "lng": "102.2592",
        "country": "Indonesia"
    },
    {
        "name": "Malm\u00f6",
        "lat": "55.6058",
        "lng": "13.0358",
        "country": "Sweden"
    },
    {
        "name": "Wudalianchi",
        "lat": "48.7500",
        "lng": "126.1667",
        "country": "China"
    },
    {
        "name": "Shuanghe",
        "lat": "30.3746",
        "lng": "106.7903",
        "country": "China"
    },
    {
        "name": "P\u00e9tion-Ville",
        "lat": "18.5128",
        "lng": "-72.2864",
        "country": "Haiti"
    },
    {
        "name": "Utrecht",
        "lat": "52.0908",
        "lng": "5.1217",
        "country": "Netherlands"
    },
    {
        "name": "S\u012bkar",
        "lat": "27.6200",
        "lng": "75.1500",
        "country": "India"
    },
    {
        "name": "Umuahia",
        "lat": "5.5333",
        "lng": "7.4833",
        "country": "Nigeria"
    },
    {
        "name": "Vitsyebsk",
        "lat": "55.1917",
        "lng": "30.2056",
        "country": "Belarus"
    },
    {
        "name": "Palmira",
        "lat": "3.5833",
        "lng": "-76.2500",
        "country": "Colombia"
    },
    {
        "name": "Wuppertal",
        "lat": "51.2667",
        "lng": "7.1833",
        "country": "Germany"
    },
    {
        "name": "Hrodna",
        "lat": "53.6667",
        "lng": "23.8333",
        "country": "Belarus"
    },
    {
        "name": "Ash Shuhad\u0101\u2019",
        "lat": "30.6039",
        "lng": "30.9021",
        "country": "Egypt"
    },
    {
        "name": "Kar\u016br",
        "lat": "10.9601",
        "lng": "78.0766",
        "country": "India"
    },
    {
        "name": "Ponta Grossa",
        "lat": "-25.0994",
        "lng": "-50.1583",
        "country": "Brazil"
    },
    {
        "name": "Sasar\u0101m",
        "lat": "24.9500",
        "lng": "84.0300",
        "country": "India"
    },
    {
        "name": "Taraz",
        "lat": "42.9000",
        "lng": "71.3667",
        "country": "Kazakhstan"
    },
    {
        "name": "Cubal",
        "lat": "-13.0333",
        "lng": "14.2500",
        "country": "Angola"
    },
    {
        "name": "Luena",
        "lat": "-11.7918",
        "lng": "19.9062",
        "country": "Angola"
    },
    {
        "name": "Karn\u0101l",
        "lat": "29.6860",
        "lng": "76.9890",
        "country": "India"
    },
    {
        "name": "Yong\u2019an",
        "lat": "25.9420",
        "lng": "117.3650",
        "country": "China"
    },
    {
        "name": "Konak",
        "lat": "38.4189",
        "lng": "27.1285",
        "country": "Turkey"
    },
    {
        "name": "Minatitl\u00e1n",
        "lat": "17.9833",
        "lng": "-94.5500",
        "country": "Mexico"
    },
    {
        "name": "Linxia Chengguanzhen",
        "lat": "35.6047",
        "lng": "103.2422",
        "country": "China"
    },
    {
        "name": "Brahmapur",
        "lat": "19.3150",
        "lng": "84.7941",
        "country": "India"
    },
    {
        "name": "Ch\u0101nda",
        "lat": "19.9500",
        "lng": "79.3000",
        "country": "India"
    },
    {
        "name": "Caucaia",
        "lat": "-3.7167",
        "lng": "-38.6500",
        "country": "Brazil"
    },
    {
        "name": "Cuito",
        "lat": "-12.3833",
        "lng": "16.9333",
        "country": "Angola"
    },
    {
        "name": "Cabuyao",
        "lat": "14.2750",
        "lng": "121.1250",
        "country": "Philippines"
    },
    {
        "name": "Hongzhai",
        "lat": "34.9857",
        "lng": "104.5446",
        "country": "China"
    },
    {
        "name": "Gedaref",
        "lat": "14.0333",
        "lng": "35.3833",
        "country": "Sudan"
    },
    {
        "name": "San Fernando",
        "lat": "15.0300",
        "lng": "120.6800",
        "country": "Philippines"
    },
    {
        "name": "Kawagoe",
        "lat": "35.9251",
        "lng": "139.4858",
        "country": "Japan"
    },
    {
        "name": "Modesto",
        "lat": "37.6375",
        "lng": "-121.0028",
        "country": "United States"
    },
    {
        "name": "Nizhniy Tagil",
        "lat": "57.9167",
        "lng": "59.9667",
        "country": "Russia"
    },
    {
        "name": "Pokhara",
        "lat": "28.2083",
        "lng": "83.9889",
        "country": "Nepal"
    },
    {
        "name": "Villahermosa",
        "lat": "17.9892",
        "lng": "-92.9281",
        "country": "Mexico"
    },
    {
        "name": "Van",
        "lat": "38.4942",
        "lng": "43.3800",
        "country": "Turkey"
    },
    {
        "name": "Mahilyow",
        "lat": "53.9167",
        "lng": "30.3500",
        "country": "Belarus"
    },
    {
        "name": "Wakayama",
        "lat": "34.2333",
        "lng": "135.1667",
        "country": "Japan"
    },
    {
        "name": "Osh",
        "lat": "40.5300",
        "lng": "72.8000",
        "country": "Kyrgyzstan"
    },
    {
        "name": "Kita-ku",
        "lat": "35.7500",
        "lng": "139.7333",
        "country": "Japan"
    },
    {
        "name": "Gimpo",
        "lat": "37.7000",
        "lng": "126.6000",
        "country": "Korea, South"
    },
    {
        "name": "Corrientes",
        "lat": "-27.4833",
        "lng": "-58.8167",
        "country": "Argentina"
    },
    {
        "name": "Franca",
        "lat": "-20.5389",
        "lng": "-47.4008",
        "country": "Brazil"
    },
    {
        "name": "Thari Mir Wah",
        "lat": "27.0683",
        "lng": "68.6023",
        "country": "Pakistan"
    },
    {
        "name": "Nara",
        "lat": "34.6844",
        "lng": "135.8050",
        "country": "Japan"
    },
    {
        "name": "Vladimir",
        "lat": "56.1286",
        "lng": "40.4058",
        "country": "Russia"
    },
    {
        "name": "Yakeshi",
        "lat": "49.2860",
        "lng": "120.7120",
        "country": "China"
    },
    {
        "name": "Nam \u0110\u1ecbnh",
        "lat": "20.4200",
        "lng": "106.1683",
        "country": "Vietnam"
    },
    {
        "name": "Sin\u016diju",
        "lat": "40.1000",
        "lng": "124.4000",
        "country": "Korea, North"
    },
    {
        "name": "Oruro",
        "lat": "-17.9667",
        "lng": "-67.1167",
        "country": "Bolivia"
    },
    {
        "name": "Cabimas",
        "lat": "10.4000",
        "lng": "-71.4500",
        "country": "Venezuela"
    },
    {
        "name": "Arkhangelsk",
        "lat": "64.5333",
        "lng": "40.5333",
        "country": "Russia"
    },
    {
        "name": "Batangas",
        "lat": "13.8300",
        "lng": "121.0000",
        "country": "Philippines"
    },
    {
        "name": "Ibb",
        "lat": "13.9667",
        "lng": "44.1667",
        "country": "Yemen"
    },
    {
        "name": "Ahmadnagar",
        "lat": "19.0800",
        "lng": "74.7300",
        "country": "India"
    },
    {
        "name": "Sarai Alamgir",
        "lat": "32.9000",
        "lng": "73.7500",
        "country": "Pakistan"
    },
    {
        "name": "Semey",
        "lat": "50.4333",
        "lng": "80.2667",
        "country": "Kazakhstan"
    },
    {
        "name": "Holgu\u00edn",
        "lat": "20.8869",
        "lng": "-76.2592",
        "country": "Cuba"
    },
    {
        "name": "Tungi",
        "lat": "23.9000",
        "lng": "90.4100",
        "country": "Bangladesh"
    },
    {
        "name": "Yingmen",
        "lat": "39.9487",
        "lng": "97.4395",
        "country": "China"
    },
    {
        "name": "Sawr\u0101n",
        "lat": "36.6606",
        "lng": "44.5508",
        "country": "Iraq"
    },
    {
        "name": "Chita",
        "lat": "52.0500",
        "lng": "113.4667",
        "country": "Russia"
    },
    {
        "name": "Olinda",
        "lat": "-8.0000",
        "lng": "-34.8833",
        "country": "Brazil"
    },
    {
        "name": "Praia Grande",
        "lat": "-24.0061",
        "lng": "-46.4028",
        "country": "Brazil"
    },
    {
        "name": "D\u0101sarhalli",
        "lat": "13.0465",
        "lng": "77.5130",
        "country": "India"
    },
    {
        "name": "Huntsville",
        "lat": "34.6981",
        "lng": "-86.6412",
        "country": "United States"
    },
    {
        "name": "Shinjuku",
        "lat": "35.7014",
        "lng": "139.7097",
        "country": "Japan"
    },
    {
        "name": "Alicante",
        "lat": "38.3453",
        "lng": "-0.4831",
        "country": "Spain"
    },
    {
        "name": "Cariacica",
        "lat": "-20.2639",
        "lng": "-40.4200",
        "country": "Brazil"
    },
    {
        "name": "Varna",
        "lat": "43.2167",
        "lng": "27.9167",
        "country": "Bulgaria"
    },
    {
        "name": "Honolulu",
        "lat": "21.3294",
        "lng": "-157.8460",
        "country": "United States"
    },
    {
        "name": "Antofagasta",
        "lat": "-23.6500",
        "lng": "-70.4000",
        "country": "Chile"
    },
    {
        "name": "Ambon",
        "lat": "-3.7000",
        "lng": "128.1667",
        "country": "Indonesia"
    },
    {
        "name": "Nice",
        "lat": "43.7034",
        "lng": "7.2663",
        "country": "France"
    },
    {
        "name": "Cascavel",
        "lat": "-24.9556",
        "lng": "-53.4553",
        "country": "Brazil"
    },
    {
        "name": "Pamukkale",
        "lat": "37.9167",
        "lng": "29.1167",
        "country": "Turkey"
    },
    {
        "name": "Canoas",
        "lat": "-29.9200",
        "lng": "-51.1800",
        "country": "Brazil"
    },
    {
        "name": "Takatsuki",
        "lat": "34.8461",
        "lng": "135.6175",
        "country": "Japan"
    },
    {
        "name": "Ant\u00f3nio Enes",
        "lat": "-16.2333",
        "lng": "39.9167",
        "country": "Mozambique"
    },
    {
        "name": "Greensboro",
        "lat": "36.0956",
        "lng": "-79.8271",
        "country": "United States"
    },
    {
        "name": "Anaheim",
        "lat": "33.8390",
        "lng": "-117.8574",
        "country": "United States"
    },
    {
        "name": "Plovdiv",
        "lat": "42.1500",
        "lng": "24.7500",
        "country": "Bulgaria"
    },
    {
        "name": "Central Coast",
        "lat": "-33.3000",
        "lng": "151.2000",
        "country": "Australia"
    },
    {
        "name": "Kar\u015f\u0131yaka",
        "lat": "38.4594",
        "lng": "27.1153",
        "country": "Turkey"
    },
    {
        "name": "Sh\u0101hj\u0101npur",
        "lat": "27.8800",
        "lng": "79.9100",
        "country": "India"
    },
    {
        "name": "Gwagwalada",
        "lat": "8.9392",
        "lng": "7.0758",
        "country": "Nigeria"
    }
]