[
    {
        "name": "Sanza Pombo",
        "lat": "-7.3333",
        "lng": "16.0000",
        "country": "Angola"
    },
    {
        "name": "Tangub",
        "lat": "8.0667",
        "lng": "123.7500",
        "country": "Philippines"
    },
    {
        "name": "Anjangaon",
        "lat": "21.1500",
        "lng": "77.2800",
        "country": "India"
    },
    {
        "name": "Maricopa",
        "lat": "33.0408",
        "lng": "-112.0011",
        "country": "United States"
    },
    {
        "name": "\u015e\u0259ki",
        "lat": "41.2000",
        "lng": "47.1667",
        "country": "Azerbaijan"
    },
    {
        "name": "Bardi\u0307\u0304b\u0101s",
        "lat": "26.9800",
        "lng": "85.9000",
        "country": "Nepal"
    },
    {
        "name": "Cergy",
        "lat": "49.0361",
        "lng": "2.0631",
        "country": "France"
    },
    {
        "name": "Puerto San Jos\u00e9",
        "lat": "13.9333",
        "lng": "-90.8167",
        "country": "Guatemala"
    },
    {
        "name": "Ash Shi\u1e29r",
        "lat": "14.7608",
        "lng": "49.6069",
        "country": "Yemen"
    },
    {
        "name": "Oriximin\u00e1",
        "lat": "-1.7658",
        "lng": "-55.8658",
        "country": "Brazil"
    },
    {
        "name": "Adrar",
        "lat": "27.8667",
        "lng": "-0.2833",
        "country": "Algeria"
    },
    {
        "name": "Eagan",
        "lat": "44.8170",
        "lng": "-93.1638",
        "country": "United States"
    },
    {
        "name": "Tuymazy",
        "lat": "54.6000",
        "lng": "53.7000",
        "country": "Russia"
    },
    {
        "name": "Matara",
        "lat": "5.9500",
        "lng": "80.5333",
        "country": "Sri Lanka"
    },
    {
        "name": "Lodja",
        "lat": "-3.5242",
        "lng": "23.5964",
        "country": "Congo (Kinshasa)"
    },
    {
        "name": "St. Albert",
        "lat": "53.6303",
        "lng": "-113.6258",
        "country": "Canada"
    },
    {
        "name": "Otukpo",
        "lat": "7.1904",
        "lng": "8.1300",
        "country": "Nigeria"
    },
    {
        "name": "Swedru",
        "lat": "5.5306",
        "lng": "-0.7028",
        "country": "Ghana"
    },
    {
        "name": "Ngh\u0129a L\u1ed9",
        "lat": "21.5758",
        "lng": "104.5192",
        "country": "Vietnam"
    },
    {
        "name": "Tynemouth",
        "lat": "55.0170",
        "lng": "-1.4230",
        "country": "United Kingdom"
    },
    {
        "name": "Sipocot",
        "lat": "13.7675",
        "lng": "122.9783",
        "country": "Philippines"
    },
    {
        "name": "Tuburan",
        "lat": "10.7300",
        "lng": "123.8300",
        "country": "Philippines"
    },
    {
        "name": "Villanueva y Geltr\u00fa",
        "lat": "41.2242",
        "lng": "1.7256",
        "country": "Spain"
    },
    {
        "name": "Hanford",
        "lat": "36.3274",
        "lng": "-119.6549",
        "country": "United States"
    },
    {
        "name": "Miagao",
        "lat": "10.6442",
        "lng": "122.2352",
        "country": "Philippines"
    },
    {
        "name": "X\u00e1 Muteba",
        "lat": "-9.5167",
        "lng": "17.8167",
        "country": "Angola"
    },
    {
        "name": "Cuyapo",
        "lat": "15.7778",
        "lng": "120.6608",
        "country": "Philippines"
    },
    {
        "name": "Mbak\u00e9",
        "lat": "14.7917",
        "lng": "-15.9083",
        "country": "Senegal"
    },
    {
        "name": "Yorba Linda",
        "lat": "33.8890",
        "lng": "-117.7714",
        "country": "United States"
    },
    {
        "name": "Weston",
        "lat": "26.1006",
        "lng": "-80.4054",
        "country": "United States"
    },
    {
        "name": "Watsonville",
        "lat": "36.9206",
        "lng": "-121.7708",
        "country": "United States"
    },
    {
        "name": "H\u00e4meenlinna",
        "lat": "60.9944",
        "lng": "24.4667",
        "country": "Finland"
    },
    {
        "name": "Levallois-Perret",
        "lat": "48.8950",
        "lng": "2.2872",
        "country": "France"
    },
    {
        "name": "Minusinsk",
        "lat": "53.7000",
        "lng": "91.6833",
        "country": "Russia"
    },
    {
        "name": "Fort McMurray",
        "lat": "56.7333",
        "lng": "-111.3833",
        "country": "Canada"
    },
    {
        "name": "Lindong",
        "lat": "43.9681",
        "lng": "119.3756",
        "country": "China"
    },
    {
        "name": "Renuk\u016bt",
        "lat": "24.2000",
        "lng": "83.0300",
        "country": "India"
    },
    {
        "name": "N\u0101bha",
        "lat": "30.3700",
        "lng": "76.1500",
        "country": "India"
    },
    {
        "name": "Ixtlahuac\u00e1n de los Membrillos",
        "lat": "20.3500",
        "lng": "-103.1833",
        "country": "Mexico"
    },
    {
        "name": "Putrajaya",
        "lat": "2.9300",
        "lng": "101.6900",
        "country": "Malaysia"
    },
    {
        "name": "Al Buraym\u012b",
        "lat": "24.2592",
        "lng": "55.7839",
        "country": "Oman"
    },
    {
        "name": "San Pedro Ayampuc",
        "lat": "14.7833",
        "lng": "-90.4500",
        "country": "Guatemala"
    },
    {
        "name": "La Barca",
        "lat": "20.2833",
        "lng": "-102.5667",
        "country": "Mexico"
    },
    {
        "name": "Yanghe",
        "lat": "38.2727",
        "lng": "106.2496",
        "country": "China"
    },
    {
        "name": "Palo Alto",
        "lat": "37.3905",
        "lng": "-122.1468",
        "country": "United States"
    },
    {
        "name": "Castillejos",
        "lat": "14.9300",
        "lng": "120.2000",
        "country": "Philippines"
    },
    {
        "name": "Antalaha",
        "lat": "-14.8833",
        "lng": "50.2500",
        "country": "Madagascar"
    },
    {
        "name": "Kstovo",
        "lat": "56.1667",
        "lng": "44.1667",
        "country": "Russia"
    },
    {
        "name": "\u014cdate",
        "lat": "40.2714",
        "lng": "140.5642",
        "country": "Japan"
    },
    {
        "name": "Siuri",
        "lat": "23.9100",
        "lng": "87.5270",
        "country": "India"
    },
    {
        "name": "Bod\u012bt\u012b",
        "lat": "6.8667",
        "lng": "37.8667",
        "country": "Ethiopia"
    },
    {
        "name": "Janu\u00e1ria",
        "lat": "-15.4878",
        "lng": "-44.3619",
        "country": "Brazil"
    },
    {
        "name": "South Hill",
        "lat": "47.1198",
        "lng": "-122.2853",
        "country": "United States"
    },
    {
        "name": "Chengjiao Chengguanzhen",
        "lat": "34.4362",
        "lng": "104.0306",
        "country": "China"
    },
    {
        "name": "Concei\u00e7\u00e3o do Coit\u00e9",
        "lat": "-11.5500",
        "lng": "-39.2667",
        "country": "Brazil"
    },
    {
        "name": "Formiga",
        "lat": "-20.4615",
        "lng": "-45.4323",
        "country": "Brazil"
    },
    {
        "name": "Ksar el Boukhari",
        "lat": "35.8856",
        "lng": "2.7508",
        "country": "Algeria"
    },
    {
        "name": "Kamuli",
        "lat": "0.9450",
        "lng": "33.1250",
        "country": "Uganda"
    },
    {
        "name": "R\u0101jsamand",
        "lat": "25.0700",
        "lng": "73.8800",
        "country": "India"
    },
    {
        "name": "Longshan",
        "lat": "26.3347",
        "lng": "106.8929",
        "country": "China"
    },
    {
        "name": "Bishnupur",
        "lat": "23.0750",
        "lng": "87.3170",
        "country": "India"
    },
    {
        "name": "Cannock",
        "lat": "52.6910",
        "lng": "-2.0270",
        "country": "United Kingdom"
    },
    {
        "name": "Dinslaken",
        "lat": "51.5667",
        "lng": "6.7333",
        "country": "Germany"
    },
    {
        "name": "Pesqueira",
        "lat": "-8.3617",
        "lng": "-36.6947",
        "country": "Brazil"
    },
    {
        "name": "Colmar",
        "lat": "48.0817",
        "lng": "7.3556",
        "country": "France"
    },
    {
        "name": "Tepotzotl\u00e1n",
        "lat": "19.7161",
        "lng": "-99.2236",
        "country": "Mexico"
    },
    {
        "name": "Bayombong",
        "lat": "16.4800",
        "lng": "121.1500",
        "country": "Philippines"
    },
    {
        "name": "Sant\u2019Eufemia Lamezia",
        "lat": "38.9667",
        "lng": "16.3000",
        "country": "Italy"
    },
    {
        "name": "Apac",
        "lat": "1.9850",
        "lng": "32.5350",
        "country": "Uganda"
    },
    {
        "name": "Shashijie",
        "lat": "28.3458",
        "lng": "113.4240",
        "country": "China"
    },
    {
        "name": "Pongnam",
        "lat": "37.2200",
        "lng": "126.9494",
        "country": "Korea, South"
    },
    {
        "name": "\u0130slahiye",
        "lat": "37.0250",
        "lng": "36.6345",
        "country": "Turkey"
    },
    {
        "name": "Shawnee",
        "lat": "39.0158",
        "lng": "-94.8076",
        "country": "United States"
    },
    {
        "name": "Mod\u0101sa",
        "lat": "23.4700",
        "lng": "73.3000",
        "country": "India"
    },
    {
        "name": "Banep\u0101",
        "lat": "27.6297",
        "lng": "85.5203",
        "country": "Nepal"
    },
    {
        "name": "Youssoufia",
        "lat": "32.2500",
        "lng": "-8.5333",
        "country": "Morocco"
    },
    {
        "name": "Vaasa",
        "lat": "63.1000",
        "lng": "21.6167",
        "country": "Finland"
    },
    {
        "name": "Santa Catarina Otzolotepec",
        "lat": "18.5667",
        "lng": "-97.2500",
        "country": "Mexico"
    },
    {
        "name": "Heroica Caborca",
        "lat": "30.7167",
        "lng": "-112.1500",
        "country": "Mexico"
    },
    {
        "name": "Molepolole",
        "lat": "-24.4067",
        "lng": "25.4950",
        "country": "Botswana"
    },
    {
        "name": "Walsall",
        "lat": "52.5800",
        "lng": "-1.9800",
        "country": "United Kingdom"
    },
    {
        "name": "Manaure",
        "lat": "11.7792",
        "lng": "-72.4494",
        "country": "Colombia"
    },
    {
        "name": "Kovel",
        "lat": "51.2167",
        "lng": "24.7167",
        "country": "Ukraine"
    },
    {
        "name": "Abn\u016bb",
        "lat": "27.2667",
        "lng": "31.1500",
        "country": "Egypt"
    },
    {
        "name": "Zigon",
        "lat": "18.3385",
        "lng": "95.6230",
        "country": "Burma"
    },
    {
        "name": "Gauravaram",
        "lat": "17.1000",
        "lng": "80.6000",
        "country": "India"
    },
    {
        "name": "Bergen op Zoom",
        "lat": "51.5000",
        "lng": "4.3000",
        "country": "Netherlands"
    },
    {
        "name": "Aregu\u00e1",
        "lat": "-25.2953",
        "lng": "-57.4147",
        "country": "Paraguay"
    },
    {
        "name": "Ayolas",
        "lat": "-27.4000",
        "lng": "-56.9000",
        "country": "Paraguay"
    },
    {
        "name": "Herford",
        "lat": "52.1333",
        "lng": "8.6833",
        "country": "Germany"
    },
    {
        "name": "Sausar",
        "lat": "21.6500",
        "lng": "78.7800",
        "country": "India"
    },
    {
        "name": "Yuquan",
        "lat": "40.4203",
        "lng": "114.0864",
        "country": "China"
    },
    {
        "name": "Taman Senai",
        "lat": "1.5833",
        "lng": "103.6333",
        "country": "Malaysia"
    },
    {
        "name": "Om\u012bd\u012byeh",
        "lat": "30.7583",
        "lng": "49.7050",
        "country": "Iran"
    },
    {
        "name": "Huajing",
        "lat": "31.1194",
        "lng": "121.4519",
        "country": "China"
    },
    {
        "name": "Dhenk\u0101n\u0101l",
        "lat": "20.6700",
        "lng": "85.6000",
        "country": "India"
    },
    {
        "name": "Zihuatanejo",
        "lat": "17.6444",
        "lng": "-101.5511",
        "country": "Mexico"
    },
    {
        "name": "Chicacao",
        "lat": "14.5333",
        "lng": "-91.3167",
        "country": "Guatemala"
    },
    {
        "name": "Fuefuki",
        "lat": "35.6473",
        "lng": "138.6397",
        "country": "Japan"
    },
    {
        "name": "Urun-Isl\u0101mpur",
        "lat": "17.0500",
        "lng": "74.2670",
        "country": "India"
    }
]