[
    {
        "name": "Korangal",
        "lat": "17.1070",
        "lng": "77.6270",
        "country": "India"
    },
    {
        "name": "Omegna",
        "lat": "45.8775",
        "lng": "8.4089",
        "country": "Italy"
    },
    {
        "name": "Eski \u012akan",
        "lat": "43.1833",
        "lng": "68.5333",
        "country": "Kazakhstan"
    },
    {
        "name": "Ambohimanga Atsimo",
        "lat": "-20.8667",
        "lng": "47.6000",
        "country": "Madagascar"
    },
    {
        "name": "Orbetello",
        "lat": "42.4428",
        "lng": "11.2247",
        "country": "Italy"
    },
    {
        "name": "Na\u0161ice",
        "lat": "45.4833",
        "lng": "18.1000",
        "country": "Croatia"
    },
    {
        "name": "Chiaravalle",
        "lat": "43.6000",
        "lng": "13.3333",
        "country": "Italy"
    },
    {
        "name": "Chard",
        "lat": "50.8728",
        "lng": "-2.9587",
        "country": "United Kingdom"
    },
    {
        "name": "Anantar\u0101zupeta",
        "lat": "14.0014",
        "lng": "79.3319",
        "country": "India"
    },
    {
        "name": "Bariariy\u0101",
        "lat": "26.5105",
        "lng": "84.7165",
        "country": "India"
    },
    {
        "name": "Loganville",
        "lat": "33.8353",
        "lng": "-83.8958",
        "country": "United States"
    },
    {
        "name": "Bousso",
        "lat": "10.4825",
        "lng": "16.7161",
        "country": "Chad"
    },
    {
        "name": "Ban Don Kaeo",
        "lat": "18.8567",
        "lng": "98.9689",
        "country": "Thailand"
    },
    {
        "name": "Grafing bei M\u00fcnchen",
        "lat": "48.0500",
        "lng": "11.9667",
        "country": "Germany"
    },
    {
        "name": "Brandermill",
        "lat": "37.4340",
        "lng": "-77.6522",
        "country": "United States"
    },
    {
        "name": "East Greenwich",
        "lat": "41.6362",
        "lng": "-71.5058",
        "country": "United States"
    },
    {
        "name": "Chicago Ridge",
        "lat": "41.7034",
        "lng": "-87.7795",
        "country": "United States"
    },
    {
        "name": "Gualdo Tadino",
        "lat": "43.2333",
        "lng": "12.7833",
        "country": "Italy"
    },
    {
        "name": "Ungut\u016bru",
        "lat": "16.8230",
        "lng": "81.4238",
        "country": "India"
    },
    {
        "name": "Bia\u0142y Kamie\u0144",
        "lat": "50.7814",
        "lng": "16.2539",
        "country": "Poland"
    },
    {
        "name": "Bikkavolu",
        "lat": "16.9500",
        "lng": "82.0500",
        "country": "India"
    },
    {
        "name": "Somerton",
        "lat": "32.6007",
        "lng": "-114.6994",
        "country": "United States"
    },
    {
        "name": "El Barrio de la Soledad",
        "lat": "16.8000",
        "lng": "-95.1167",
        "country": "Mexico"
    },
    {
        "name": "Puxinan\u00e3",
        "lat": "-7.1608",
        "lng": "-35.9608",
        "country": "Brazil"
    },
    {
        "name": "Patcham",
        "lat": "50.8640",
        "lng": "-0.1500",
        "country": "United Kingdom"
    },
    {
        "name": "Santa Maria a Vico",
        "lat": "41.0333",
        "lng": "14.4833",
        "country": "Italy"
    },
    {
        "name": "West Lealman",
        "lat": "27.8192",
        "lng": "-82.7384",
        "country": "United States"
    },
    {
        "name": "Gantt",
        "lat": "34.7837",
        "lng": "-82.4027",
        "country": "United States"
    },
    {
        "name": "Yakhroma",
        "lat": "56.2833",
        "lng": "37.4667",
        "country": "Russia"
    },
    {
        "name": "Razan",
        "lat": "35.3886",
        "lng": "49.0331",
        "country": "Iran"
    },
    {
        "name": "Nkhata Bay",
        "lat": "-11.6000",
        "lng": "34.3000",
        "country": "Malawi"
    },
    {
        "name": "Mongeri",
        "lat": "8.3167",
        "lng": "-11.7333",
        "country": "Sierra Leone"
    },
    {
        "name": "Ban Nong Kula",
        "lat": "16.6500",
        "lng": "99.9500",
        "country": "Thailand"
    },
    {
        "name": "Ucar",
        "lat": "40.5183",
        "lng": "47.6542",
        "country": "Azerbaijan"
    },
    {
        "name": "Ghaura",
        "lat": "24.5059",
        "lng": "79.0781",
        "country": "India"
    },
    {
        "name": "Vedasand\u016br",
        "lat": "10.5310",
        "lng": "77.9502",
        "country": "India"
    },
    {
        "name": "La\u00ef",
        "lat": "9.4000",
        "lng": "16.3000",
        "country": "Chad"
    },
    {
        "name": "Pak Thong Chai",
        "lat": "14.7167",
        "lng": "102.0167",
        "country": "Thailand"
    },
    {
        "name": "Ban Tha Thong",
        "lat": "16.8582",
        "lng": "100.2291",
        "country": "Thailand"
    },
    {
        "name": "Ci\u00e9nega de Flores",
        "lat": "25.9500",
        "lng": "-100.1833",
        "country": "Mexico"
    },
    {
        "name": "B\u00f6k\u00f6nbaev",
        "lat": "42.1100",
        "lng": "76.9900",
        "country": "Kyrgyzstan"
    },
    {
        "name": "Manoharpur",
        "lat": "22.3746",
        "lng": "85.1923",
        "country": "India"
    },
    {
        "name": "Det Udom",
        "lat": "14.9060",
        "lng": "105.0784",
        "country": "Thailand"
    },
    {
        "name": "Saint-Gilles",
        "lat": "43.6786",
        "lng": "4.4317",
        "country": "France"
    },
    {
        "name": "Mionica",
        "lat": "44.2500",
        "lng": "20.0833",
        "country": "Serbia"
    },
    {
        "name": "Bollullos par del Condado",
        "lat": "37.3358",
        "lng": "-6.5364",
        "country": "Spain"
    },
    {
        "name": "Marechal Floriano",
        "lat": "-20.4128",
        "lng": "-40.6828",
        "country": "Brazil"
    },
    {
        "name": "Bois-Guillaume",
        "lat": "49.4614",
        "lng": "1.1092",
        "country": "France"
    },
    {
        "name": "Morokweng",
        "lat": "-26.1270",
        "lng": "23.7750",
        "country": "South Africa"
    },
    {
        "name": "Poynton",
        "lat": "53.3500",
        "lng": "-2.1167",
        "country": "United Kingdom"
    },
    {
        "name": "Ait Yazza",
        "lat": "30.5063",
        "lng": "-8.7931",
        "country": "Morocco"
    },
    {
        "name": "Chikitigarh",
        "lat": "19.2023",
        "lng": "84.6145",
        "country": "India"
    },
    {
        "name": "Ben Taieb",
        "lat": "35.0837",
        "lng": "-3.4696",
        "country": "Morocco"
    },
    {
        "name": "Langerwehe",
        "lat": "50.8167",
        "lng": "6.3497",
        "country": "Germany"
    },
    {
        "name": "Haramachida",
        "lat": "35.5434",
        "lng": "139.4452",
        "country": "Japan"
    },
    {
        "name": "Levo\u010da",
        "lat": "49.0253",
        "lng": "20.5881",
        "country": "Slovakia"
    },
    {
        "name": "Mondolfo",
        "lat": "43.7500",
        "lng": "13.1000",
        "country": "Italy"
    },
    {
        "name": "Svrljig",
        "lat": "43.4167",
        "lng": "22.1167",
        "country": "Serbia"
    },
    {
        "name": "Imba\u00fa",
        "lat": "-24.4450",
        "lng": "-50.7608",
        "country": "Brazil"
    },
    {
        "name": "R\u0101je",
        "lat": "26.2216",
        "lng": "86.1454",
        "country": "India"
    },
    {
        "name": "A\u00efbongo",
        "lat": "16.2231",
        "lng": "-3.2450",
        "country": "Mali"
    },
    {
        "name": "Maria da F\u00e9",
        "lat": "-22.3078",
        "lng": "-45.3750",
        "country": "Brazil"
    },
    {
        "name": "Prieska",
        "lat": "-29.6683",
        "lng": "22.7439",
        "country": "South Africa"
    },
    {
        "name": "Tafrant",
        "lat": "34.6250",
        "lng": "-5.1242",
        "country": "Morocco"
    },
    {
        "name": "Braz\u00f3polis",
        "lat": "-22.4739",
        "lng": "-45.6078",
        "country": "Brazil"
    },
    {
        "name": "Seacroft",
        "lat": "53.8222",
        "lng": "-1.4599",
        "country": "United Kingdom"
    },
    {
        "name": "Kukdeshwar",
        "lat": "24.4828",
        "lng": "75.2675",
        "country": "India"
    },
    {
        "name": "Opera",
        "lat": "45.3833",
        "lng": "9.2167",
        "country": "Italy"
    },
    {
        "name": "Arvika",
        "lat": "59.6542",
        "lng": "12.5914",
        "country": "Sweden"
    },
    {
        "name": "K\u014ddan\u0101d",
        "lat": "10.1800",
        "lng": "76.5100",
        "country": "India"
    },
    {
        "name": "Wingene",
        "lat": "51.0500",
        "lng": "3.2667",
        "country": "Belgium"
    },
    {
        "name": "Horw",
        "lat": "47.0167",
        "lng": "8.3167",
        "country": "Switzerland"
    },
    {
        "name": "Kelafo",
        "lat": "5.5889",
        "lng": "44.2056",
        "country": "Ethiopia"
    },
    {
        "name": "Neft\u00e7ala",
        "lat": "39.3586",
        "lng": "49.2469",
        "country": "Azerbaijan"
    },
    {
        "name": "Padav\u0113du",
        "lat": "12.6730",
        "lng": "79.1047",
        "country": "India"
    },
    {
        "name": "Manuel Ribas",
        "lat": "-24.5158",
        "lng": "-51.6678",
        "country": "Brazil"
    },
    {
        "name": "Sabin\u00f3polis",
        "lat": "-18.6667",
        "lng": "-43.1000",
        "country": "Brazil"
    },
    {
        "name": "Toubakoro",
        "lat": "13.8833",
        "lng": "-7.1833",
        "country": "Mali"
    },
    {
        "name": "Sines",
        "lat": "37.9547",
        "lng": "-8.8644",
        "country": "Portugal"
    },
    {
        "name": "Saren",
        "lat": "25.1149",
        "lng": "84.9744",
        "country": "India"
    },
    {
        "name": "North Mankato",
        "lat": "44.1810",
        "lng": "-94.0391",
        "country": "United States"
    },
    {
        "name": "Kni\u0107",
        "lat": "43.9264",
        "lng": "20.7194",
        "country": "Serbia"
    },
    {
        "name": "Mahavanona",
        "lat": "-12.4500",
        "lng": "49.3667",
        "country": "Madagascar"
    },
    {
        "name": "K\u0101shti",
        "lat": "18.5492",
        "lng": "74.5822",
        "country": "India"
    },
    {
        "name": "Mapanas",
        "lat": "12.4750",
        "lng": "125.2540",
        "country": "Philippines"
    },
    {
        "name": "Bainbridge",
        "lat": "30.9052",
        "lng": "-84.5732",
        "country": "United States"
    },
    {
        "name": "\u00d6merli",
        "lat": "37.4025",
        "lng": "40.9561",
        "country": "Turkey"
    },
    {
        "name": "Pannimadai",
        "lat": "11.0823",
        "lng": "76.9164",
        "country": "India"
    },
    {
        "name": "Zhabinka",
        "lat": "52.2006",
        "lng": "24.0233",
        "country": "Belarus"
    },
    {
        "name": "San Giorgio Ionico",
        "lat": "40.4500",
        "lng": "17.3667",
        "country": "Italy"
    },
    {
        "name": "Forfar",
        "lat": "56.6442",
        "lng": "-2.8884",
        "country": "United Kingdom"
    },
    {
        "name": "Nagardevla Budrukh",
        "lat": "20.5667",
        "lng": "75.2167",
        "country": "India"
    },
    {
        "name": "Little Falls",
        "lat": "40.8762",
        "lng": "-74.2181",
        "country": "United States"
    },
    {
        "name": "Bou Izakarn",
        "lat": "29.1667",
        "lng": "-9.7333",
        "country": "Morocco"
    },
    {
        "name": "Al Mu\u2018a\u1e11\u1e11am\u012byah",
        "lat": "33.7421",
        "lng": "36.6435",
        "country": "Syria"
    },
    {
        "name": "Douar Hammadi",
        "lat": "31.6090",
        "lng": "-8.4604",
        "country": "Morocco"
    },
    {
        "name": "Och\u00ebr",
        "lat": "57.8833",
        "lng": "54.7333",
        "country": "Russia"
    },
    {
        "name": "Borborema",
        "lat": "-21.6200",
        "lng": "-49.0739",
        "country": "Brazil"
    },
    {
        "name": "Elk Plain",
        "lat": "47.0425",
        "lng": "-122.3663",
        "country": "United States"
    },
    {
        "name": "Kouroussa",
        "lat": "10.6530",
        "lng": "-9.8920",
        "country": "Guinea"
    }
]