[
    {
        "name": "Hinode",
        "lat": "35.7421",
        "lng": "139.2546",
        "country": "Japan"
    },
    {
        "name": "Cari\u00fas",
        "lat": "-6.5333",
        "lng": "-39.5000",
        "country": "Brazil"
    },
    {
        "name": "Kamenz",
        "lat": "51.2667",
        "lng": "14.1000",
        "country": "Germany"
    },
    {
        "name": "Port Washington",
        "lat": "40.8268",
        "lng": "-73.6765",
        "country": "United States"
    },
    {
        "name": "Karratha",
        "lat": "-20.7364",
        "lng": "116.8464",
        "country": "Australia"
    },
    {
        "name": "Macatuba",
        "lat": "-22.5022",
        "lng": "-48.7114",
        "country": "Brazil"
    },
    {
        "name": "S\u012bt\u0101mau",
        "lat": "24.0147",
        "lng": "75.3532",
        "country": "India"
    },
    {
        "name": "Pe\u00f1amiller",
        "lat": "21.0519",
        "lng": "-99.8150",
        "country": "Mexico"
    },
    {
        "name": "Juazeirinho",
        "lat": "-7.0678",
        "lng": "-36.5778",
        "country": "Brazil"
    },
    {
        "name": "Avitanallur",
        "lat": "11.5002",
        "lng": "75.8059",
        "country": "India"
    },
    {
        "name": "Wixom",
        "lat": "42.5243",
        "lng": "-83.5346",
        "country": "United States"
    },
    {
        "name": "Upper Gwynedd",
        "lat": "40.2144",
        "lng": "-75.2891",
        "country": "United States"
    },
    {
        "name": "Pendleton",
        "lat": "45.6757",
        "lng": "-118.8201",
        "country": "United States"
    },
    {
        "name": "Brasnorte",
        "lat": "-12.1550",
        "lng": "-57.9789",
        "country": "Brazil"
    },
    {
        "name": "Saint-Cyr-sur-Loire",
        "lat": "47.3990",
        "lng": "0.6673",
        "country": "France"
    },
    {
        "name": "Hannibal",
        "lat": "39.7098",
        "lng": "-91.3939",
        "country": "United States"
    },
    {
        "name": "Baaql\u00eene",
        "lat": "33.6797",
        "lng": "35.5583",
        "country": "Lebanon"
    },
    {
        "name": "Marosangy",
        "lat": "-21.0000",
        "lng": "48.3000",
        "country": "Madagascar"
    },
    {
        "name": "Tolongoina",
        "lat": "-21.5500",
        "lng": "47.5167",
        "country": "Madagascar"
    },
    {
        "name": "Etrotroka",
        "lat": "-22.8833",
        "lng": "47.6000",
        "country": "Madagascar"
    },
    {
        "name": "Ilakatra",
        "lat": "-22.3500",
        "lng": "47.6667",
        "country": "Madagascar"
    },
    {
        "name": "Ambila",
        "lat": "-21.9833",
        "lng": "47.9500",
        "country": "Madagascar"
    },
    {
        "name": "Marofoty",
        "lat": "-22.9333",
        "lng": "43.5667",
        "country": "Madagascar"
    },
    {
        "name": "Ambohitrolomahitsy",
        "lat": "-18.7000",
        "lng": "47.6833",
        "country": "Madagascar"
    },
    {
        "name": "Lazarivo",
        "lat": "-23.9000",
        "lng": "44.9500",
        "country": "Madagascar"
    },
    {
        "name": "Milanoa",
        "lat": "-13.5833",
        "lng": "49.7833",
        "country": "Madagascar"
    },
    {
        "name": "Isoanala",
        "lat": "-23.8333",
        "lng": "45.7167",
        "country": "Madagascar"
    },
    {
        "name": "Amboanjo",
        "lat": "-22.0000",
        "lng": "47.8500",
        "country": "Madagascar"
    },
    {
        "name": "Befotaka",
        "lat": "-14.5333",
        "lng": "48.0167",
        "country": "Madagascar"
    },
    {
        "name": "Tsarahonenana",
        "lat": "-15.4833",
        "lng": "48.4833",
        "country": "Madagascar"
    },
    {
        "name": "Antanimora Atsinanana",
        "lat": "-24.8167",
        "lng": "45.6667",
        "country": "Madagascar"
    },
    {
        "name": "Ankarongana",
        "lat": "-15.4167",
        "lng": "48.9167",
        "country": "Madagascar"
    },
    {
        "name": "Ambondromisotra",
        "lat": "-20.3333",
        "lng": "46.9167",
        "country": "Madagascar"
    },
    {
        "name": "Ambohitsimanova",
        "lat": "-19.9500",
        "lng": "47.1167",
        "country": "Madagascar"
    },
    {
        "name": "Anosivelo",
        "lat": "-22.7333",
        "lng": "47.7667",
        "country": "Madagascar"
    },
    {
        "name": "Manombo Atsimo",
        "lat": "-22.9500",
        "lng": "43.4667",
        "country": "Madagascar"
    },
    {
        "name": "Anosibe-Ifanja",
        "lat": "-18.8667",
        "lng": "46.7500",
        "country": "Madagascar"
    },
    {
        "name": "Beahitse",
        "lat": "-24.1667",
        "lng": "44.4333",
        "country": "Madagascar"
    },
    {
        "name": "Antsahavaribe",
        "lat": "-13.9833",
        "lng": "49.6167",
        "country": "Madagascar"
    },
    {
        "name": "Ambohipihaonana",
        "lat": "-19.4333",
        "lng": "47.4167",
        "country": "Madagascar"
    },
    {
        "name": "Mandritsara",
        "lat": "-15.8333",
        "lng": "48.8167",
        "country": "Madagascar"
    },
    {
        "name": "Ambolidibe Atsinanana",
        "lat": "-15.1000",
        "lng": "48.8000",
        "country": "Madagascar"
    },
    {
        "name": "Sadabe",
        "lat": "-18.6333",
        "lng": "47.7000",
        "country": "Madagascar"
    },
    {
        "name": "Dzitbalch\u00e9",
        "lat": "20.3167",
        "lng": "-90.0500",
        "country": "Mexico"
    },
    {
        "name": "Ghonch\u00ed",
        "lat": "39.9589",
        "lng": "69.1369",
        "country": "Tajikistan"
    },
    {
        "name": "Yangi Mirishkor",
        "lat": "38.8514",
        "lng": "65.2778",
        "country": "Uzbekistan"
    },
    {
        "name": "J\u0101yal",
        "lat": "27.2167",
        "lng": "74.1833",
        "country": "India"
    },
    {
        "name": "Matauna",
        "lat": "26.6699",
        "lng": "85.4870",
        "country": "India"
    },
    {
        "name": "A\u1e11 \u1e10ul\u016b\u2018\u012byah",
        "lat": "34.0500",
        "lng": "44.2000",
        "country": "Iraq"
    },
    {
        "name": "Santo Ant\u00f4nio do Leverger",
        "lat": "-15.8658",
        "lng": "-56.0769",
        "country": "Brazil"
    },
    {
        "name": "Hindarx",
        "lat": "40.0700",
        "lng": "47.2047",
        "country": "Azerbaijan"
    },
    {
        "name": "Alauli",
        "lat": "25.6440",
        "lng": "86.4065",
        "country": "India"
    },
    {
        "name": "Saint-\u00c9gr\u00e8ve",
        "lat": "45.2325",
        "lng": "5.6836",
        "country": "France"
    },
    {
        "name": "Pera\u00eda",
        "lat": "40.5000",
        "lng": "22.9250",
        "country": "Greece"
    },
    {
        "name": "Naula",
        "lat": "25.5535",
        "lng": "86.0636",
        "country": "India"
    },
    {
        "name": "Santo Tom\u00e1s de J\u00e1nico",
        "lat": "19.4000",
        "lng": "-70.8000",
        "country": "Dominican Republic"
    },
    {
        "name": "Kakraul",
        "lat": "26.3620",
        "lng": "86.0139",
        "country": "India"
    },
    {
        "name": "Tomas Oppus",
        "lat": "10.2500",
        "lng": "124.9800",
        "country": "Philippines"
    },
    {
        "name": "Itajobi",
        "lat": "-21.3178",
        "lng": "-49.0539",
        "country": "Brazil"
    },
    {
        "name": "Ban Rawai",
        "lat": "7.7707",
        "lng": "98.3185",
        "country": "Thailand"
    },
    {
        "name": "Ambalavayal",
        "lat": "11.6190",
        "lng": "76.2102",
        "country": "India"
    },
    {
        "name": "Analanampotsy",
        "lat": "-17.1667",
        "lng": "49.4833",
        "country": "Madagascar"
    },
    {
        "name": "Shankar Saraiy\u0101",
        "lat": "26.5967",
        "lng": "84.8526",
        "country": "India"
    },
    {
        "name": "Kawai",
        "lat": "34.5833",
        "lng": "135.7333",
        "country": "Japan"
    },
    {
        "name": "Sikandra",
        "lat": "24.9564",
        "lng": "86.0344",
        "country": "India"
    },
    {
        "name": "Lodwar",
        "lat": "3.1167",
        "lng": "35.6000",
        "country": "Kenya"
    },
    {
        "name": "Oulad Amrane",
        "lat": "32.2833",
        "lng": "-9.2333",
        "country": "Morocco"
    },
    {
        "name": "Guisborough",
        "lat": "54.5350",
        "lng": "-1.0563",
        "country": "United Kingdom"
    },
    {
        "name": "Brunico",
        "lat": "46.8000",
        "lng": "11.9333",
        "country": "Italy"
    },
    {
        "name": "Bayt \u016ammar",
        "lat": "31.6214",
        "lng": "35.1022",
        "country": "West Bank"
    },
    {
        "name": "Ulubey",
        "lat": "40.8761",
        "lng": "37.7406",
        "country": "Turkey"
    },
    {
        "name": "Fortuna",
        "lat": "-5.7328",
        "lng": "-44.1578",
        "country": "Brazil"
    },
    {
        "name": "Arai",
        "lat": "34.6833",
        "lng": "137.5667",
        "country": "Japan"
    },
    {
        "name": "Sr\u012bk\u016brmam",
        "lat": "18.2708",
        "lng": "84.0044",
        "country": "India"
    },
    {
        "name": "San Juan Lalana",
        "lat": "17.4667",
        "lng": "-95.8833",
        "country": "Mexico"
    },
    {
        "name": "Andranofasika",
        "lat": "-16.3833",
        "lng": "46.9000",
        "country": "Madagascar"
    },
    {
        "name": "Zarumilla",
        "lat": "-3.5014",
        "lng": "-80.2722",
        "country": "Peru"
    },
    {
        "name": "L\u2019Ancienne-Lorette",
        "lat": "46.8000",
        "lng": "-71.3500",
        "country": "Canada"
    },
    {
        "name": "Ibitit\u00e1",
        "lat": "-11.5667",
        "lng": "-41.9667",
        "country": "Brazil"
    },
    {
        "name": "K\u014dr\u014dth",
        "lat": "11.5833",
        "lng": "75.7667",
        "country": "India"
    },
    {
        "name": "R\u0101machandrapuran",
        "lat": "17.4944",
        "lng": "78.2942",
        "country": "India"
    },
    {
        "name": "Ughara",
        "lat": "26.0563",
        "lng": "86.0013",
        "country": "India"
    },
    {
        "name": "Geddes",
        "lat": "43.0762",
        "lng": "-76.2252",
        "country": "United States"
    },
    {
        "name": "Serafina Cor\u00eaa",
        "lat": "-28.7119",
        "lng": "-51.9350",
        "country": "Brazil"
    },
    {
        "name": "Ginsheim-Gustavsburg",
        "lat": "49.9833",
        "lng": "8.3333",
        "country": "Germany"
    },
    {
        "name": "Viroflay",
        "lat": "48.8000",
        "lng": "2.1670",
        "country": "France"
    },
    {
        "name": "Yanggezhuang",
        "lat": "39.3831",
        "lng": "118.7119",
        "country": "China"
    },
    {
        "name": "Berga",
        "lat": "42.1011",
        "lng": "1.8439",
        "country": "Spain"
    },
    {
        "name": "Meltonakkal",
        "lat": "8.6341",
        "lng": "76.8521",
        "country": "India"
    },
    {
        "name": "Bishunpura",
        "lat": "26.5436",
        "lng": "84.4364",
        "country": "India"
    },
    {
        "name": "Qal\u2019at Mgouna",
        "lat": "31.2414",
        "lng": "-6.1283",
        "country": "Morocco"
    },
    {
        "name": "Santana do Cariri",
        "lat": "-7.1833",
        "lng": "-39.7333",
        "country": "Brazil"
    },
    {
        "name": "Cercola",
        "lat": "40.8667",
        "lng": "14.3500",
        "country": "Italy"
    },
    {
        "name": "Bou Hanifia el Hamamat",
        "lat": "35.3167",
        "lng": "-0.0500",
        "country": "Algeria"
    },
    {
        "name": "Dirba",
        "lat": "30.0700",
        "lng": "75.9800",
        "country": "India"
    },
    {
        "name": "Puerto Caimito",
        "lat": "8.8700",
        "lng": "-79.7200",
        "country": "Panama"
    },
    {
        "name": "Kombai",
        "lat": "9.8475",
        "lng": "77.2960",
        "country": "India"
    },
    {
        "name": "Liuchuan",
        "lat": "26.6549",
        "lng": "108.5876",
        "country": "China"
    },
    {
        "name": "Mers el Kebir",
        "lat": "35.7286",
        "lng": "-0.7069",
        "country": "Algeria"
    },
    {
        "name": "Balmaz\u00fajv\u00e1ros",
        "lat": "47.6167",
        "lng": "21.3500",
        "country": "Hungary"
    }
]