[
    {
        "name": "Wevelgem",
        "lat": "50.8000",
        "lng": "3.1667",
        "country": "Belgium"
    },
    {
        "name": "\u0100reka",
        "lat": "7.0710",
        "lng": "37.7076",
        "country": "Ethiopia"
    },
    {
        "name": "Norak",
        "lat": "38.3833",
        "lng": "69.3167",
        "country": "Tajikistan"
    },
    {
        "name": "Kunnatn\u0101d",
        "lat": "10.0179",
        "lng": "76.4010",
        "country": "India"
    },
    {
        "name": "Neira",
        "lat": "5.1664",
        "lng": "-75.5189",
        "country": "Colombia"
    },
    {
        "name": "Kolachel",
        "lat": "8.1767",
        "lng": "77.2591",
        "country": "India"
    },
    {
        "name": "Cornelius",
        "lat": "35.4724",
        "lng": "-80.8813",
        "country": "United States"
    },
    {
        "name": "Sanha",
        "lat": "25.4020",
        "lng": "86.3592",
        "country": "India"
    },
    {
        "name": "Shentang",
        "lat": "22.3024",
        "lng": "113.3638",
        "country": "China"
    },
    {
        "name": "L\u2019Ha\u00ff-les-Roses",
        "lat": "48.7800",
        "lng": "2.3374",
        "country": "France"
    },
    {
        "name": "Halden",
        "lat": "59.1264",
        "lng": "11.4828",
        "country": "Norway"
    },
    {
        "name": "Yawatahama-shi",
        "lat": "33.4667",
        "lng": "132.4167",
        "country": "Japan"
    },
    {
        "name": "Vellan\u0101d",
        "lat": "8.4461",
        "lng": "77.1971",
        "country": "India"
    },
    {
        "name": "\u00cdlhavo",
        "lat": "40.6000",
        "lng": "-8.6667",
        "country": "Portugal"
    },
    {
        "name": "Draa Ben Khedda",
        "lat": "36.7333",
        "lng": "3.9667",
        "country": "Algeria"
    },
    {
        "name": "Buyan",
        "lat": "23.9961",
        "lng": "120.4618",
        "country": "Taiwan"
    },
    {
        "name": "Navalcarnero",
        "lat": "40.2847",
        "lng": "-4.0136",
        "country": "Spain"
    },
    {
        "name": "Courcelles",
        "lat": "50.4667",
        "lng": "4.3667",
        "country": "Belgium"
    },
    {
        "name": "Plaisir",
        "lat": "48.8183",
        "lng": "1.9472",
        "country": "France"
    },
    {
        "name": "My\u014dk\u014d",
        "lat": "37.0252",
        "lng": "138.2535",
        "country": "Japan"
    },
    {
        "name": "New Bern",
        "lat": "35.0955",
        "lng": "-77.0723",
        "country": "United States"
    },
    {
        "name": "Kudymkar",
        "lat": "59.0167",
        "lng": "54.6667",
        "country": "Russia"
    },
    {
        "name": "Col\u00edder",
        "lat": "-10.8128",
        "lng": "-55.4550",
        "country": "Brazil"
    },
    {
        "name": "Bolobo",
        "lat": "-2.1667",
        "lng": "16.2333",
        "country": "Congo (Kinshasa)"
    },
    {
        "name": "Qu\u0163\u016br",
        "lat": "30.9735",
        "lng": "30.9563",
        "country": "Egypt"
    },
    {
        "name": "Sri M\u0101dhopur",
        "lat": "27.4667",
        "lng": "75.6000",
        "country": "India"
    },
    {
        "name": "Bagac",
        "lat": "14.5951",
        "lng": "120.3918",
        "country": "Philippines"
    },
    {
        "name": "Opelika",
        "lat": "32.6612",
        "lng": "-85.3769",
        "country": "United States"
    },
    {
        "name": "Humenn\u00e9",
        "lat": "48.9358",
        "lng": "21.9067",
        "country": "Slovakia"
    },
    {
        "name": "Ithaca",
        "lat": "42.4442",
        "lng": "-76.5032",
        "country": "United States"
    },
    {
        "name": "Hoyerswerda",
        "lat": "51.4333",
        "lng": "14.2500",
        "country": "Germany"
    },
    {
        "name": "Villaricca",
        "lat": "40.9167",
        "lng": "14.2000",
        "country": "Italy"
    },
    {
        "name": "Dasol",
        "lat": "15.9896",
        "lng": "119.8805",
        "country": "Philippines"
    },
    {
        "name": "Nicholasville",
        "lat": "37.8906",
        "lng": "-84.5668",
        "country": "United States"
    },
    {
        "name": "Point Pedro",
        "lat": "9.8167",
        "lng": "80.2333",
        "country": "Sri Lanka"
    },
    {
        "name": "Guamo",
        "lat": "4.0833",
        "lng": "-74.9167",
        "country": "Colombia"
    },
    {
        "name": "Maralal",
        "lat": "1.1000",
        "lng": "36.7000",
        "country": "Kenya"
    },
    {
        "name": "Lumding",
        "lat": "25.7500",
        "lng": "93.1700",
        "country": "India"
    },
    {
        "name": "C\u00e2ndido Mota",
        "lat": "-22.7464",
        "lng": "-50.3869",
        "country": "Brazil"
    },
    {
        "name": "Norwood",
        "lat": "42.1861",
        "lng": "-71.1948",
        "country": "United States"
    },
    {
        "name": "Waddinxveen",
        "lat": "52.0500",
        "lng": "4.6500",
        "country": "Netherlands"
    },
    {
        "name": "Dimataling",
        "lat": "7.5297",
        "lng": "123.3661",
        "country": "Philippines"
    },
    {
        "name": "Mamaroneck",
        "lat": "40.9443",
        "lng": "-73.7488",
        "country": "United States"
    },
    {
        "name": "Wenxian Chengguanzhen",
        "lat": "32.9421",
        "lng": "104.6870",
        "country": "China"
    },
    {
        "name": "Odorheiu Secuiesc",
        "lat": "46.3139",
        "lng": "25.3017",
        "country": "Romania"
    },
    {
        "name": "Kl\u00e9la",
        "lat": "11.6875",
        "lng": "-5.6639",
        "country": "Mali"
    },
    {
        "name": "Diemen",
        "lat": "52.3333",
        "lng": "4.9667",
        "country": "Netherlands"
    },
    {
        "name": "Hitoyoshi",
        "lat": "32.2167",
        "lng": "130.7500",
        "country": "Japan"
    },
    {
        "name": "Monjas",
        "lat": "14.5000",
        "lng": "-89.8667",
        "country": "Guatemala"
    },
    {
        "name": "Kandalaksha",
        "lat": "67.1569",
        "lng": "32.4117",
        "country": "Russia"
    },
    {
        "name": "Rio das Pedras",
        "lat": "-22.8428",
        "lng": "-47.6058",
        "country": "Brazil"
    },
    {
        "name": "Gongguan",
        "lat": "24.5053",
        "lng": "120.8447",
        "country": "Taiwan"
    },
    {
        "name": "Pontoise",
        "lat": "49.0516",
        "lng": "2.1017",
        "country": "France"
    },
    {
        "name": "Redan",
        "lat": "33.7394",
        "lng": "-84.1644",
        "country": "United States"
    },
    {
        "name": "Tanmen",
        "lat": "19.2429",
        "lng": "110.6120",
        "country": "China"
    },
    {
        "name": "Sherpur Khurd",
        "lat": "25.5565",
        "lng": "83.8052",
        "country": "India"
    },
    {
        "name": "Ara\u00e7oiaba da Serra",
        "lat": "-23.5053",
        "lng": "-47.6142",
        "country": "Brazil"
    },
    {
        "name": "Ibanda",
        "lat": "-0.1347",
        "lng": "30.4950",
        "country": "Uganda"
    },
    {
        "name": "Altenburg",
        "lat": "50.9850",
        "lng": "12.4333",
        "country": "Germany"
    },
    {
        "name": "Netivot",
        "lat": "31.4167",
        "lng": "34.5833",
        "country": "Israel"
    },
    {
        "name": "\u0130mi\u015fli",
        "lat": "39.8697",
        "lng": "48.0600",
        "country": "Azerbaijan"
    },
    {
        "name": "Magsingal",
        "lat": "17.6850",
        "lng": "120.4244",
        "country": "Philippines"
    },
    {
        "name": "Yah\u015fihan",
        "lat": "39.8503",
        "lng": "33.4536",
        "country": "Turkey"
    },
    {
        "name": "Bel Air North",
        "lat": "39.5543",
        "lng": "-76.3732",
        "country": "United States"
    },
    {
        "name": "R\u00edo Bravo",
        "lat": "14.4011",
        "lng": "-91.3195",
        "country": "Guatemala"
    },
    {
        "name": "Zaqatala",
        "lat": "41.6336",
        "lng": "46.6433",
        "country": "Azerbaijan"
    },
    {
        "name": "Eyv\u0101n",
        "lat": "33.8278",
        "lng": "46.3061",
        "country": "Iran"
    },
    {
        "name": "Ma\u1e29allat Damanah",
        "lat": "31.0754",
        "lng": "31.4959",
        "country": "Egypt"
    },
    {
        "name": "Mograne",
        "lat": "34.4167",
        "lng": "-6.4333",
        "country": "Morocco"
    },
    {
        "name": "Shimotoba",
        "lat": "34.8833",
        "lng": "135.6667",
        "country": "Japan"
    },
    {
        "name": "Yby Ya\u00fa",
        "lat": "-22.9631",
        "lng": "-56.5358",
        "country": "Paraguay"
    },
    {
        "name": "Port Chester",
        "lat": "41.0051",
        "lng": "-73.6680",
        "country": "United States"
    },
    {
        "name": "Burgdorf",
        "lat": "52.4500",
        "lng": "10.0083",
        "country": "Germany"
    },
    {
        "name": "Ennery",
        "lat": "19.4833",
        "lng": "-72.4833",
        "country": "Haiti"
    },
    {
        "name": "Ch\u00e2tellerault",
        "lat": "46.8178",
        "lng": "0.5461",
        "country": "France"
    },
    {
        "name": "Aguada de Pasajeros",
        "lat": "22.3847",
        "lng": "-80.8461",
        "country": "Cuba"
    },
    {
        "name": "Ivisan",
        "lat": "11.5217",
        "lng": "122.6908",
        "country": "Philippines"
    },
    {
        "name": "Bandeirantes",
        "lat": "-23.1100",
        "lng": "-50.3678",
        "country": "Brazil"
    },
    {
        "name": "Vadakakarai",
        "lat": "10.1731",
        "lng": "76.2096",
        "country": "India"
    },
    {
        "name": "Tiquipaya",
        "lat": "-17.3333",
        "lng": "-66.2167",
        "country": "Bolivia"
    },
    {
        "name": "Boghni",
        "lat": "36.5500",
        "lng": "3.9500",
        "country": "Algeria"
    },
    {
        "name": "\u014ciso",
        "lat": "35.3086",
        "lng": "139.3128",
        "country": "Japan"
    },
    {
        "name": "Petrovac na Mlavi",
        "lat": "44.3783",
        "lng": "21.4194",
        "country": "Serbia"
    },
    {
        "name": "Hendrik-Ido-Ambacht",
        "lat": "51.8500",
        "lng": "4.6333",
        "country": "Netherlands"
    },
    {
        "name": "Inkhil",
        "lat": "33.0000",
        "lng": "36.1167",
        "country": "Syria"
    },
    {
        "name": "Siliana",
        "lat": "36.0819",
        "lng": "9.3747",
        "country": "Tunisia"
    },
    {
        "name": "Parnarama",
        "lat": "-5.6833",
        "lng": "-43.1000",
        "country": "Brazil"
    },
    {
        "name": "Rillieux-la-Pape",
        "lat": "45.8214",
        "lng": "4.8983",
        "country": "France"
    },
    {
        "name": "N\u0101spur",
        "lat": "18.8604",
        "lng": "79.4849",
        "country": "India"
    },
    {
        "name": "Carangola",
        "lat": "-20.7328",
        "lng": "-42.0289",
        "country": "Brazil"
    },
    {
        "name": "La Verne",
        "lat": "34.1207",
        "lng": "-117.7703",
        "country": "United States"
    },
    {
        "name": "Unchagao",
        "lat": "16.6988",
        "lng": "74.2749",
        "country": "India"
    },
    {
        "name": "Esperan\u00e7a",
        "lat": "-7.0228",
        "lng": "-35.5975",
        "country": "Brazil"
    },
    {
        "name": "Barrinha",
        "lat": "-21.1946",
        "lng": "-48.1644",
        "country": "Brazil"
    },
    {
        "name": "Changuinola",
        "lat": "9.4333",
        "lng": "-82.5167",
        "country": "Panama"
    },
    {
        "name": "Salg\u00f3tarj\u00e1n",
        "lat": "48.1040",
        "lng": "19.8075",
        "country": "Hungary"
    },
    {
        "name": "Valkenswaard",
        "lat": "51.3500",
        "lng": "5.4667",
        "country": "Netherlands"
    },
    {
        "name": "Rosmalen",
        "lat": "51.7167",
        "lng": "5.3667",
        "country": "Netherlands"
    },
    {
        "name": "Kosonsoy",
        "lat": "41.2500",
        "lng": "71.5500",
        "country": "Uzbekistan"
    },
    {
        "name": "Pocon\u00e9",
        "lat": "-16.2667",
        "lng": "-56.6333",
        "country": "Brazil"
    }
]