[
    {
        "name": "Sabana Yegua",
        "lat": "18.7200",
        "lng": "-71.0200",
        "country": "Dominican Republic"
    },
    {
        "name": "Jem\u2019at Oulad \u2019Abbou",
        "lat": "33.1156",
        "lng": "-7.9333",
        "country": "Morocco"
    },
    {
        "name": "Periya Soragai",
        "lat": "11.7394",
        "lng": "77.9170",
        "country": "India"
    },
    {
        "name": "Lafrayta",
        "lat": "31.9167",
        "lng": "-7.2500",
        "country": "Morocco"
    },
    {
        "name": "Sebba",
        "lat": "13.4333",
        "lng": "0.5333",
        "country": "Burkina Faso"
    },
    {
        "name": "Inhassoro",
        "lat": "-21.5333",
        "lng": "35.2000",
        "country": "Mozambique"
    },
    {
        "name": "Lieksa",
        "lat": "63.3167",
        "lng": "30.0167",
        "country": "Finland"
    },
    {
        "name": "Caldogno",
        "lat": "45.6000",
        "lng": "11.4944",
        "country": "Italy"
    },
    {
        "name": "Miasskoye",
        "lat": "55.2825",
        "lng": "61.8939",
        "country": "Russia"
    },
    {
        "name": "Ichinohe",
        "lat": "40.2129",
        "lng": "141.2954",
        "country": "Japan"
    },
    {
        "name": "Estiva Gerbi",
        "lat": "-22.2708",
        "lng": "-46.9450",
        "country": "Brazil"
    },
    {
        "name": "Gualcince",
        "lat": "14.1167",
        "lng": "-88.5500",
        "country": "Honduras"
    },
    {
        "name": "Batemans Bay",
        "lat": "-35.7081",
        "lng": "150.1744",
        "country": "Australia"
    },
    {
        "name": "Caotan",
        "lat": "36.2501",
        "lng": "105.1742",
        "country": "China"
    },
    {
        "name": "Singura",
        "lat": "24.7928",
        "lng": "92.9510",
        "country": "India"
    },
    {
        "name": "Commune Sidi Youssef Ben Ahmed",
        "lat": "33.7861",
        "lng": "-4.8152",
        "country": "Morocco"
    },
    {
        "name": "El Ghourdane",
        "lat": "32.3205",
        "lng": "-8.7637",
        "country": "Morocco"
    },
    {
        "name": "Arslanbob",
        "lat": "41.3333",
        "lng": "72.9333",
        "country": "Kyrgyzstan"
    },
    {
        "name": "Drochtersen",
        "lat": "53.7000",
        "lng": "9.3833",
        "country": "Germany"
    },
    {
        "name": "Bad Nenndorf",
        "lat": "52.3369",
        "lng": "9.3786",
        "country": "Germany"
    },
    {
        "name": "Panpuli",
        "lat": "9.0214",
        "lng": "77.2502",
        "country": "India"
    },
    {
        "name": "Teano",
        "lat": "41.2500",
        "lng": "14.0667",
        "country": "Italy"
    },
    {
        "name": "Getulina",
        "lat": "-21.7986",
        "lng": "-49.9286",
        "country": "Brazil"
    },
    {
        "name": "Chorleywood",
        "lat": "51.6500",
        "lng": "-0.5100",
        "country": "United Kingdom"
    },
    {
        "name": "Antsambalahy",
        "lat": "-14.7167",
        "lng": "49.9167",
        "country": "Madagascar"
    },
    {
        "name": "Golfito",
        "lat": "8.6526",
        "lng": "-83.1733",
        "country": "Costa Rica"
    },
    {
        "name": "B\u00e1tonyterenye",
        "lat": "47.9892",
        "lng": "19.8286",
        "country": "Hungary"
    },
    {
        "name": "Tikota",
        "lat": "16.7600",
        "lng": "75.6200",
        "country": "India"
    },
    {
        "name": "Amatenango del Valle",
        "lat": "16.5167",
        "lng": "-92.4000",
        "country": "Mexico"
    },
    {
        "name": "Ban Kat",
        "lat": "18.1764",
        "lng": "97.9339",
        "country": "Thailand"
    },
    {
        "name": "Stamboliyski",
        "lat": "42.1333",
        "lng": "24.5333",
        "country": "Bulgaria"
    },
    {
        "name": "Svitlodarsk",
        "lat": "48.4333",
        "lng": "38.2167",
        "country": "Ukraine"
    },
    {
        "name": "Pedro de Toledo",
        "lat": "-24.2747",
        "lng": "-47.2328",
        "country": "Brazil"
    },
    {
        "name": "Arpajon",
        "lat": "48.5901",
        "lng": "2.2476",
        "country": "France"
    },
    {
        "name": "Norwell",
        "lat": "42.1608",
        "lng": "-70.8177",
        "country": "United States"
    },
    {
        "name": "Dourdan",
        "lat": "48.5289",
        "lng": "2.0156",
        "country": "France"
    },
    {
        "name": "Limavady",
        "lat": "55.0530",
        "lng": "-6.9460",
        "country": "United Kingdom"
    },
    {
        "name": "Stanwell",
        "lat": "51.4570",
        "lng": "-0.4715",
        "country": "United Kingdom"
    },
    {
        "name": "De Doorns",
        "lat": "-33.4833",
        "lng": "19.6833",
        "country": "South Africa"
    },
    {
        "name": "Beldibi",
        "lat": "36.8667",
        "lng": "28.2667",
        "country": "Turkey"
    },
    {
        "name": "North Dundas",
        "lat": "45.0833",
        "lng": "-75.3500",
        "country": "Canada"
    },
    {
        "name": "Eichenzell",
        "lat": "50.4833",
        "lng": "9.7000",
        "country": "Germany"
    },
    {
        "name": "Tramore",
        "lat": "52.1588",
        "lng": "-7.1463",
        "country": "Ireland"
    },
    {
        "name": "Lakeland Highlands",
        "lat": "27.9572",
        "lng": "-81.9496",
        "country": "United States"
    },
    {
        "name": "Pipariya",
        "lat": "25.2593",
        "lng": "86.1149",
        "country": "India"
    },
    {
        "name": "Somav\u0101rappatti",
        "lat": "10.6779",
        "lng": "77.2131",
        "country": "India"
    },
    {
        "name": "Biri",
        "lat": "12.6700",
        "lng": "124.3800",
        "country": "Philippines"
    },
    {
        "name": "Majanji",
        "lat": "0.2408",
        "lng": "33.9914",
        "country": "Uganda"
    },
    {
        "name": "Saj\u00f3szentp\u00e9ter",
        "lat": "48.2167",
        "lng": "20.7167",
        "country": "Hungary"
    },
    {
        "name": "Kanh\u0101ipur",
        "lat": "25.4542",
        "lng": "85.8396",
        "country": "India"
    },
    {
        "name": "Caimanera",
        "lat": "19.9947",
        "lng": "-75.1600",
        "country": "Cuba"
    },
    {
        "name": "Bhilavadi",
        "lat": "16.8586",
        "lng": "74.3317",
        "country": "India"
    },
    {
        "name": "Seneffe",
        "lat": "50.5167",
        "lng": "4.2500",
        "country": "Belgium"
    },
    {
        "name": "Dammartin-en-Go\u00eble",
        "lat": "49.0538",
        "lng": "2.6817",
        "country": "France"
    },
    {
        "name": "Iskap\u0101lem",
        "lat": "14.5416",
        "lng": "79.8925",
        "country": "India"
    },
    {
        "name": "Curimat\u00e1",
        "lat": "-10.0358",
        "lng": "-44.3058",
        "country": "Brazil"
    },
    {
        "name": "Cove\u00f1as",
        "lat": "9.4167",
        "lng": "-75.7000",
        "country": "Colombia"
    },
    {
        "name": "Astley",
        "lat": "53.5008",
        "lng": "-2.4454",
        "country": "United Kingdom"
    },
    {
        "name": "Fallersleben",
        "lat": "52.4189",
        "lng": "10.7169",
        "country": "Germany"
    },
    {
        "name": "Riebeeckstad",
        "lat": "-27.9188",
        "lng": "26.8188",
        "country": "South Africa"
    },
    {
        "name": "Simeria",
        "lat": "45.8500",
        "lng": "23.0100",
        "country": "Romania"
    },
    {
        "name": "Sinor",
        "lat": "22.0000",
        "lng": "73.3000",
        "country": "India"
    },
    {
        "name": "Asthal Bohar",
        "lat": "28.8730",
        "lng": "76.6420",
        "country": "India"
    },
    {
        "name": "Caetano",
        "lat": "-14.3378",
        "lng": "-40.9100",
        "country": "Brazil"
    },
    {
        "name": "Bicske",
        "lat": "47.4907",
        "lng": "18.6363",
        "country": "Hungary"
    },
    {
        "name": "Samahuta",
        "lat": "25.8542",
        "lng": "84.6614",
        "country": "India"
    },
    {
        "name": "Burtonwood",
        "lat": "53.4302",
        "lng": "-2.6614",
        "country": "United Kingdom"
    },
    {
        "name": "B\u0101n\u0101var",
        "lat": "13.4167",
        "lng": "76.1667",
        "country": "India"
    },
    {
        "name": "Trecastagni",
        "lat": "37.6167",
        "lng": "15.0833",
        "country": "Italy"
    },
    {
        "name": "Lowes Island",
        "lat": "39.0471",
        "lng": "-77.3524",
        "country": "United States"
    },
    {
        "name": "Manvel",
        "lat": "29.4798",
        "lng": "-95.3635",
        "country": "United States"
    },
    {
        "name": "Derecik",
        "lat": "37.0830",
        "lng": "44.3110",
        "country": "Turkey"
    },
    {
        "name": "K\u016bshk",
        "lat": "32.6419",
        "lng": "51.4997",
        "country": "Iran"
    },
    {
        "name": "Ku\u0159im",
        "lat": "49.2986",
        "lng": "16.5314",
        "country": "Czechia"
    },
    {
        "name": "La Roche-sur-Foron",
        "lat": "46.0673",
        "lng": "6.3113",
        "country": "France"
    },
    {
        "name": "S\u012brpanandal",
        "lat": "11.9741",
        "lng": "79.0428",
        "country": "India"
    },
    {
        "name": "Maryport",
        "lat": "54.7128",
        "lng": "-3.4926",
        "country": "United Kingdom"
    },
    {
        "name": "Bara Belun",
        "lat": "23.4007",
        "lng": "87.9733",
        "country": "India"
    },
    {
        "name": "Ventersburg",
        "lat": "-28.0833",
        "lng": "27.1333",
        "country": "South Africa"
    },
    {
        "name": "S\u00f8gne",
        "lat": "58.0942",
        "lng": "7.7725",
        "country": "Norway"
    },
    {
        "name": "Beclean",
        "lat": "47.1797",
        "lng": "24.1797",
        "country": "Romania"
    },
    {
        "name": "Largs",
        "lat": "55.7950",
        "lng": "-4.8700",
        "country": "United Kingdom"
    },
    {
        "name": "Westphalia",
        "lat": "38.8356",
        "lng": "-76.8298",
        "country": "United States"
    },
    {
        "name": "Ocean City",
        "lat": "39.2681",
        "lng": "-74.6020",
        "country": "United States"
    },
    {
        "name": "Sosenskiy",
        "lat": "54.0500",
        "lng": "35.9667",
        "country": "Russia"
    },
    {
        "name": "Edd",
        "lat": "13.9333",
        "lng": "41.7000",
        "country": "Eritrea"
    },
    {
        "name": "Arcachon",
        "lat": "44.6500",
        "lng": "-1.1700",
        "country": "France"
    },
    {
        "name": "Boultham",
        "lat": "53.2140",
        "lng": "-0.5561",
        "country": "United Kingdom"
    },
    {
        "name": "T\u0101mba",
        "lat": "17.0001",
        "lng": "75.9934",
        "country": "India"
    },
    {
        "name": "Dati\u0101na",
        "lat": "25.4834",
        "lng": "84.8628",
        "country": "India"
    },
    {
        "name": "Kov\u016brupalli",
        "lat": "14.7772",
        "lng": "79.9999",
        "country": "India"
    },
    {
        "name": "Sant\u2019Ilario d\u2019Enza",
        "lat": "44.7667",
        "lng": "10.4500",
        "country": "Italy"
    },
    {
        "name": "Niasso",
        "lat": "12.6333",
        "lng": "-4.5333",
        "country": "Mali"
    },
    {
        "name": "North Valley",
        "lat": "35.1736",
        "lng": "-106.6231",
        "country": "United States"
    },
    {
        "name": "J\u0101dopur Shukul",
        "lat": "26.5250",
        "lng": "84.4341",
        "country": "India"
    },
    {
        "name": "Groton",
        "lat": "42.6137",
        "lng": "-71.5614",
        "country": "United States"
    },
    {
        "name": "Poko",
        "lat": "3.1500",
        "lng": "26.8833",
        "country": "Congo (Kinshasa)"
    },
    {
        "name": "N\u0101r\u0101yanavanam",
        "lat": "13.4200",
        "lng": "79.5800",
        "country": "India"
    },
    {
        "name": "El Play\u00f3n",
        "lat": "7.4767",
        "lng": "-73.2081",
        "country": "Colombia"
    },
    {
        "name": "Kin",
        "lat": "26.4561",
        "lng": "127.9261",
        "country": "Japan"
    }
]