[
    {
        "name": "Gibara",
        "lat": "21.1072",
        "lng": "-76.1367",
        "country": "Cuba"
    },
    {
        "name": "Ratangarh",
        "lat": "28.0787",
        "lng": "74.6219",
        "country": "India"
    },
    {
        "name": "T\u0101nd\u016br",
        "lat": "17.2576",
        "lng": "77.5875",
        "country": "India"
    },
    {
        "name": "Bakhmut",
        "lat": "48.5947",
        "lng": "38.0008",
        "country": "Ukraine"
    },
    {
        "name": "Terme",
        "lat": "41.2092",
        "lng": "36.9739",
        "country": "Turkey"
    },
    {
        "name": "M\u0101rk\u0101pur",
        "lat": "15.7300",
        "lng": "79.2600",
        "country": "India"
    },
    {
        "name": "Bunbury",
        "lat": "-33.3272",
        "lng": "115.6369",
        "country": "Australia"
    },
    {
        "name": "Sihanoukville",
        "lat": "10.6333",
        "lng": "103.5000",
        "country": "Cambodia"
    },
    {
        "name": "Mauban",
        "lat": "14.1911",
        "lng": "121.7308",
        "country": "Philippines"
    },
    {
        "name": "Tejupilco",
        "lat": "18.9058",
        "lng": "-100.1528",
        "country": "Mexico"
    },
    {
        "name": "Alabang",
        "lat": "14.4184",
        "lng": "121.0385",
        "country": "Philippines"
    },
    {
        "name": "Goian\u00e9sia",
        "lat": "-15.3239",
        "lng": "-49.1189",
        "country": "Brazil"
    },
    {
        "name": "Warzat",
        "lat": "30.9167",
        "lng": "-6.9167",
        "country": "Morocco"
    },
    {
        "name": "Montecristi",
        "lat": "-1.0500",
        "lng": "-80.6667",
        "country": "Ecuador"
    },
    {
        "name": "Ayval\u0131k",
        "lat": "39.3167",
        "lng": "26.6944",
        "country": "Turkey"
    },
    {
        "name": "Nadi",
        "lat": "-17.8000",
        "lng": "177.4167",
        "country": "Fiji"
    },
    {
        "name": "Zogr\u00e1fos",
        "lat": "37.9783",
        "lng": "23.7717",
        "country": "Greece"
    },
    {
        "name": "An Nu\u2018m\u0101n\u012byah",
        "lat": "32.5000",
        "lng": "45.3333",
        "country": "Iraq"
    },
    {
        "name": "Izalco",
        "lat": "13.7333",
        "lng": "-89.6667",
        "country": "El Salvador"
    },
    {
        "name": "Malaut",
        "lat": "30.1900",
        "lng": "74.4990",
        "country": "India"
    },
    {
        "name": "Lowestoft",
        "lat": "52.4800",
        "lng": "1.7500",
        "country": "United Kingdom"
    },
    {
        "name": "Waukesha",
        "lat": "43.0087",
        "lng": "-88.2464",
        "country": "United States"
    },
    {
        "name": "Samraong",
        "lat": "14.2500",
        "lng": "103.5833",
        "country": "Cambodia"
    },
    {
        "name": "Kopargo",
        "lat": "9.8375",
        "lng": "1.5481",
        "country": "Benin"
    },
    {
        "name": "Phitsanulok",
        "lat": "16.8158",
        "lng": "100.2636",
        "country": "Thailand"
    },
    {
        "name": "Kodungall\u016br",
        "lat": "10.2338",
        "lng": "76.1946",
        "country": "India"
    },
    {
        "name": "Corozal",
        "lat": "9.3333",
        "lng": "-75.2500",
        "country": "Colombia"
    },
    {
        "name": "Neyy\u0101ttinkara",
        "lat": "8.4000",
        "lng": "77.0800",
        "country": "India"
    },
    {
        "name": "Kumanovo",
        "lat": "42.1322",
        "lng": "21.7144",
        "country": "North Macedonia"
    },
    {
        "name": "Fairbanks",
        "lat": "64.8353",
        "lng": "-147.6533",
        "country": "United States"
    },
    {
        "name": "Ejura",
        "lat": "7.3833",
        "lng": "-1.3667",
        "country": "Ghana"
    },
    {
        "name": "Zinjib\u0101r",
        "lat": "13.1283",
        "lng": "45.3803",
        "country": "Yemen"
    },
    {
        "name": "Sesvete",
        "lat": "45.8269",
        "lng": "16.1111",
        "country": "Croatia"
    },
    {
        "name": "\u00c9rd",
        "lat": "47.3784",
        "lng": "18.9220",
        "country": "Hungary"
    },
    {
        "name": "Zadar",
        "lat": "44.1194",
        "lng": "15.2319",
        "country": "Croatia"
    },
    {
        "name": "Fateh\u0101b\u0101d",
        "lat": "29.5200",
        "lng": "75.4500",
        "country": "India"
    },
    {
        "name": "B\u0101patla",
        "lat": "15.9044",
        "lng": "80.4675",
        "country": "India"
    },
    {
        "name": "Kalamasseri",
        "lat": "10.0520",
        "lng": "76.3158",
        "country": "India"
    },
    {
        "name": "Tumauini",
        "lat": "17.2700",
        "lng": "121.8000",
        "country": "Philippines"
    },
    {
        "name": "Izmail",
        "lat": "45.3517",
        "lng": "28.8364",
        "country": "Ukraine"
    },
    {
        "name": "Ostr\u00f3w Wielkopolski",
        "lat": "51.6494",
        "lng": "17.8164",
        "country": "Poland"
    },
    {
        "name": "Lakeville",
        "lat": "44.6774",
        "lng": "-93.2520",
        "country": "United States"
    },
    {
        "name": "St. Charles",
        "lat": "38.7954",
        "lng": "-90.5157",
        "country": "United States"
    },
    {
        "name": "\u015eirvan",
        "lat": "39.9323",
        "lng": "48.9203",
        "country": "Azerbaijan"
    },
    {
        "name": "Al Qurayy\u0101",
        "lat": "35.0025",
        "lng": "40.5117",
        "country": "Syria"
    },
    {
        "name": "Gard\u0113z",
        "lat": "33.6000",
        "lng": "69.2169",
        "country": "Afghanistan"
    },
    {
        "name": "Cremona",
        "lat": "45.1333",
        "lng": "10.0247",
        "country": "Italy"
    },
    {
        "name": "Pavia",
        "lat": "45.1850",
        "lng": "9.1542",
        "country": "Italy"
    },
    {
        "name": "Rugby",
        "lat": "52.3700",
        "lng": "-1.2600",
        "country": "United Kingdom"
    },
    {
        "name": "Badvel",
        "lat": "14.7500",
        "lng": "79.0500",
        "country": "India"
    },
    {
        "name": "Loul\u00e9",
        "lat": "37.1500",
        "lng": "-8.0000",
        "country": "Portugal"
    },
    {
        "name": "Redondo Beach",
        "lat": "33.8577",
        "lng": "-118.3765",
        "country": "United States"
    },
    {
        "name": "Yinying",
        "lat": "37.9410",
        "lng": "113.5602",
        "country": "China"
    },
    {
        "name": "Chiang Rai",
        "lat": "19.9094",
        "lng": "99.8275",
        "country": "Thailand"
    },
    {
        "name": "Karasu",
        "lat": "41.1036",
        "lng": "30.6936",
        "country": "Turkey"
    },
    {
        "name": "Shujaabad",
        "lat": "29.8803",
        "lng": "71.2950",
        "country": "Pakistan"
    },
    {
        "name": "Stafford",
        "lat": "52.8070",
        "lng": "-2.1170",
        "country": "United Kingdom"
    },
    {
        "name": "V\u0101lp\u0101rai",
        "lat": "10.3276",
        "lng": "76.9553",
        "country": "India"
    },
    {
        "name": "Yambol",
        "lat": "42.4833",
        "lng": "26.5000",
        "country": "Bulgaria"
    },
    {
        "name": "Djemmal",
        "lat": "35.6400",
        "lng": "10.7600",
        "country": "Tunisia"
    },
    {
        "name": "Chingford",
        "lat": "51.6230",
        "lng": "0.0090",
        "country": "United Kingdom"
    },
    {
        "name": "Cabudare",
        "lat": "10.0331",
        "lng": "-69.2633",
        "country": "Venezuela"
    },
    {
        "name": "Sankaranayin\u0101r Kovil",
        "lat": "9.1600",
        "lng": "77.5500",
        "country": "India"
    },
    {
        "name": "Xangongo",
        "lat": "-16.7467",
        "lng": "14.9747",
        "country": "Angola"
    },
    {
        "name": "Uxbridge",
        "lat": "51.5404",
        "lng": "-0.4778",
        "country": "United Kingdom"
    },
    {
        "name": "Zenica",
        "lat": "44.2039",
        "lng": "17.9078",
        "country": "Bosnia and Herzegovina"
    },
    {
        "name": "Chekhov",
        "lat": "55.1500",
        "lng": "37.4500",
        "country": "Russia"
    },
    {
        "name": "Bundaberg",
        "lat": "-24.8661",
        "lng": "152.3494",
        "country": "Australia"
    },
    {
        "name": "S\u016bratgarh",
        "lat": "29.3177",
        "lng": "73.8989",
        "country": "India"
    },
    {
        "name": "Tamana",
        "lat": "32.9281",
        "lng": "130.5594",
        "country": "Japan"
    },
    {
        "name": "Kaukh\u0101li",
        "lat": "22.6333",
        "lng": "90.0667",
        "country": "Bangladesh"
    },
    {
        "name": "Sig",
        "lat": "35.5278",
        "lng": "-0.1861",
        "country": "Algeria"
    },
    {
        "name": "Bayonne",
        "lat": "40.6668",
        "lng": "-74.1158",
        "country": "United States"
    },
    {
        "name": "Coari",
        "lat": "-4.0850",
        "lng": "-63.1408",
        "country": "Brazil"
    },
    {
        "name": "Grand Forks",
        "lat": "47.9214",
        "lng": "-97.0884",
        "country": "United States"
    },
    {
        "name": "Baiquan",
        "lat": "47.6018",
        "lng": "126.0819",
        "country": "China"
    },
    {
        "name": "Mindelo",
        "lat": "16.8860",
        "lng": "-24.9880",
        "country": "Cabo Verde"
    },
    {
        "name": "Togoch\u2019al\u0113",
        "lat": "9.6014",
        "lng": "43.3361",
        "country": "Ethiopia"
    },
    {
        "name": "Noblesville",
        "lat": "40.0355",
        "lng": "-86.0042",
        "country": "United States"
    },
    {
        "name": "Torremolinos",
        "lat": "36.6218",
        "lng": "-4.5003",
        "country": "Spain"
    },
    {
        "name": "B\u016br Fu\u2019\u0101d",
        "lat": "31.2500",
        "lng": "32.3167",
        "country": "Egypt"
    },
    {
        "name": "Capanema",
        "lat": "-1.1958",
        "lng": "-47.1808",
        "country": "Brazil"
    },
    {
        "name": "Noisy-le-Grand",
        "lat": "48.8478",
        "lng": "2.5528",
        "country": "France"
    },
    {
        "name": "Yawata-shimizui",
        "lat": "34.8756",
        "lng": "135.7075",
        "country": "Japan"
    },
    {
        "name": "Aliaga",
        "lat": "15.5036",
        "lng": "120.8450",
        "country": "Philippines"
    },
    {
        "name": "Orani",
        "lat": "14.8000",
        "lng": "120.5300",
        "country": "Philippines"
    },
    {
        "name": "Dandeli",
        "lat": "15.2667",
        "lng": "74.6167",
        "country": "India"
    },
    {
        "name": "Santa Mar\u00eda La Pila",
        "lat": "15.6056",
        "lng": "-89.8125",
        "country": "Guatemala"
    },
    {
        "name": "Minxiong",
        "lat": "23.5504",
        "lng": "120.4457",
        "country": "Taiwan"
    },
    {
        "name": "Huwei",
        "lat": "23.7200",
        "lng": "120.4354",
        "country": "Taiwan"
    },
    {
        "name": "Bopa",
        "lat": "6.5833",
        "lng": "1.9833",
        "country": "Benin"
    },
    {
        "name": "Brumado",
        "lat": "-14.2036",
        "lng": "-41.6653",
        "country": "Brazil"
    },
    {
        "name": "Hav\u00ed\u0159ov",
        "lat": "49.7831",
        "lng": "18.4228",
        "country": "Czechia"
    },
    {
        "name": "Hujra Shah Muqim",
        "lat": "30.7333",
        "lng": "73.8167",
        "country": "Pakistan"
    },
    {
        "name": "\u015ea\u2018dah",
        "lat": "16.9400",
        "lng": "43.7592",
        "country": "Yemen"
    },
    {
        "name": "Ban Houayxay",
        "lat": "20.2631",
        "lng": "100.4336",
        "country": "Laos"
    },
    {
        "name": "N\u0101nd\u016bra Buzurg",
        "lat": "20.8333",
        "lng": "76.4597",
        "country": "India"
    },
    {
        "name": "Dimbokro",
        "lat": "6.6500",
        "lng": "-4.7000",
        "country": "C\u00f4te d\u2019Ivoire"
    },
    {
        "name": "Rizal",
        "lat": "15.7100",
        "lng": "121.1047",
        "country": "Philippines"
    },
    {
        "name": "Tinambac",
        "lat": "13.8183",
        "lng": "123.3244",
        "country": "Philippines"
    }
]