[
    {
        "name": "Polillo",
        "lat": "14.7200",
        "lng": "121.9500",
        "country": "Philippines"
    },
    {
        "name": "Yenice",
        "lat": "39.9308",
        "lng": "27.2581",
        "country": "Turkey"
    },
    {
        "name": "Nilka",
        "lat": "43.7826",
        "lng": "82.5089",
        "country": "China"
    },
    {
        "name": "Santa Maria Capua Vetere",
        "lat": "41.0833",
        "lng": "14.2500",
        "country": "Italy"
    },
    {
        "name": "Erdek",
        "lat": "40.3986",
        "lng": "27.7931",
        "country": "Turkey"
    },
    {
        "name": "Ca\u00f1uelas",
        "lat": "-35.0333",
        "lng": "-58.7333",
        "country": "Argentina"
    },
    {
        "name": "Cacolo",
        "lat": "-10.1333",
        "lng": "19.2667",
        "country": "Angola"
    },
    {
        "name": "Avellaneda",
        "lat": "-34.6625",
        "lng": "-58.3678",
        "country": "Argentina"
    },
    {
        "name": "Paso del Macho",
        "lat": "18.9667",
        "lng": "-96.7167",
        "country": "Mexico"
    },
    {
        "name": "Bayaguana",
        "lat": "18.7500",
        "lng": "-69.6333",
        "country": "Dominican Republic"
    },
    {
        "name": "Centereach",
        "lat": "40.8681",
        "lng": "-73.0821",
        "country": "United States"
    },
    {
        "name": "Turicato",
        "lat": "19.0500",
        "lng": "-101.4167",
        "country": "Mexico"
    },
    {
        "name": "Maryville",
        "lat": "35.7468",
        "lng": "-83.9789",
        "country": "United States"
    },
    {
        "name": "Aix-les-Bains",
        "lat": "45.6886",
        "lng": "5.9150",
        "country": "France"
    },
    {
        "name": "Kampong Thom",
        "lat": "12.7000",
        "lng": "104.9000",
        "country": "Cambodia"
    },
    {
        "name": "Jyv\u00e4skyl\u00e4n Maalaiskunta",
        "lat": "62.2889",
        "lng": "25.7417",
        "country": "Finland"
    },
    {
        "name": "Aleng\u0101d",
        "lat": "10.1000",
        "lng": "76.3000",
        "country": "India"
    },
    {
        "name": "Paipa",
        "lat": "5.8333",
        "lng": "-73.1500",
        "country": "Colombia"
    },
    {
        "name": "Dzier\u017coni\u00f3w",
        "lat": "50.7281",
        "lng": "16.6511",
        "country": "Poland"
    },
    {
        "name": "Oudenaarde",
        "lat": "50.8500",
        "lng": "3.6000",
        "country": "Belgium"
    },
    {
        "name": "B\u1eedu Long",
        "lat": "10.9600",
        "lng": "106.7967",
        "country": "Vietnam"
    },
    {
        "name": "Bahharet Oulad Ayyad",
        "lat": "34.7702",
        "lng": "-6.3047",
        "country": "Morocco"
    },
    {
        "name": "Palmeiras de Goi\u00e1s",
        "lat": "-16.7933",
        "lng": "-49.8853",
        "country": "Brazil"
    },
    {
        "name": "Guachav\u00e9s",
        "lat": "1.2219",
        "lng": "-77.6772",
        "country": "Colombia"
    },
    {
        "name": "Maur Kal\u0101n",
        "lat": "30.0800",
        "lng": "75.2500",
        "country": "India"
    },
    {
        "name": "Cleburne",
        "lat": "32.3568",
        "lng": "-97.4151",
        "country": "United States"
    },
    {
        "name": "El Oro de Hidalgo",
        "lat": "19.8008",
        "lng": "-100.1314",
        "country": "Mexico"
    },
    {
        "name": "Domingos Martins",
        "lat": "-20.3628",
        "lng": "-40.6589",
        "country": "Brazil"
    },
    {
        "name": "Willingboro",
        "lat": "40.0280",
        "lng": "-74.8882",
        "country": "United States"
    },
    {
        "name": "Exu",
        "lat": "-7.5119",
        "lng": "-39.7239",
        "country": "Brazil"
    },
    {
        "name": "Camaiore",
        "lat": "43.9333",
        "lng": "10.3000",
        "country": "Italy"
    },
    {
        "name": "Atwater",
        "lat": "37.3529",
        "lng": "-120.5959",
        "country": "United States"
    },
    {
        "name": "Sidi Ali",
        "lat": "36.1047",
        "lng": "0.4233",
        "country": "Algeria"
    },
    {
        "name": "Oer-Erkenschwick",
        "lat": "51.6422",
        "lng": "7.2508",
        "country": "Germany"
    },
    {
        "name": "Remchi",
        "lat": "35.0667",
        "lng": "-1.4333",
        "country": "Algeria"
    },
    {
        "name": "Pampanito",
        "lat": "9.4114",
        "lng": "-70.4958",
        "country": "Venezuela"
    },
    {
        "name": "Namegata",
        "lat": "35.9905",
        "lng": "140.4890",
        "country": "Japan"
    },
    {
        "name": "Jhanjh\u0101rpur",
        "lat": "26.2647",
        "lng": "86.2799",
        "country": "India"
    },
    {
        "name": "S\u00e3o Gotardo",
        "lat": "-19.3108",
        "lng": "-46.0489",
        "country": "Brazil"
    },
    {
        "name": "Ortak\u00f6y",
        "lat": "38.7361",
        "lng": "34.0403",
        "country": "Turkey"
    },
    {
        "name": "Alamnagar",
        "lat": "25.5610",
        "lng": "86.9014",
        "country": "India"
    },
    {
        "name": "Newburgh",
        "lat": "41.5531",
        "lng": "-74.0599",
        "country": "United States"
    },
    {
        "name": "Velikiy Ustyug",
        "lat": "60.7667",
        "lng": "46.3000",
        "country": "Russia"
    },
    {
        "name": "San Lucas Tolim\u00e1n",
        "lat": "14.6333",
        "lng": "-91.1333",
        "country": "Guatemala"
    },
    {
        "name": "Plettenberg Bay",
        "lat": "-34.0500",
        "lng": "23.3667",
        "country": "South Africa"
    },
    {
        "name": "Masi-Manimba",
        "lat": "-4.7790",
        "lng": "17.9077",
        "country": "Congo (Kinshasa)"
    },
    {
        "name": "Teykovo",
        "lat": "56.8547",
        "lng": "40.5411",
        "country": "Russia"
    },
    {
        "name": "Tongxiao",
        "lat": "24.4833",
        "lng": "120.6833",
        "country": "Taiwan"
    },
    {
        "name": "Stadskanaal",
        "lat": "52.9833",
        "lng": "6.9500",
        "country": "Netherlands"
    },
    {
        "name": "Bagasra",
        "lat": "21.4833",
        "lng": "70.9500",
        "country": "India"
    },
    {
        "name": "Gurup\u00e1",
        "lat": "-1.4050",
        "lng": "-51.6400",
        "country": "Brazil"
    },
    {
        "name": "San Pedro de Ribas",
        "lat": "41.2597",
        "lng": "1.7736",
        "country": "Spain"
    },
    {
        "name": "Hassi Khelifa",
        "lat": "33.5622",
        "lng": "6.9903",
        "country": "Algeria"
    },
    {
        "name": "Gallipoli",
        "lat": "40.4139",
        "lng": "26.6703",
        "country": "Turkey"
    },
    {
        "name": "Kottaikuppam",
        "lat": "11.9613",
        "lng": "79.8392",
        "country": "India"
    },
    {
        "name": "North Huntingdon",
        "lat": "40.3294",
        "lng": "-79.7336",
        "country": "United States"
    },
    {
        "name": "Ferre\u00f1afe",
        "lat": "-6.7183",
        "lng": "-79.7703",
        "country": "Peru"
    },
    {
        "name": "Montigny-le-Bretonneux",
        "lat": "48.7711",
        "lng": "2.0333",
        "country": "France"
    },
    {
        "name": "Salam\u00edna",
        "lat": "37.9667",
        "lng": "23.5000",
        "country": "Greece"
    },
    {
        "name": "Pantabangan",
        "lat": "15.8086",
        "lng": "121.1433",
        "country": "Philippines"
    },
    {
        "name": "Tubao",
        "lat": "16.3500",
        "lng": "120.4200",
        "country": "Philippines"
    },
    {
        "name": "Velliy\u014dd",
        "lat": "11.6256",
        "lng": "75.6294",
        "country": "India"
    },
    {
        "name": "Komagane",
        "lat": "35.7288",
        "lng": "137.9339",
        "country": "Japan"
    },
    {
        "name": "Bocana de Paiwas",
        "lat": "12.7861",
        "lng": "-85.1231",
        "country": "Nicaragua"
    },
    {
        "name": "Singia",
        "lat": "25.8424",
        "lng": "86.1622",
        "country": "India"
    },
    {
        "name": "General Jos\u00e9 de San Mart\u00edn",
        "lat": "-26.5375",
        "lng": "-59.3417",
        "country": "Argentina"
    },
    {
        "name": "Descalvado",
        "lat": "-21.9039",
        "lng": "-47.6028",
        "country": "Brazil"
    },
    {
        "name": "Y\u0131ld\u0131zeli",
        "lat": "39.8642",
        "lng": "36.5983",
        "country": "Turkey"
    },
    {
        "name": "Tekk\u0113kara Kizhakku",
        "lat": "9.2000",
        "lng": "76.5000",
        "country": "India"
    },
    {
        "name": "\u2019A\u00efn Abid",
        "lat": "36.2325",
        "lng": "6.9440",
        "country": "Algeria"
    },
    {
        "name": "La Man\u00e1",
        "lat": "-0.9300",
        "lng": "-79.2200",
        "country": "Ecuador"
    },
    {
        "name": "Tredyffrin",
        "lat": "40.0663",
        "lng": "-75.4540",
        "country": "United States"
    },
    {
        "name": "Farrokh Shahr",
        "lat": "32.2714",
        "lng": "50.9775",
        "country": "Iran"
    },
    {
        "name": "Sad\u0101b\u0101d",
        "lat": "27.4500",
        "lng": "78.0500",
        "country": "India"
    },
    {
        "name": "Amatenango de la Frontera",
        "lat": "15.5333",
        "lng": "-92.0833",
        "country": "Mexico"
    },
    {
        "name": "Al \u2018Ayd\u0101b\u012b",
        "lat": "17.2370",
        "lng": "42.9390",
        "country": "Saudi Arabia"
    },
    {
        "name": "Laramie",
        "lat": "41.3099",
        "lng": "-105.6085",
        "country": "United States"
    },
    {
        "name": "Donggou",
        "lat": "35.5621",
        "lng": "112.7046",
        "country": "China"
    },
    {
        "name": "La Uruca",
        "lat": "9.9575",
        "lng": "-84.1327",
        "country": "Costa Rica"
    },
    {
        "name": "Maebara",
        "lat": "35.1140",
        "lng": "140.0989",
        "country": "Japan"
    },
    {
        "name": "Kochugaon",
        "lat": "26.5518",
        "lng": "90.0762",
        "country": "India"
    },
    {
        "name": "Staffanstorp",
        "lat": "55.6333",
        "lng": "13.2000",
        "country": "Sweden"
    },
    {
        "name": "Bostani\u00e7i",
        "lat": "38.5072",
        "lng": "43.4356",
        "country": "Turkey"
    },
    {
        "name": "Tulj\u0101pur",
        "lat": "18.0000",
        "lng": "76.0800",
        "country": "India"
    },
    {
        "name": "Kav\u0101r",
        "lat": "29.2017",
        "lng": "52.6917",
        "country": "Iran"
    },
    {
        "name": "Santa Catarina Mita",
        "lat": "14.4500",
        "lng": "-89.7500",
        "country": "Guatemala"
    },
    {
        "name": "Sitionuevo",
        "lat": "10.7833",
        "lng": "-74.7167",
        "country": "Colombia"
    },
    {
        "name": "El Palmar",
        "lat": "14.6500",
        "lng": "-91.5833",
        "country": "Guatemala"
    },
    {
        "name": "Oldenzaal",
        "lat": "52.3167",
        "lng": "6.9333",
        "country": "Netherlands"
    },
    {
        "name": "Jaguaruana",
        "lat": "-4.8333",
        "lng": "-37.7833",
        "country": "Brazil"
    },
    {
        "name": "Dania Beach",
        "lat": "26.0593",
        "lng": "-80.1637",
        "country": "United States"
    },
    {
        "name": "L\u0101lgola",
        "lat": "24.4200",
        "lng": "88.2500",
        "country": "India"
    },
    {
        "name": "Rushden",
        "lat": "52.2880",
        "lng": "-0.6010",
        "country": "United Kingdom"
    },
    {
        "name": "Barad\u00e8res",
        "lat": "18.4825",
        "lng": "-73.6386",
        "country": "Haiti"
    },
    {
        "name": "Sigma",
        "lat": "11.4214",
        "lng": "122.6662",
        "country": "Philippines"
    },
    {
        "name": "Amecameca de Ju\u00e1rez",
        "lat": "19.7500",
        "lng": "-99.1711",
        "country": "Mexico"
    },
    {
        "name": "Zhaoyu",
        "lat": "37.3512",
        "lng": "112.3193",
        "country": "China"
    },
    {
        "name": "Garner",
        "lat": "35.6936",
        "lng": "-78.6181",
        "country": "United States"
    },
    {
        "name": "J\u0101sim",
        "lat": "32.9667",
        "lng": "36.0667",
        "country": "Syria"
    },
    {
        "name": "West Bend",
        "lat": "43.4173",
        "lng": "-88.1818",
        "country": "United States"
    }
]