[
    {
        "name": "Koula",
        "lat": "13.1167",
        "lng": "-7.6500",
        "country": "Mali"
    },
    {
        "name": "Bucay",
        "lat": "17.5400",
        "lng": "120.7200",
        "country": "Philippines"
    },
    {
        "name": "Ben Daoud",
        "lat": "35.7192",
        "lng": "0.5203",
        "country": "Algeria"
    },
    {
        "name": "Erum\u0101p\u0101laiyam",
        "lat": "11.6324",
        "lng": "78.1695",
        "country": "India"
    },
    {
        "name": "Barv\u0101la",
        "lat": "22.1500",
        "lng": "71.9000",
        "country": "India"
    },
    {
        "name": "Blythe",
        "lat": "33.6219",
        "lng": "-114.6195",
        "country": "United States"
    },
    {
        "name": "M\u016bkondapalli",
        "lat": "12.7514",
        "lng": "77.8017",
        "country": "India"
    },
    {
        "name": "Doylestown",
        "lat": "40.2962",
        "lng": "-75.1393",
        "country": "United States"
    },
    {
        "name": "Flora",
        "lat": "18.2147",
        "lng": "121.4186",
        "country": "Philippines"
    },
    {
        "name": "Loyalist",
        "lat": "44.2500",
        "lng": "-76.7500",
        "country": "Canada"
    },
    {
        "name": "Stilfontein",
        "lat": "-26.8428",
        "lng": "26.7744",
        "country": "South Africa"
    },
    {
        "name": "Yeddumail\u0101ram",
        "lat": "17.5011",
        "lng": "78.1242",
        "country": "India"
    },
    {
        "name": "Falk\u00f6ping",
        "lat": "58.1750",
        "lng": "13.5531",
        "country": "Sweden"
    },
    {
        "name": "Bischheim",
        "lat": "48.6144",
        "lng": "7.7528",
        "country": "France"
    },
    {
        "name": "Miyauchi",
        "lat": "38.0667",
        "lng": "140.1333",
        "country": "Japan"
    },
    {
        "name": "Madeley",
        "lat": "52.6370",
        "lng": "-2.4480",
        "country": "United Kingdom"
    },
    {
        "name": "Jiadong",
        "lat": "22.4305",
        "lng": "120.5471",
        "country": "Taiwan"
    },
    {
        "name": "Agliana",
        "lat": "43.9000",
        "lng": "11.0000",
        "country": "Italy"
    },
    {
        "name": "Kuchinda",
        "lat": "21.7436",
        "lng": "84.3485",
        "country": "India"
    },
    {
        "name": "Quipap\u00e1",
        "lat": "-8.8333",
        "lng": "-36.0333",
        "country": "Brazil"
    },
    {
        "name": "Tres de Mayo",
        "lat": "-26.4794",
        "lng": "-56.0961",
        "country": "Paraguay"
    },
    {
        "name": "Manthani",
        "lat": "18.6500",
        "lng": "79.6667",
        "country": "India"
    },
    {
        "name": "Burke Centre",
        "lat": "38.7903",
        "lng": "-77.2999",
        "country": "United States"
    },
    {
        "name": "Texistepeque",
        "lat": "14.1333",
        "lng": "-89.5000",
        "country": "El Salvador"
    },
    {
        "name": "Ammon",
        "lat": "43.4745",
        "lng": "-111.9568",
        "country": "United States"
    },
    {
        "name": "Gitagum",
        "lat": "8.5956",
        "lng": "124.4054",
        "country": "Philippines"
    },
    {
        "name": "Palmi",
        "lat": "38.3667",
        "lng": "15.8500",
        "country": "Italy"
    },
    {
        "name": "Olho d\u2019\u00c1gua das Cunh\u00e3s",
        "lat": "-4.1389",
        "lng": "-45.1200",
        "country": "Brazil"
    },
    {
        "name": "Coltauco",
        "lat": "-34.3000",
        "lng": "-71.1000",
        "country": "Chile"
    },
    {
        "name": "Kapsabet",
        "lat": "0.3333",
        "lng": "35.1667",
        "country": "Kenya"
    },
    {
        "name": "Shirosato",
        "lat": "36.4792",
        "lng": "140.3762",
        "country": "Japan"
    },
    {
        "name": "Alice",
        "lat": "27.7556",
        "lng": "-98.0653",
        "country": "United States"
    },
    {
        "name": "Uni\u00f3n de San Antonio",
        "lat": "21.1280",
        "lng": "-102.0060",
        "country": "Mexico"
    },
    {
        "name": "Roulia",
        "lat": "32.7972",
        "lng": "74.0639",
        "country": "Pakistan"
    },
    {
        "name": "Deux-Montagnes",
        "lat": "45.5333",
        "lng": "-73.8833",
        "country": "Canada"
    },
    {
        "name": "Itua\u00e7u",
        "lat": "-13.8167",
        "lng": "-41.3000",
        "country": "Brazil"
    },
    {
        "name": "Narni",
        "lat": "42.5167",
        "lng": "12.5167",
        "country": "Italy"
    },
    {
        "name": "Pelaya",
        "lat": "8.6833",
        "lng": "-73.6667",
        "country": "Colombia"
    },
    {
        "name": "Pornic",
        "lat": "47.1167",
        "lng": "-2.1000",
        "country": "France"
    },
    {
        "name": "Mab\u00e9hiri",
        "lat": "5.6833",
        "lng": "-6.4167",
        "country": "C\u00f4te d\u2019Ivoire"
    },
    {
        "name": "Ch\u00e2teauneuf-les-Martigues",
        "lat": "43.3838",
        "lng": "5.1650",
        "country": "France"
    },
    {
        "name": "Khokha",
        "lat": "25.9741",
        "lng": "87.4062",
        "country": "India"
    },
    {
        "name": "Natchitoches",
        "lat": "31.7315",
        "lng": "-93.0975",
        "country": "United States"
    },
    {
        "name": "Franconia",
        "lat": "38.7682",
        "lng": "-77.1587",
        "country": "United States"
    },
    {
        "name": "Wadowice",
        "lat": "49.8833",
        "lng": "19.5000",
        "country": "Poland"
    },
    {
        "name": "Glenvar Heights",
        "lat": "25.7090",
        "lng": "-80.3155",
        "country": "United States"
    },
    {
        "name": "Manambaro",
        "lat": "-25.0333",
        "lng": "46.8167",
        "country": "Madagascar"
    },
    {
        "name": "Saatl\u0131",
        "lat": "39.9311",
        "lng": "48.3697",
        "country": "Azerbaijan"
    },
    {
        "name": "Nyborg",
        "lat": "55.3122",
        "lng": "10.7897",
        "country": "Denmark"
    },
    {
        "name": "Kostrzyn nad Odr\u0105",
        "lat": "52.5883",
        "lng": "14.6667",
        "country": "Poland"
    },
    {
        "name": "Mebane",
        "lat": "36.0852",
        "lng": "-79.2736",
        "country": "United States"
    },
    {
        "name": "N\u00e3o-Me-Toque",
        "lat": "-28.4589",
        "lng": "-52.8208",
        "country": "Brazil"
    },
    {
        "name": "Garches",
        "lat": "48.8461",
        "lng": "2.1889",
        "country": "France"
    },
    {
        "name": "Nguigmi",
        "lat": "14.2532",
        "lng": "13.1108",
        "country": "Niger"
    },
    {
        "name": "Filad\u00e9lfia",
        "lat": "-10.7408",
        "lng": "-40.1328",
        "country": "Brazil"
    },
    {
        "name": "F\u00e1tima",
        "lat": "-10.6000",
        "lng": "-38.2169",
        "country": "Brazil"
    },
    {
        "name": "Tiffin",
        "lat": "41.1165",
        "lng": "-83.1805",
        "country": "United States"
    },
    {
        "name": "Zapotl\u00e1n del Rey",
        "lat": "20.4674",
        "lng": "-102.9248",
        "country": "Mexico"
    },
    {
        "name": "Sint-Oedenrode",
        "lat": "51.5667",
        "lng": "5.4667",
        "country": "Netherlands"
    },
    {
        "name": "Murambi",
        "lat": "-1.8133",
        "lng": "30.0456",
        "country": "Rwanda"
    },
    {
        "name": "Silv\u0101ni",
        "lat": "23.3026",
        "lng": "78.4408",
        "country": "India"
    },
    {
        "name": "Pudunagaram",
        "lat": "10.6810",
        "lng": "76.6611",
        "country": "India"
    },
    {
        "name": "Anoka",
        "lat": "45.2099",
        "lng": "-93.3893",
        "country": "United States"
    },
    {
        "name": "Puquio",
        "lat": "-14.6939",
        "lng": "-74.1241",
        "country": "Peru"
    },
    {
        "name": "Bafanji",
        "lat": "5.8361",
        "lng": "10.4000",
        "country": "Cameroon"
    },
    {
        "name": "Sanghera",
        "lat": "30.3986",
        "lng": "75.5614",
        "country": "India"
    },
    {
        "name": "Veldurti",
        "lat": "15.5667",
        "lng": "77.9167",
        "country": "India"
    },
    {
        "name": "\u00c7al",
        "lat": "38.0836",
        "lng": "29.3989",
        "country": "Turkey"
    },
    {
        "name": "Mount Eliza",
        "lat": "-38.1890",
        "lng": "145.0920",
        "country": "Australia"
    },
    {
        "name": "Yuanquan",
        "lat": "40.5004",
        "lng": "95.8000",
        "country": "China"
    },
    {
        "name": "Mungu\u00eda",
        "lat": "43.3547",
        "lng": "-2.8472",
        "country": "Spain"
    },
    {
        "name": "Guapiara",
        "lat": "-24.1850",
        "lng": "-48.5328",
        "country": "Brazil"
    },
    {
        "name": "Steiner Ranch",
        "lat": "30.3654",
        "lng": "-97.8960",
        "country": "United States"
    },
    {
        "name": "Gibsonton",
        "lat": "27.8260",
        "lng": "-82.3761",
        "country": "United States"
    },
    {
        "name": "Carm\u00f3polis de Minas",
        "lat": "-20.5500",
        "lng": "-44.6333",
        "country": "Brazil"
    },
    {
        "name": "Gaoniang",
        "lat": "26.8394",
        "lng": "109.1770",
        "country": "China"
    },
    {
        "name": "Santa Cruz Naranjo",
        "lat": "14.3833",
        "lng": "-90.3667",
        "country": "Guatemala"
    },
    {
        "name": "Vil\u0101ttikulam",
        "lat": "9.1312",
        "lng": "78.1687",
        "country": "India"
    },
    {
        "name": "El Bordj",
        "lat": "35.5158",
        "lng": "0.3017",
        "country": "Algeria"
    },
    {
        "name": "Ramsbottom",
        "lat": "53.6483",
        "lng": "-2.3167",
        "country": "United Kingdom"
    },
    {
        "name": "Tolentino",
        "lat": "43.2167",
        "lng": "13.3833",
        "country": "Italy"
    },
    {
        "name": "Patar",
        "lat": "40.3333",
        "lng": "70.4500",
        "country": "Tajikistan"
    },
    {
        "name": "Segu\u00e9",
        "lat": "13.8333",
        "lng": "-3.7500",
        "country": "Mali"
    },
    {
        "name": "Vordingborg",
        "lat": "55.0000",
        "lng": "11.9000",
        "country": "Denmark"
    },
    {
        "name": "Sa Kaeo",
        "lat": "13.8206",
        "lng": "102.0589",
        "country": "Thailand"
    },
    {
        "name": "Pimentel",
        "lat": "19.1833",
        "lng": "-70.1000",
        "country": "Dominican Republic"
    },
    {
        "name": "Chorti\u00e1tis",
        "lat": "40.6333",
        "lng": "23.0167",
        "country": "Greece"
    },
    {
        "name": "Mart\u016bru",
        "lat": "10.1694",
        "lng": "76.4292",
        "country": "India"
    },
    {
        "name": "Pachm\u012br",
        "lat": "25.4077",
        "lng": "86.3803",
        "country": "India"
    },
    {
        "name": "Marwa",
        "lat": "25.3994",
        "lng": "86.9257",
        "country": "India"
    },
    {
        "name": "San Kamphaeng",
        "lat": "18.7500",
        "lng": "99.1167",
        "country": "Thailand"
    },
    {
        "name": "Cenov\u00ed",
        "lat": "19.2500",
        "lng": "-70.3700",
        "country": "Dominican Republic"
    },
    {
        "name": "Manilva",
        "lat": "36.3833",
        "lng": "-5.2500",
        "country": "Spain"
    },
    {
        "name": "Sz\u00e1zhalombatta",
        "lat": "47.3004",
        "lng": "18.9136",
        "country": "Hungary"
    },
    {
        "name": "Loay",
        "lat": "9.6000",
        "lng": "124.0200",
        "country": "Philippines"
    },
    {
        "name": "Forst (Lausitz)",
        "lat": "51.7333",
        "lng": "14.6333",
        "country": "Germany"
    },
    {
        "name": "Colne",
        "lat": "53.8554",
        "lng": "-2.1756",
        "country": "United Kingdom"
    },
    {
        "name": "Sangenjo",
        "lat": "42.4017",
        "lng": "-8.8067",
        "country": "Spain"
    },
    {
        "name": "Carvin",
        "lat": "50.4939",
        "lng": "2.9589",
        "country": "France"
    },
    {
        "name": "Vissannapeta",
        "lat": "16.9398",
        "lng": "80.7828",
        "country": "India"
    }
]