[
    {
        "name": "Los Guayos",
        "lat": "10.1833",
        "lng": "-67.9333",
        "country": "Venezuela"
    },
    {
        "name": "Inezgane",
        "lat": "30.3658",
        "lng": "-9.5381",
        "country": "Morocco"
    },
    {
        "name": "Arcahaie",
        "lat": "18.7667",
        "lng": "-72.5167",
        "country": "Haiti"
    },
    {
        "name": "Bot\u0101d",
        "lat": "22.1700",
        "lng": "71.6700",
        "country": "India"
    },
    {
        "name": "Abiko",
        "lat": "35.8667",
        "lng": "140.0333",
        "country": "Japan"
    },
    {
        "name": "Tabarre",
        "lat": "18.5833",
        "lng": "-72.2667",
        "country": "Haiti"
    },
    {
        "name": "Udon Thani",
        "lat": "17.4167",
        "lng": "102.7500",
        "country": "Thailand"
    },
    {
        "name": "Baiyashi",
        "lat": "26.4019",
        "lng": "111.2864",
        "country": "China"
    },
    {
        "name": "Mojokerto",
        "lat": "-7.4722",
        "lng": "112.4336",
        "country": "Indonesia"
    },
    {
        "name": "Dover",
        "lat": "39.1610",
        "lng": "-75.5202",
        "country": "United States"
    },
    {
        "name": "Onomichi",
        "lat": "34.4167",
        "lng": "133.2000",
        "country": "Japan"
    },
    {
        "name": "Lucheng",
        "lat": "29.9985",
        "lng": "101.9569",
        "country": "China"
    },
    {
        "name": "Apucarana",
        "lat": "-23.5508",
        "lng": "-51.4608",
        "country": "Brazil"
    },
    {
        "name": "Jamund\u00ed",
        "lat": "3.2667",
        "lng": "-76.5500",
        "country": "Colombia"
    },
    {
        "name": "Ergani",
        "lat": "38.2692",
        "lng": "39.7617",
        "country": "Turkey"
    },
    {
        "name": "Relizane",
        "lat": "35.7333",
        "lng": "0.5500",
        "country": "Algeria"
    },
    {
        "name": "Polokwane",
        "lat": "-23.9000",
        "lng": "29.4500",
        "country": "South Africa"
    },
    {
        "name": "Aaley",
        "lat": "33.8000",
        "lng": "35.6000",
        "country": "Lebanon"
    },
    {
        "name": "Cili",
        "lat": "29.4225",
        "lng": "111.1219",
        "country": "China"
    },
    {
        "name": "Battambang",
        "lat": "13.1000",
        "lng": "103.2000",
        "country": "Cambodia"
    },
    {
        "name": "Taldyqorghan",
        "lat": "45.0167",
        "lng": "78.3667",
        "country": "Kazakhstan"
    },
    {
        "name": "Huejutla de Reyes",
        "lat": "21.1333",
        "lng": "-98.4167",
        "country": "Mexico"
    },
    {
        "name": "Bongaigaon",
        "lat": "26.4769",
        "lng": "90.5583",
        "country": "India"
    },
    {
        "name": "Bellingham",
        "lat": "48.7548",
        "lng": "-122.4690",
        "country": "United States"
    },
    {
        "name": "Mukeri\u0101n",
        "lat": "31.9500",
        "lng": "75.6200",
        "country": "India"
    },
    {
        "name": "Zwolle",
        "lat": "52.5167",
        "lng": "6.1000",
        "country": "Netherlands"
    },
    {
        "name": "Girardot",
        "lat": "4.3050",
        "lng": "-74.8017",
        "country": "Colombia"
    },
    {
        "name": "Vespasiano",
        "lat": "-19.6919",
        "lng": "-43.9228",
        "country": "Brazil"
    },
    {
        "name": "Limoges",
        "lat": "45.8353",
        "lng": "1.2625",
        "country": "France"
    },
    {
        "name": "Ponnagyun",
        "lat": "20.3342",
        "lng": "93.0039",
        "country": "Burma"
    },
    {
        "name": "Sukrah",
        "lat": "36.8833",
        "lng": "10.2500",
        "country": "Tunisia"
    },
    {
        "name": "Araruama",
        "lat": "-22.8728",
        "lng": "-42.3428",
        "country": "Brazil"
    },
    {
        "name": "\u00c7ay\u0131rova",
        "lat": "40.8000",
        "lng": "29.4167",
        "country": "Turkey"
    },
    {
        "name": "Hanum\u0101ngarh",
        "lat": "29.5800",
        "lng": "74.3200",
        "country": "India"
    },
    {
        "name": "Jetpur",
        "lat": "21.7542",
        "lng": "70.6222",
        "country": "India"
    },
    {
        "name": "Arcot",
        "lat": "12.9047",
        "lng": "79.3238",
        "country": "India"
    },
    {
        "name": "Kokubunji",
        "lat": "35.7109",
        "lng": "139.4622",
        "country": "Japan"
    },
    {
        "name": "Amherst",
        "lat": "43.0117",
        "lng": "-78.7570",
        "country": "United States"
    },
    {
        "name": "K\u0101nchr\u0101p\u0101ra",
        "lat": "22.9456",
        "lng": "88.4332",
        "country": "India"
    },
    {
        "name": "Parepare",
        "lat": "-4.0167",
        "lng": "119.6236",
        "country": "Indonesia"
    },
    {
        "name": "Ci\u00e9naga",
        "lat": "11.0069",
        "lng": "-74.2500",
        "country": "Colombia"
    },
    {
        "name": "Sabar\u00e1",
        "lat": "-19.8858",
        "lng": "-43.8069",
        "country": "Brazil"
    },
    {
        "name": "Chinguar",
        "lat": "-12.5500",
        "lng": "16.3333",
        "country": "Angola"
    },
    {
        "name": "Ferrara",
        "lat": "44.8333",
        "lng": "11.6167",
        "country": "Italy"
    },
    {
        "name": "Antsiranana",
        "lat": "-12.3000",
        "lng": "49.2833",
        "country": "Madagascar"
    },
    {
        "name": "Tottenham",
        "lat": "51.5975",
        "lng": "-0.0681",
        "country": "United Kingdom"
    },
    {
        "name": "Mansa",
        "lat": "-11.2000",
        "lng": "28.8833",
        "country": "Zambia"
    },
    {
        "name": "Jamaame",
        "lat": "0.0667",
        "lng": "42.7500",
        "country": "Somalia"
    },
    {
        "name": "Petapa",
        "lat": "14.5000",
        "lng": "-90.5667",
        "country": "Guatemala"
    },
    {
        "name": "Matar\u00f3",
        "lat": "41.5333",
        "lng": "2.4500",
        "country": "Spain"
    },
    {
        "name": "Cholula de Rivadabia",
        "lat": "19.0633",
        "lng": "-98.3064",
        "country": "Mexico"
    },
    {
        "name": "Idanre",
        "lat": "7.0922",
        "lng": "5.1322",
        "country": "Nigeria"
    },
    {
        "name": "Bamban",
        "lat": "15.2742",
        "lng": "120.5669",
        "country": "Philippines"
    },
    {
        "name": "Harar",
        "lat": "9.3111",
        "lng": "42.1278",
        "country": "Ethiopia"
    },
    {
        "name": "Sarhari",
        "lat": "26.1000",
        "lng": "68.4833",
        "country": "Pakistan"
    },
    {
        "name": "Guadalajara de Buga",
        "lat": "3.9000",
        "lng": "-76.3019",
        "country": "Colombia"
    },
    {
        "name": "D\u00f6rtyol",
        "lat": "36.8428",
        "lng": "36.2244",
        "country": "Turkey"
    },
    {
        "name": "Ulm",
        "lat": "48.4000",
        "lng": "9.9833",
        "country": "Germany"
    },
    {
        "name": "Bragan\u00e7a",
        "lat": "-1.0628",
        "lng": "-46.7728",
        "country": "Brazil"
    },
    {
        "name": "Mubi",
        "lat": "10.2667",
        "lng": "13.2667",
        "country": "Nigeria"
    },
    {
        "name": "Guagua",
        "lat": "14.9700",
        "lng": "120.6300",
        "country": "Philippines"
    },
    {
        "name": "Lynchburg",
        "lat": "37.4003",
        "lng": "-79.1909",
        "country": "United States"
    },
    {
        "name": "Songnim",
        "lat": "38.7542",
        "lng": "125.6450",
        "country": "Korea, North"
    },
    {
        "name": "Bat Yam",
        "lat": "32.0167",
        "lng": "34.7500",
        "country": "Israel"
    },
    {
        "name": "Kislovodsk",
        "lat": "43.9167",
        "lng": "42.7167",
        "country": "Russia"
    },
    {
        "name": "\u014csaki",
        "lat": "38.5771",
        "lng": "140.9556",
        "country": "Japan"
    },
    {
        "name": "V\u00e4ster\u00e5s",
        "lat": "59.6161",
        "lng": "16.5528",
        "country": "Sweden"
    },
    {
        "name": "Puno",
        "lat": "-15.8433",
        "lng": "-70.0236",
        "country": "Peru"
    },
    {
        "name": "Hoshang\u0101b\u0101d",
        "lat": "22.7475",
        "lng": "77.7274",
        "country": "India"
    },
    {
        "name": "T\u00e1riba",
        "lat": "7.8167",
        "lng": "-72.2167",
        "country": "Venezuela"
    },
    {
        "name": "Sa\u00efda",
        "lat": "34.8333",
        "lng": "0.1500",
        "country": "Algeria"
    },
    {
        "name": "Heilbronn",
        "lat": "49.1500",
        "lng": "9.2167",
        "country": "Germany"
    },
    {
        "name": "Ch\u0101s",
        "lat": "23.6300",
        "lng": "86.1700",
        "country": "India"
    },
    {
        "name": "Apatzingan de la Constitucion",
        "lat": "19.0886",
        "lng": "-102.3508",
        "country": "Mexico"
    },
    {
        "name": "Tuaran",
        "lat": "6.1833",
        "lng": "116.2333",
        "country": "Malaysia"
    },
    {
        "name": "Rudnyy",
        "lat": "52.9667",
        "lng": "63.1333",
        "country": "Kazakhstan"
    },
    {
        "name": "Nefteyugansk",
        "lat": "61.0833",
        "lng": "72.7000",
        "country": "Russia"
    },
    {
        "name": "Khanna",
        "lat": "30.7000",
        "lng": "76.2200",
        "country": "India"
    },
    {
        "name": "Ahmadpur East",
        "lat": "29.1439",
        "lng": "71.2592",
        "country": "Pakistan"
    },
    {
        "name": "Wazirabad",
        "lat": "32.4353",
        "lng": "74.1142",
        "country": "Pakistan"
    },
    {
        "name": "Avrankou",
        "lat": "6.5500",
        "lng": "2.6667",
        "country": "Benin"
    },
    {
        "name": "Vihari",
        "lat": "30.0419",
        "lng": "72.3528",
        "country": "Pakistan"
    },
    {
        "name": "Guasdualito",
        "lat": "7.2467",
        "lng": "-70.7292",
        "country": "Venezuela"
    },
    {
        "name": "Mosquera",
        "lat": "4.7078",
        "lng": "-74.2328",
        "country": "Colombia"
    },
    {
        "name": "Garut",
        "lat": "-7.2167",
        "lng": "107.9000",
        "country": "Indonesia"
    },
    {
        "name": "Votorantim",
        "lat": "-23.5469",
        "lng": "-47.4378",
        "country": "Brazil"
    },
    {
        "name": "Bu\u00f4n H\u1ed3",
        "lat": "12.8544",
        "lng": "108.2703",
        "country": "Vietnam"
    },
    {
        "name": "Abaji",
        "lat": "8.4756",
        "lng": "6.9433",
        "country": "Nigeria"
    },
    {
        "name": "Salm\u0101s",
        "lat": "38.2028",
        "lng": "44.7669",
        "country": "Iran"
    },
    {
        "name": "Domodedovo",
        "lat": "55.4400",
        "lng": "37.7619",
        "country": "Russia"
    },
    {
        "name": "Pforzheim",
        "lat": "48.8950",
        "lng": "8.7050",
        "country": "Germany"
    },
    {
        "name": "W\u00fcrzburg",
        "lat": "49.7833",
        "lng": "9.9333",
        "country": "Germany"
    },
    {
        "name": "J\u0101z\u0101n",
        "lat": "16.8892",
        "lng": "42.5611",
        "country": "Saudi Arabia"
    },
    {
        "name": "Norman",
        "lat": "35.2335",
        "lng": "-97.3471",
        "country": "United States"
    },
    {
        "name": "Santa Luc\u00eda Cotzumalguapa",
        "lat": "14.3500",
        "lng": "-91.0167",
        "country": "Guatemala"
    },
    {
        "name": "Guimba",
        "lat": "15.6606",
        "lng": "120.7650",
        "country": "Philippines"
    },
    {
        "name": "Simi Valley",
        "lat": "34.2663",
        "lng": "-118.7490",
        "country": "United States"
    },
    {
        "name": "Latina",
        "lat": "41.4672",
        "lng": "12.9036",
        "country": "Italy"
    },
    {
        "name": "Zhaozhou",
        "lat": "37.7527",
        "lng": "114.7775",
        "country": "China"
    },
    {
        "name": "Dessalines",
        "lat": "19.2833",
        "lng": "-72.5000",
        "country": "Haiti"
    }
]