[
    {
        "name": "East Rutherford",
        "lat": "40.8179",
        "lng": "-74.0854",
        "country": "United States"
    },
    {
        "name": "Kuld\u012bga",
        "lat": "56.9667",
        "lng": "21.9667",
        "country": "Latvia"
    },
    {
        "name": "Reedsburg",
        "lat": "43.5348",
        "lng": "-89.9965",
        "country": "United States"
    },
    {
        "name": "An Nayrab",
        "lat": "36.1756",
        "lng": "37.2278",
        "country": "Syria"
    },
    {
        "name": "Grosse Pointe Farms",
        "lat": "42.4068",
        "lng": "-82.8993",
        "country": "United States"
    },
    {
        "name": "Vuktyl",
        "lat": "63.7000",
        "lng": "57.3167",
        "country": "Russia"
    },
    {
        "name": "George Mason",
        "lat": "38.8356",
        "lng": "-77.3186",
        "country": "United States"
    },
    {
        "name": "Trebbin",
        "lat": "52.2167",
        "lng": "13.2000",
        "country": "Germany"
    },
    {
        "name": "Belp\u0101ra",
        "lat": "20.5889",
        "lng": "82.9729",
        "country": "India"
    },
    {
        "name": "Cavan Monaghan",
        "lat": "44.2000",
        "lng": "-78.4667",
        "country": "Canada"
    },
    {
        "name": "Huejuquilla el Alto",
        "lat": "22.6256",
        "lng": "-103.8964",
        "country": "Mexico"
    },
    {
        "name": "Ramiriqu\u00ed",
        "lat": "5.4000",
        "lng": "-73.3333",
        "country": "Colombia"
    },
    {
        "name": "Montignoso",
        "lat": "44.0167",
        "lng": "10.1667",
        "country": "Italy"
    },
    {
        "name": "Chesapeake Ranch Estates",
        "lat": "38.3574",
        "lng": "-76.4147",
        "country": "United States"
    },
    {
        "name": "Pajacuar\u00e1n",
        "lat": "20.1178",
        "lng": "-102.5667",
        "country": "Mexico"
    },
    {
        "name": "San Pedro Huamelula",
        "lat": "16.0167",
        "lng": "-95.6667",
        "country": "Mexico"
    },
    {
        "name": "Dylym",
        "lat": "43.0694",
        "lng": "46.6367",
        "country": "Russia"
    },
    {
        "name": "Dhangaraha",
        "lat": "26.0204",
        "lng": "84.7023",
        "country": "India"
    },
    {
        "name": "Manahari\u0307\u0304",
        "lat": "27.5500",
        "lng": "84.7900",
        "country": "Nepal"
    },
    {
        "name": "Pakka Kal\u0101n",
        "lat": "30.0323",
        "lng": "74.8555",
        "country": "India"
    },
    {
        "name": "S\u012blamalai",
        "lat": "9.9621",
        "lng": "77.3371",
        "country": "India"
    },
    {
        "name": "Juripiranga",
        "lat": "-7.3667",
        "lng": "-35.2333",
        "country": "Brazil"
    },
    {
        "name": "Mayfield",
        "lat": "36.7371",
        "lng": "-88.6447",
        "country": "United States"
    },
    {
        "name": "Roslyn",
        "lat": "40.1311",
        "lng": "-75.1374",
        "country": "United States"
    },
    {
        "name": "Fort Meade",
        "lat": "39.1061",
        "lng": "-76.7437",
        "country": "United States"
    },
    {
        "name": "Piedrahita",
        "lat": "-1.9167",
        "lng": "-80.0115",
        "country": "Ecuador"
    },
    {
        "name": "Saint-Laurent-de-la-Salanque",
        "lat": "42.7744",
        "lng": "2.9914",
        "country": "France"
    },
    {
        "name": "Dagi\u0101p\u0101ra",
        "lat": "26.4568",
        "lng": "91.8294",
        "country": "India"
    },
    {
        "name": "North Versailles",
        "lat": "40.3785",
        "lng": "-79.8084",
        "country": "United States"
    },
    {
        "name": "Plat\u00f3n S\u00e1nchez",
        "lat": "21.2833",
        "lng": "-98.3667",
        "country": "Mexico"
    },
    {
        "name": "Strasshof an der Nordbahn",
        "lat": "48.3194",
        "lng": "16.6475",
        "country": "Austria"
    },
    {
        "name": "Vandamettu",
        "lat": "9.7167",
        "lng": "77.1500",
        "country": "India"
    },
    {
        "name": "Dores de Campos",
        "lat": "-21.1000",
        "lng": "-44.0333",
        "country": "Brazil"
    },
    {
        "name": "Le Beausset",
        "lat": "43.1989",
        "lng": "5.8033",
        "country": "France"
    },
    {
        "name": "Capodrise",
        "lat": "41.0500",
        "lng": "14.3000",
        "country": "Italy"
    },
    {
        "name": "Moba",
        "lat": "-7.0398",
        "lng": "29.7661",
        "country": "Congo (Kinshasa)"
    },
    {
        "name": "Suaita",
        "lat": "6.1019",
        "lng": "-73.4406",
        "country": "Colombia"
    },
    {
        "name": "Alaj\u00e4rvi",
        "lat": "63.0000",
        "lng": "23.8167",
        "country": "Finland"
    },
    {
        "name": "Senanga",
        "lat": "-16.1167",
        "lng": "23.2667",
        "country": "Zambia"
    },
    {
        "name": "Zaruma",
        "lat": "-3.6833",
        "lng": "-79.6000",
        "country": "Ecuador"
    },
    {
        "name": "Saint-Loub\u00e8s",
        "lat": "44.9181",
        "lng": "-0.4269",
        "country": "France"
    },
    {
        "name": "Villiersdorp",
        "lat": "-33.9908",
        "lng": "19.2894",
        "country": "South Africa"
    },
    {
        "name": "Horbury",
        "lat": "53.6595",
        "lng": "-1.5324",
        "country": "United Kingdom"
    },
    {
        "name": "Tiri",
        "lat": "25.8871",
        "lng": "86.6757",
        "country": "India"
    },
    {
        "name": "Amwa Majh\u0101r",
        "lat": "26.7362",
        "lng": "84.5818",
        "country": "India"
    },
    {
        "name": "Soahany",
        "lat": "-18.4000",
        "lng": "44.1333",
        "country": "Madagascar"
    },
    {
        "name": "Haider Khel",
        "lat": "32.9449",
        "lng": "70.2960",
        "country": "Pakistan"
    },
    {
        "name": "Krynica",
        "lat": "49.4117",
        "lng": "20.9550",
        "country": "Poland"
    },
    {
        "name": "Shengping",
        "lat": "28.4865",
        "lng": "98.9130",
        "country": "China"
    },
    {
        "name": "Kolagallu",
        "lat": "15.1500",
        "lng": "76.9200",
        "country": "India"
    },
    {
        "name": "Sr\u00eefa",
        "lat": "33.2814",
        "lng": "35.3964",
        "country": "Lebanon"
    },
    {
        "name": "Charto\u00fbn",
        "lat": "33.7711",
        "lng": "35.6858",
        "country": "Lebanon"
    },
    {
        "name": "Q\u00e2na",
        "lat": "33.2092",
        "lng": "35.2992",
        "country": "Lebanon"
    },
    {
        "name": "Amio\u00fbn",
        "lat": "34.3000",
        "lng": "35.8000",
        "country": "Lebanon"
    },
    {
        "name": "R\u00e2s el Metn",
        "lat": "33.8500",
        "lng": "35.6667",
        "country": "Lebanon"
    },
    {
        "name": "Ed D\u00e2mo\u00fbr",
        "lat": "33.7333",
        "lng": "35.4500",
        "country": "Lebanon"
    },
    {
        "name": "Butha-Buthe",
        "lat": "-28.7833",
        "lng": "28.2333",
        "country": "Lesotho"
    },
    {
        "name": "Ghad\u0101mis",
        "lat": "30.1333",
        "lng": "9.5000",
        "country": "Libya"
    },
    {
        "name": "Belavabary",
        "lat": "-18.8333",
        "lng": "48.0000",
        "country": "Madagascar"
    },
    {
        "name": "Mahabako",
        "lat": "-21.7500",
        "lng": "47.7167",
        "country": "Madagascar"
    },
    {
        "name": "Boanamary",
        "lat": "-15.8333",
        "lng": "46.3167",
        "country": "Madagascar"
    },
    {
        "name": "Esira",
        "lat": "-24.3333",
        "lng": "46.7000",
        "country": "Madagascar"
    },
    {
        "name": "Sandravinany",
        "lat": "-24.0333",
        "lng": "47.4333",
        "country": "Madagascar"
    },
    {
        "name": "Bedidy",
        "lat": "-17.4667",
        "lng": "48.0167",
        "country": "Madagascar"
    },
    {
        "name": "Vohitrafeno",
        "lat": "-21.6667",
        "lng": "47.2167",
        "country": "Madagascar"
    },
    {
        "name": "Daraina",
        "lat": "-13.2000",
        "lng": "49.6667",
        "country": "Madagascar"
    },
    {
        "name": "Masiaboay",
        "lat": "-23.9000",
        "lng": "44.4667",
        "country": "Madagascar"
    },
    {
        "name": "Ambatomivary",
        "lat": "-23.8333",
        "lng": "45.5667",
        "country": "Madagascar"
    },
    {
        "name": "Ambodisikidy",
        "lat": "-14.2333",
        "lng": "48.4833",
        "country": "Madagascar"
    },
    {
        "name": "Ambohimiarivo",
        "lat": "-19.8500",
        "lng": "47.1500",
        "country": "Madagascar"
    },
    {
        "name": "Bekodoka",
        "lat": "-16.9667",
        "lng": "45.1000",
        "country": "Madagascar"
    },
    {
        "name": "Maroharatra",
        "lat": "-20.7333",
        "lng": "47.7667",
        "country": "Madagascar"
    },
    {
        "name": "Ambararatabe",
        "lat": "-18.9900",
        "lng": "46.1900",
        "country": "Madagascar"
    },
    {
        "name": "Ambatomifanongoa",
        "lat": "-20.2667",
        "lng": "46.9167",
        "country": "Madagascar"
    },
    {
        "name": "Ambohitrambo",
        "lat": "-18.9167",
        "lng": "47.1833",
        "country": "Madagascar"
    },
    {
        "name": "Ebelo",
        "lat": "-24.4833",
        "lng": "46.0333",
        "country": "Madagascar"
    },
    {
        "name": "Analalava",
        "lat": "-14.6333",
        "lng": "47.7500",
        "country": "Madagascar"
    },
    {
        "name": "Lohafary",
        "lat": "-23.2500",
        "lng": "47.4333",
        "country": "Madagascar"
    },
    {
        "name": "Antsoantany",
        "lat": "-19.7000",
        "lng": "47.1667",
        "country": "Madagascar"
    },
    {
        "name": "Ambovonomby",
        "lat": "-14.3667",
        "lng": "49.0500",
        "country": "Madagascar"
    },
    {
        "name": "Isahara",
        "lat": "-23.7167",
        "lng": "47.3500",
        "country": "Madagascar"
    },
    {
        "name": "Ambodivoara",
        "lat": "-14.4000",
        "lng": "49.9500",
        "country": "Madagascar"
    },
    {
        "name": "Vodiriana",
        "lat": "-19.1667",
        "lng": "48.5667",
        "country": "Madagascar"
    },
    {
        "name": "Ambohimahazo",
        "lat": "-20.6667",
        "lng": "47.0833",
        "country": "Madagascar"
    },
    {
        "name": "Ambodimadiro",
        "lat": "-14.6000",
        "lng": "48.0833",
        "country": "Madagascar"
    },
    {
        "name": "Andranambolava",
        "lat": "-20.9000",
        "lng": "48.2667",
        "country": "Madagascar"
    },
    {
        "name": "Marosakoa",
        "lat": "-16.2333",
        "lng": "46.8333",
        "country": "Madagascar"
    },
    {
        "name": "Soavimbahoaka",
        "lat": "-18.6833",
        "lng": "46.1000",
        "country": "Madagascar"
    },
    {
        "name": "Erada",
        "lat": "-25.2833",
        "lng": "45.9333",
        "country": "Madagascar"
    },
    {
        "name": "Mahabe",
        "lat": "-17.0833",
        "lng": "45.3333",
        "country": "Madagascar"
    },
    {
        "name": "Mahabo-Mananivo",
        "lat": "-23.1833",
        "lng": "47.6833",
        "country": "Madagascar"
    },
    {
        "name": "Miary-Taheza",
        "lat": "-23.1333",
        "lng": "44.6167",
        "country": "Madagascar"
    },
    {
        "name": "Ankadindambo",
        "lat": "-21.4667",
        "lng": "47.1500",
        "country": "Madagascar"
    },
    {
        "name": "Antaretra",
        "lat": "-21.0667",
        "lng": "47.8500",
        "country": "Madagascar"
    },
    {
        "name": "Betrandraka",
        "lat": "-17.0333",
        "lng": "47.5500",
        "country": "Madagascar"
    },
    {
        "name": "Amparihy",
        "lat": "-15.6667",
        "lng": "47.1167",
        "country": "Madagascar"
    },
    {
        "name": "Tanamarina",
        "lat": "-21.5731",
        "lng": "45.9400",
        "country": "Madagascar"
    },
    {
        "name": "Sahanivotry-Manandona",
        "lat": "-20.1167",
        "lng": "47.0833",
        "country": "Madagascar"
    },
    {
        "name": "Andranomenatsa",
        "lat": "-23.3167",
        "lng": "44.5833",
        "country": "Madagascar"
    },
    {
        "name": "Ambodimandresy",
        "lat": "-14.7833",
        "lng": "48.0833",
        "country": "Madagascar"
    }
]