[
    {
        "name": "Tokyo",
        "lat": "35.6897",
        "lng": "139.6922",
        "country": "Japan"
    },
    {
        "name": "Jakarta",
        "lat": "-6.1750",
        "lng": "106.8275",
        "country": "Indonesia"
    },
    {
        "name": "Delhi",
        "lat": "28.6100",
        "lng": "77.2300",
        "country": "India"
    },
    {
        "name": "Guangzhou",
        "lat": "23.1300",
        "lng": "113.2600",
        "country": "China"
    },
    {
        "name": "Mumbai",
        "lat": "19.0761",
        "lng": "72.8775",
        "country": "India"
    },
    {
        "name": "Manila",
        "lat": "14.5958",
        "lng": "120.9772",
        "country": "Philippines"
    },
    {
        "name": "Shanghai",
        "lat": "31.2286",
        "lng": "121.4747",
        "country": "China"
    },
    {
        "name": "S\u00e3o Paulo",
        "lat": "-23.5500",
        "lng": "-46.6333",
        "country": "Brazil"
    },
    {
        "name": "Seoul",
        "lat": "37.5600",
        "lng": "126.9900",
        "country": "Korea, South"
    },
    {
        "name": "Mexico City",
        "lat": "19.4333",
        "lng": "-99.1333",
        "country": "Mexico"
    },
    {
        "name": "Cairo",
        "lat": "30.0444",
        "lng": "31.2358",
        "country": "Egypt"
    },
    {
        "name": "New York",
        "lat": "40.6943",
        "lng": "-73.9249",
        "country": "United States"
    },
    {
        "name": "Dhaka",
        "lat": "23.7639",
        "lng": "90.3889",
        "country": "Bangladesh"
    },
    {
        "name": "Beijing",
        "lat": "39.9067",
        "lng": "116.3975",
        "country": "China"
    },
    {
        "name": "Kolk\u0101ta",
        "lat": "22.5675",
        "lng": "88.3700",
        "country": "India"
    },
    {
        "name": "Bangkok",
        "lat": "13.7525",
        "lng": "100.4942",
        "country": "Thailand"
    },
    {
        "name": "Shenzhen",
        "lat": "22.5415",
        "lng": "114.0596",
        "country": "China"
    },
    {
        "name": "Moscow",
        "lat": "55.7558",
        "lng": "37.6172",
        "country": "Russia"
    },
    {
        "name": "Buenos Aires",
        "lat": "-34.6033",
        "lng": "-58.3817",
        "country": "Argentina"
    },
    {
        "name": "Lagos",
        "lat": "6.4550",
        "lng": "3.3841",
        "country": "Nigeria"
    },
    {
        "name": "Istanbul",
        "lat": "41.0136",
        "lng": "28.9550",
        "country": "Turkey"
    },
    {
        "name": "Karachi",
        "lat": "24.8600",
        "lng": "67.0100",
        "country": "Pakistan"
    },
    {
        "name": "Bangalore",
        "lat": "12.9789",
        "lng": "77.5917",
        "country": "India"
    },
    {
        "name": "Ho Chi Minh City",
        "lat": "10.7756",
        "lng": "106.7019",
        "country": "Vietnam"
    },
    {
        "name": "\u014csaka",
        "lat": "34.6939",
        "lng": "135.5022",
        "country": "Japan"
    },
    {
        "name": "Chengdu",
        "lat": "30.6600",
        "lng": "104.0633",
        "country": "China"
    },
    {
        "name": "Tehran",
        "lat": "35.6892",
        "lng": "51.3889",
        "country": "Iran"
    },
    {
        "name": "Kinshasa",
        "lat": "-4.3219",
        "lng": "15.3119",
        "country": "Congo (Kinshasa)"
    },
    {
        "name": "Rio de Janeiro",
        "lat": "-22.9111",
        "lng": "-43.2056",
        "country": "Brazil"
    },
    {
        "name": "Chennai",
        "lat": "13.0825",
        "lng": "80.2750",
        "country": "India"
    },
    {
        "name": "Xi\u2019an",
        "lat": "34.2611",
        "lng": "108.9422",
        "country": "China"
    },
    {
        "name": "Lahore",
        "lat": "31.5497",
        "lng": "74.3436",
        "country": "Pakistan"
    },
    {
        "name": "Chongqing",
        "lat": "29.5637",
        "lng": "106.5504",
        "country": "China"
    },
    {
        "name": "Los Angeles",
        "lat": "34.1141",
        "lng": "-118.4068",
        "country": "United States"
    },
    {
        "name": "Baoding",
        "lat": "38.8740",
        "lng": "115.4640",
        "country": "China"
    },
    {
        "name": "London",
        "lat": "51.5072",
        "lng": "-0.1275",
        "country": "United Kingdom"
    },
    {
        "name": "Paris",
        "lat": "48.8567",
        "lng": "2.3522",
        "country": "France"
    },
    {
        "name": "Linyi",
        "lat": "35.1038",
        "lng": "118.3564",
        "country": "China"
    },
    {
        "name": "Dongguan",
        "lat": "23.0210",
        "lng": "113.7520",
        "country": "China"
    },
    {
        "name": "Hyder\u0101b\u0101d",
        "lat": "17.3617",
        "lng": "78.4747",
        "country": "India"
    },
    {
        "name": "Tianjin",
        "lat": "39.1336",
        "lng": "117.2054",
        "country": "China"
    },
    {
        "name": "Lima",
        "lat": "-12.0600",
        "lng": "-77.0375",
        "country": "Peru"
    },
    {
        "name": "Wuhan",
        "lat": "30.5934",
        "lng": "114.3046",
        "country": "China"
    },
    {
        "name": "Nanyang",
        "lat": "32.9987",
        "lng": "112.5292",
        "country": "China"
    },
    {
        "name": "Hangzhou",
        "lat": "30.2670",
        "lng": "120.1530",
        "country": "China"
    },
    {
        "name": "Foshan",
        "lat": "23.0214",
        "lng": "113.1216",
        "country": "China"
    },
    {
        "name": "Nagoya",
        "lat": "35.1833",
        "lng": "136.9000",
        "country": "Japan"
    },
    {
        "name": "Tongshan",
        "lat": "34.2040",
        "lng": "117.2840",
        "country": "China"
    },
    {
        "name": "Luanda",
        "lat": "-8.8383",
        "lng": "13.2344",
        "country": "Angola"
    },
    {
        "name": "Zhoukou",
        "lat": "33.6250",
        "lng": "114.6418",
        "country": "China"
    },
    {
        "name": "Ganzhou",
        "lat": "25.8310",
        "lng": "114.9330",
        "country": "China"
    },
    {
        "name": "Kuala Lumpur",
        "lat": "3.1478",
        "lng": "101.6953",
        "country": "Malaysia"
    },
    {
        "name": "Heze",
        "lat": "35.2343",
        "lng": "115.4796",
        "country": "China"
    },
    {
        "name": "Quanzhou",
        "lat": "24.8744",
        "lng": "118.6757",
        "country": "China"
    },
    {
        "name": "Johannesburg",
        "lat": "-26.2044",
        "lng": "28.0456",
        "country": "South Africa"
    },
    {
        "name": "Chicago",
        "lat": "41.8375",
        "lng": "-87.6866",
        "country": "United States"
    },
    {
        "name": "Nanjing",
        "lat": "32.0608",
        "lng": "118.7789",
        "country": "China"
    },
    {
        "name": "Jining",
        "lat": "35.4151",
        "lng": "116.5871",
        "country": "China"
    },
    {
        "name": "Hanoi",
        "lat": "21.0000",
        "lng": "105.8500",
        "country": "Vietnam"
    },
    {
        "name": "Pune",
        "lat": "18.5203",
        "lng": "73.8567",
        "country": "India"
    },
    {
        "name": "Fuyang",
        "lat": "32.8900",
        "lng": "115.8140",
        "country": "China"
    },
    {
        "name": "Ahmedabad",
        "lat": "23.0225",
        "lng": "72.5714",
        "country": "India"
    },
    {
        "name": "Bogot\u00e1",
        "lat": "4.7111",
        "lng": "-74.0722",
        "country": "Colombia"
    },
    {
        "name": "Shenyang",
        "lat": "41.8025",
        "lng": "123.4281",
        "country": "China"
    },
    {
        "name": "Dar es Salaam",
        "lat": "-6.8161",
        "lng": "39.2803",
        "country": "Tanzania"
    },
    {
        "name": "Khartoum",
        "lat": "15.6000",
        "lng": "32.5000",
        "country": "Sudan"
    },
    {
        "name": "Shangqiu",
        "lat": "34.4150",
        "lng": "115.6560",
        "country": "China"
    },
    {
        "name": "Hong Kong",
        "lat": "22.3000",
        "lng": "114.2000",
        "country": "Hong Kong"
    },
    {
        "name": "Cangzhou",
        "lat": "38.3047",
        "lng": "116.8387",
        "country": "China"
    },
    {
        "name": "Riyadh",
        "lat": "24.6333",
        "lng": "46.7167",
        "country": "Saudi Arabia"
    },
    {
        "name": "Santiago",
        "lat": "-33.4372",
        "lng": "-70.6506",
        "country": "Chile"
    },
    {
        "name": "Xingtai",
        "lat": "37.0717",
        "lng": "114.5048",
        "country": "China"
    },
    {
        "name": "Zhumadian",
        "lat": "33.0140",
        "lng": "114.0220",
        "country": "China"
    },
    {
        "name": "Chattogram",
        "lat": "22.3350",
        "lng": "91.8325",
        "country": "Bangladesh"
    },
    {
        "name": "Surabaya",
        "lat": "-7.2458",
        "lng": "112.7378",
        "country": "Indonesia"
    },
    {
        "name": "Zhanjiang",
        "lat": "21.2701",
        "lng": "110.3575",
        "country": "China"
    },
    {
        "name": "Bijie",
        "lat": "27.2840",
        "lng": "105.2920",
        "country": "China"
    },
    {
        "name": "Yancheng",
        "lat": "33.3482",
        "lng": "120.1626",
        "country": "China"
    },
    {
        "name": "Hengyang",
        "lat": "26.8940",
        "lng": "112.5720",
        "country": "China"
    },
    {
        "name": "Zunyi",
        "lat": "27.7220",
        "lng": "107.0310",
        "country": "China"
    },
    {
        "name": "Shaoyang",
        "lat": "27.2395",
        "lng": "111.4679",
        "country": "China"
    },
    {
        "name": "S\u016brat",
        "lat": "21.1702",
        "lng": "72.8311",
        "country": "India"
    },
    {
        "name": "Shangrao",
        "lat": "28.4551",
        "lng": "117.9431",
        "country": "China"
    },
    {
        "name": "Xinyang",
        "lat": "32.1490",
        "lng": "114.0910",
        "country": "China"
    },
    {
        "name": "Madrid",
        "lat": "40.4169",
        "lng": "-3.7033",
        "country": "Spain"
    },
    {
        "name": "Baghdad",
        "lat": "33.3153",
        "lng": "44.3661",
        "country": "Iraq"
    },
    {
        "name": "Maoming",
        "lat": "21.6627",
        "lng": "110.9255",
        "country": "China"
    },
    {
        "name": "Jieyang",
        "lat": "23.5510",
        "lng": "116.3727",
        "country": "China"
    },
    {
        "name": "Miami",
        "lat": "25.7840",
        "lng": "-80.2101",
        "country": "United States"
    },
    {
        "name": "Singapore",
        "lat": "1.3000",
        "lng": "103.8000",
        "country": "Singapore"
    },
    {
        "name": "Houston",
        "lat": "29.7860",
        "lng": "-95.3885",
        "country": "United States"
    },
    {
        "name": "Liaocheng",
        "lat": "36.4559",
        "lng": "115.9852",
        "country": "China"
    },
    {
        "name": "Huanggang",
        "lat": "30.4537",
        "lng": "114.8724",
        "country": "China"
    },
    {
        "name": "Dalian",
        "lat": "38.9000",
        "lng": "121.6000",
        "country": "China"
    },
    {
        "name": "Dallas",
        "lat": "32.7935",
        "lng": "-96.7667",
        "country": "United States"
    },
    {
        "name": "Qingdao",
        "lat": "36.0669",
        "lng": "120.3827",
        "country": "China"
    },
    {
        "name": "Yulin",
        "lat": "22.6540",
        "lng": "110.1810",
        "country": "China"
    },
    {
        "name": "Douala",
        "lat": "4.0500",
        "lng": "9.7000",
        "country": "Cameroon"
    },
    {
        "name": "Qujing",
        "lat": "25.4910",
        "lng": "103.7960",
        "country": "China"
    },
    {
        "name": "Nangandao",
        "lat": "35.3036",
        "lng": "113.9268",
        "country": "China"
    }
]