[
    {
        "name": "Maracaibo",
        "lat": "10.6333",
        "lng": "-71.6333",
        "country": "Venezuela"
    },
    {
        "name": "Sofia",
        "lat": "42.7000",
        "lng": "23.3300",
        "country": "Bulgaria"
    },
    {
        "name": "San Jos\u00e9",
        "lat": "9.9325",
        "lng": "-84.0800",
        "country": "Costa Rica"
    },
    {
        "name": "Prayagraj",
        "lat": "25.4358",
        "lng": "81.8464",
        "country": "India"
    },
    {
        "name": "Palembang",
        "lat": "-2.9861",
        "lng": "104.7556",
        "country": "Indonesia"
    },
    {
        "name": "Kawasaki",
        "lat": "35.5167",
        "lng": "139.7000",
        "country": "Japan"
    },
    {
        "name": "K\u014dbe",
        "lat": "34.6900",
        "lng": "135.1956",
        "country": "Japan"
    },
    {
        "name": "Jiaxing",
        "lat": "30.7470",
        "lng": "120.7560",
        "country": "China"
    },
    {
        "name": "Kigali",
        "lat": "-1.9439",
        "lng": "30.0594",
        "country": "Rwanda"
    },
    {
        "name": "Zhangjiajie",
        "lat": "29.1170",
        "lng": "110.4790",
        "country": "China"
    },
    {
        "name": "Baiyin",
        "lat": "36.5451",
        "lng": "104.1389",
        "country": "China"
    },
    {
        "name": "Guiping",
        "lat": "23.4000",
        "lng": "110.0833",
        "country": "China"
    },
    {
        "name": "Lianjiang",
        "lat": "21.7333",
        "lng": "110.2833",
        "country": "China"
    },
    {
        "name": "Jianguang",
        "lat": "28.1958",
        "lng": "115.7833",
        "country": "China"
    },
    {
        "name": "Yucheng",
        "lat": "30.0100",
        "lng": "103.0415",
        "country": "China"
    },
    {
        "name": "Xushan",
        "lat": "30.1667",
        "lng": "121.2333",
        "country": "China"
    },
    {
        "name": "Panama City",
        "lat": "8.9833",
        "lng": "-79.5167",
        "country": "Panama"
    },
    {
        "name": "Nneyi-Umuleri",
        "lat": "6.3333",
        "lng": "6.8333",
        "country": "Nigeria"
    },
    {
        "name": "Leizhou",
        "lat": "20.9143",
        "lng": "110.0967",
        "country": "China"
    },
    {
        "name": "Gwangju",
        "lat": "35.1653",
        "lng": "126.8486",
        "country": "Korea, South"
    },
    {
        "name": "Katako-Kombe",
        "lat": "-3.4000",
        "lng": "24.4200",
        "country": "Congo (Kinshasa)"
    },
    {
        "name": "Recife",
        "lat": "-8.0500",
        "lng": "-34.9000",
        "country": "Brazil"
    },
    {
        "name": "N\u0101sik",
        "lat": "19.9975",
        "lng": "73.7898",
        "country": "India"
    },
    {
        "name": "Onitsha",
        "lat": "6.1667",
        "lng": "6.7833",
        "country": "Nigeria"
    },
    {
        "name": "Abu Dhabi",
        "lat": "24.4667",
        "lng": "54.3667",
        "country": "United Arab Emirates"
    },
    {
        "name": "Zapopan",
        "lat": "20.7167",
        "lng": "-103.4000",
        "country": "Mexico"
    },
    {
        "name": "Daejeon",
        "lat": "36.3500",
        "lng": "127.3850",
        "country": "Korea, South"
    },
    {
        "name": "Bronx",
        "lat": "40.8501",
        "lng": "-73.8662",
        "country": "United States"
    },
    {
        "name": "Yekaterinburg",
        "lat": "56.8356",
        "lng": "60.6128",
        "country": "Russia"
    },
    {
        "name": "Huazhou",
        "lat": "32.6880",
        "lng": "112.0870",
        "country": "China"
    },
    {
        "name": "Jinhua",
        "lat": "29.0790",
        "lng": "119.6470",
        "country": "China"
    },
    {
        "name": "Ky\u014dto",
        "lat": "35.0117",
        "lng": "135.7683",
        "country": "Japan"
    },
    {
        "name": "Amsterdam",
        "lat": "52.3728",
        "lng": "4.8936",
        "country": "Netherlands"
    },
    {
        "name": "Pizhou",
        "lat": "34.3980",
        "lng": "117.8900",
        "country": "China"
    },
    {
        "name": "Kismaayo",
        "lat": "-0.3581",
        "lng": "42.5453",
        "country": "Somalia"
    },
    {
        "name": "Yangshe",
        "lat": "31.8767",
        "lng": "120.5560",
        "country": "China"
    },
    {
        "name": "Virginia Beach",
        "lat": "36.7335",
        "lng": "-76.0435",
        "country": "United States"
    },
    {
        "name": "Dakar",
        "lat": "14.6928",
        "lng": "-17.4467",
        "country": "Senegal"
    },
    {
        "name": "Goi\u00e2nia",
        "lat": "-16.6667",
        "lng": "-49.2500",
        "country": "Brazil"
    },
    {
        "name": "Charlotte",
        "lat": "35.2083",
        "lng": "-80.8303",
        "country": "United States"
    },
    {
        "name": "Rui\u2019an",
        "lat": "27.7833",
        "lng": "120.6250",
        "country": "China"
    },
    {
        "name": "Muscat",
        "lat": "23.6139",
        "lng": "58.5922",
        "country": "Oman"
    },
    {
        "name": "Kharkiv",
        "lat": "49.9925",
        "lng": "36.2311",
        "country": "Ukraine"
    },
    {
        "name": "Wenling",
        "lat": "28.3667",
        "lng": "121.3667",
        "country": "China"
    },
    {
        "name": "Gaozhou",
        "lat": "21.9244",
        "lng": "110.8422",
        "country": "China"
    },
    {
        "name": "Far\u012bd\u0101b\u0101d",
        "lat": "28.4211",
        "lng": "77.3078",
        "country": "India"
    },
    {
        "name": "Medina",
        "lat": "24.4700",
        "lng": "39.6100",
        "country": "Saudi Arabia"
    },
    {
        "name": "Khulna",
        "lat": "22.8167",
        "lng": "89.5500",
        "country": "Bangladesh"
    },
    {
        "name": "Ulaanbaatar",
        "lat": "47.9203",
        "lng": "106.9172",
        "country": "Mongolia"
    },
    {
        "name": "Fuqing",
        "lat": "25.7167",
        "lng": "119.3833",
        "country": "China"
    },
    {
        "name": "Kayseri",
        "lat": "38.7225",
        "lng": "35.4875",
        "country": "Turkey"
    },
    {
        "name": "Tel Aviv-Yafo",
        "lat": "32.0800",
        "lng": "34.7800",
        "country": "Israel"
    },
    {
        "name": "Wuzhong",
        "lat": "37.9978",
        "lng": "106.1986",
        "country": "China"
    },
    {
        "name": "Pingdu",
        "lat": "36.7769",
        "lng": "119.9884",
        "country": "China"
    },
    {
        "name": "Sangereng",
        "lat": "-6.2889",
        "lng": "106.7181",
        "country": "Indonesia"
    },
    {
        "name": "Yangquan",
        "lat": "37.8571",
        "lng": "113.5804",
        "country": "China"
    },
    {
        "name": "Samsun",
        "lat": "41.2903",
        "lng": "36.3336",
        "country": "Turkey"
    },
    {
        "name": "Yutan",
        "lat": "28.2780",
        "lng": "112.5520",
        "country": "China"
    },
    {
        "name": "Copenhagen",
        "lat": "55.6761",
        "lng": "12.5683",
        "country": "Denmark"
    },
    {
        "name": "Helsinki",
        "lat": "60.1708",
        "lng": "24.9375",
        "country": "Finland"
    },
    {
        "name": "Prague",
        "lat": "50.0875",
        "lng": "14.4214",
        "country": "Czechia"
    },
    {
        "name": "Milan",
        "lat": "45.4669",
        "lng": "9.1900",
        "country": "Italy"
    },
    {
        "name": "Auckland",
        "lat": "-36.8406",
        "lng": "174.7400",
        "country": "New Zealand"
    },
    {
        "name": "Chizhou",
        "lat": "30.6654",
        "lng": "117.4916",
        "country": "China"
    },
    {
        "name": "Makassar",
        "lat": "-5.1619",
        "lng": "119.4362",
        "country": "Indonesia"
    },
    {
        "name": "Liangshi",
        "lat": "27.2600",
        "lng": "111.7442",
        "country": "China"
    },
    {
        "name": "Porto Alegre",
        "lat": "-30.0331",
        "lng": "-51.2300",
        "country": "Brazil"
    },
    {
        "name": "Huangshan",
        "lat": "29.7149",
        "lng": "118.3376",
        "country": "China"
    },
    {
        "name": "Barranquilla",
        "lat": "10.9833",
        "lng": "-74.8019",
        "country": "Colombia"
    },
    {
        "name": "Al Ba\u015frah",
        "lat": "30.5150",
        "lng": "47.8100",
        "country": "Iraq"
    },
    {
        "name": "Benxi",
        "lat": "41.4868",
        "lng": "123.6850",
        "country": "China"
    },
    {
        "name": "Saitama",
        "lat": "35.8614",
        "lng": "139.6456",
        "country": "Japan"
    },
    {
        "name": "Guarulhos",
        "lat": "-23.4628",
        "lng": "-46.5328",
        "country": "Brazil"
    },
    {
        "name": "Ju\u00e1rez",
        "lat": "31.7450",
        "lng": "-106.4850",
        "country": "Mexico"
    },
    {
        "name": "Mandalay",
        "lat": "21.9831",
        "lng": "96.0844",
        "country": "Burma"
    },
    {
        "name": "Xintai",
        "lat": "35.9090",
        "lng": "117.7680",
        "country": "China"
    },
    {
        "name": "Wusong",
        "lat": "30.9333",
        "lng": "117.7667",
        "country": "China"
    },
    {
        "name": "Calgary",
        "lat": "51.0500",
        "lng": "-114.0667",
        "country": "Canada"
    },
    {
        "name": "Meerut",
        "lat": "28.9800",
        "lng": "77.7100",
        "country": "India"
    },
    {
        "name": "Yushu",
        "lat": "44.8260",
        "lng": "126.5500",
        "country": "China"
    },
    {
        "name": "Bel\u00e9m",
        "lat": "-1.4558",
        "lng": "-48.5039",
        "country": "Brazil"
    },
    {
        "name": "Kuaidamao",
        "lat": "41.7283",
        "lng": "125.9397",
        "country": "China"
    },
    {
        "name": "Baishan",
        "lat": "41.9440",
        "lng": "126.4147",
        "country": "China"
    },
    {
        "name": "Adelaide",
        "lat": "-34.9275",
        "lng": "138.6000",
        "country": "Australia"
    },
    {
        "name": "Haicheng",
        "lat": "40.8824",
        "lng": "122.6852",
        "country": "China"
    },
    {
        "name": "Milwaukee",
        "lat": "43.0642",
        "lng": "-87.9675",
        "country": "United States"
    },
    {
        "name": "Providence",
        "lat": "41.8230",
        "lng": "-71.4187",
        "country": "United States"
    },
    {
        "name": "Jacksonville",
        "lat": "30.3322",
        "lng": "-81.6749",
        "country": "United States"
    },
    {
        "name": "Yicheng",
        "lat": "31.3600",
        "lng": "119.8150",
        "country": "China"
    },
    {
        "name": "Cacuaco",
        "lat": "-8.8053",
        "lng": "13.2444",
        "country": "Angola"
    },
    {
        "name": "Porto",
        "lat": "41.1621",
        "lng": "-8.6220",
        "country": "Portugal"
    },
    {
        "name": "Rosario",
        "lat": "-32.9575",
        "lng": "-60.6394",
        "country": "Argentina"
    },
    {
        "name": "Canagatan",
        "lat": "18.0000",
        "lng": "121.8000",
        "country": "Philippines"
    },
    {
        "name": "Soweto",
        "lat": "-26.2678",
        "lng": "27.8585",
        "country": "South Africa"
    },
    {
        "name": "Bagam",
        "lat": "1.1300",
        "lng": "104.0531",
        "country": "Indonesia"
    },
    {
        "name": "Jabalpur",
        "lat": "23.1667",
        "lng": "79.9333",
        "country": "India"
    },
    {
        "name": "Rucheng",
        "lat": "32.2460",
        "lng": "120.5910",
        "country": "China"
    },
    {
        "name": "Huaiyin",
        "lat": "33.5819",
        "lng": "119.0280",
        "country": "China"
    },
    {
        "name": "Dublin",
        "lat": "53.3500",
        "lng": "-6.2603",
        "country": "Ireland"
    },
    {
        "name": "Kazan",
        "lat": "55.7964",
        "lng": "49.1089",
        "country": "Russia"
    }
]