[
    {
        "name": "North Salt Lake",
        "lat": "40.8439",
        "lng": "-111.9187",
        "country": "United States"
    },
    {
        "name": "Almorad\u00ed",
        "lat": "38.1097",
        "lng": "-0.7894",
        "country": "Spain"
    },
    {
        "name": "Shinhidaka",
        "lat": "42.2500",
        "lng": "142.5667",
        "country": "Japan"
    },
    {
        "name": "Montmorency",
        "lat": "48.9906",
        "lng": "2.3228",
        "country": "France"
    },
    {
        "name": "Maghalleen",
        "lat": "-30.0942",
        "lng": "27.4189",
        "country": "Lesotho"
    },
    {
        "name": "Karlovo",
        "lat": "42.6436",
        "lng": "24.8072",
        "country": "Bulgaria"
    },
    {
        "name": "New Castle",
        "lat": "40.9956",
        "lng": "-80.3458",
        "country": "United States"
    },
    {
        "name": "Sonthofen",
        "lat": "47.5158",
        "lng": "10.2811",
        "country": "Germany"
    },
    {
        "name": "Sainte-Foy-l\u00e8s-Lyon",
        "lat": "45.7336",
        "lng": "4.8025",
        "country": "France"
    },
    {
        "name": "Montigny-l\u00e8s-Metz",
        "lat": "49.1006",
        "lng": "6.1539",
        "country": "France"
    },
    {
        "name": "Renfrew",
        "lat": "55.8780",
        "lng": "-4.3890",
        "country": "United Kingdom"
    },
    {
        "name": "Koml\u00f3",
        "lat": "46.1912",
        "lng": "18.2613",
        "country": "Hungary"
    },
    {
        "name": "Fl\u00f6rsheim",
        "lat": "50.0167",
        "lng": "8.4333",
        "country": "Germany"
    },
    {
        "name": "Gigaquit",
        "lat": "9.5947",
        "lng": "125.6975",
        "country": "Philippines"
    },
    {
        "name": "Binnish",
        "lat": "35.9500",
        "lng": "36.7000",
        "country": "Syria"
    },
    {
        "name": "Tongzhou",
        "lat": "25.7716",
        "lng": "106.9730",
        "country": "China"
    },
    {
        "name": "Kafr Q\u0101sim",
        "lat": "32.1151",
        "lng": "34.9751",
        "country": "Israel"
    },
    {
        "name": "Port Hueneme",
        "lat": "34.1618",
        "lng": "-119.2036",
        "country": "United States"
    },
    {
        "name": "Rajauli",
        "lat": "24.6449",
        "lng": "85.5003",
        "country": "India"
    },
    {
        "name": "Massapequa",
        "lat": "40.6676",
        "lng": "-73.4706",
        "country": "United States"
    },
    {
        "name": "Mata Grande",
        "lat": "-9.1178",
        "lng": "-37.7339",
        "country": "Brazil"
    },
    {
        "name": "Lihuzhuang",
        "lat": "39.6520",
        "lng": "117.8649",
        "country": "China"
    },
    {
        "name": "Mbandjok",
        "lat": "4.4500",
        "lng": "11.9000",
        "country": "Cameroon"
    },
    {
        "name": "\u014ctsuki",
        "lat": "35.6106",
        "lng": "138.9400",
        "country": "Japan"
    },
    {
        "name": "Ko\u00e7arl\u0131",
        "lat": "37.7608",
        "lng": "27.7061",
        "country": "Turkey"
    },
    {
        "name": "Los Palmitos",
        "lat": "9.3811",
        "lng": "-75.2714",
        "country": "Colombia"
    },
    {
        "name": "Muhlenberg",
        "lat": "40.3955",
        "lng": "-75.9250",
        "country": "United States"
    },
    {
        "name": "Machico",
        "lat": "32.7000",
        "lng": "-16.7667",
        "country": "Portugal"
    },
    {
        "name": "Kepsut",
        "lat": "39.6889",
        "lng": "28.1522",
        "country": "Turkey"
    },
    {
        "name": "Mangalvedha",
        "lat": "17.5167",
        "lng": "75.4667",
        "country": "India"
    },
    {
        "name": "Yoshioka",
        "lat": "36.4474",
        "lng": "139.0097",
        "country": "Japan"
    },
    {
        "name": "Santa Teresa",
        "lat": "-19.9360",
        "lng": "-40.6000",
        "country": "Brazil"
    },
    {
        "name": "Danw\u0101n",
        "lat": "25.5292",
        "lng": "84.4598",
        "country": "India"
    },
    {
        "name": "Puttige",
        "lat": "12.6191",
        "lng": "75.0129",
        "country": "India"
    },
    {
        "name": "Belper",
        "lat": "53.0290",
        "lng": "-1.4750",
        "country": "United Kingdom"
    },
    {
        "name": "Soy\u0101gaon",
        "lat": "20.5514",
        "lng": "74.5072",
        "country": "India"
    },
    {
        "name": "Columbia Heights",
        "lat": "45.0484",
        "lng": "-93.2472",
        "country": "United States"
    },
    {
        "name": "Hayesville",
        "lat": "44.9793",
        "lng": "-122.9738",
        "country": "United States"
    },
    {
        "name": "Horad Smalyavichy",
        "lat": "54.1000",
        "lng": "28.0667",
        "country": "Belarus"
    },
    {
        "name": "Kizhakkeman\u0101d",
        "lat": "9.0174",
        "lng": "76.6509",
        "country": "India"
    },
    {
        "name": "Ginosa",
        "lat": "40.5000",
        "lng": "16.7500",
        "country": "Italy"
    },
    {
        "name": "Sheldon",
        "lat": "52.4500",
        "lng": "-1.7666",
        "country": "United Kingdom"
    },
    {
        "name": "Mehnatobod",
        "lat": "37.7167",
        "lng": "69.5500",
        "country": "Tajikistan"
    },
    {
        "name": "De Meern",
        "lat": "52.0781",
        "lng": "5.0281",
        "country": "Netherlands"
    },
    {
        "name": "Ginebra",
        "lat": "3.7244",
        "lng": "-76.2672",
        "country": "Colombia"
    },
    {
        "name": "Azambuja",
        "lat": "39.0667",
        "lng": "-8.8667",
        "country": "Portugal"
    },
    {
        "name": "Ouardenine",
        "lat": "35.7200",
        "lng": "10.6700",
        "country": "Tunisia"
    },
    {
        "name": "Ma\u2019m\u016bn\u012byeh",
        "lat": "35.3050",
        "lng": "50.4975",
        "country": "Iran"
    },
    {
        "name": "Pallippuram",
        "lat": "10.8406",
        "lng": "76.1118",
        "country": "India"
    },
    {
        "name": "Amtali",
        "lat": "22.1370",
        "lng": "90.2280",
        "country": "Bangladesh"
    },
    {
        "name": "Orob\u00f3",
        "lat": "-7.7450",
        "lng": "-35.6019",
        "country": "Brazil"
    },
    {
        "name": "Soltau",
        "lat": "52.9833",
        "lng": "9.8333",
        "country": "Germany"
    },
    {
        "name": "Pueblo Ju\u00e1rez",
        "lat": "17.7000",
        "lng": "-93.2000",
        "country": "Mexico"
    },
    {
        "name": "Amposta",
        "lat": "40.7106",
        "lng": "0.5808",
        "country": "Spain"
    },
    {
        "name": "Muzhakkunnu",
        "lat": "11.9528",
        "lng": "75.6694",
        "country": "India"
    },
    {
        "name": "Parsippany",
        "lat": "40.8645",
        "lng": "-74.4135",
        "country": "United States"
    },
    {
        "name": "Klamath Falls",
        "lat": "42.2195",
        "lng": "-121.7754",
        "country": "United States"
    },
    {
        "name": "Kreuzlingen",
        "lat": "47.6333",
        "lng": "9.1667",
        "country": "Switzerland"
    },
    {
        "name": "P\u0142o\u0144sk",
        "lat": "52.6333",
        "lng": "20.3833",
        "country": "Poland"
    },
    {
        "name": "Looc",
        "lat": "12.2605",
        "lng": "121.9926",
        "country": "Philippines"
    },
    {
        "name": "Manor",
        "lat": "39.9848",
        "lng": "-76.4216",
        "country": "United States"
    },
    {
        "name": "Palmas de Monte Alto",
        "lat": "-14.2667",
        "lng": "-43.1667",
        "country": "Brazil"
    },
    {
        "name": "Po\u00e7o Verde",
        "lat": "-10.7106",
        "lng": "-38.1828",
        "country": "Brazil"
    },
    {
        "name": "Siilinj\u00e4rvi",
        "lat": "63.0750",
        "lng": "27.6600",
        "country": "Finland"
    },
    {
        "name": "Santa Luc\u00eda Utatl\u00e1n",
        "lat": "14.7667",
        "lng": "-91.2667",
        "country": "Guatemala"
    },
    {
        "name": "Yate",
        "lat": "51.5402",
        "lng": "-2.4110",
        "country": "United Kingdom"
    },
    {
        "name": "Morinda",
        "lat": "30.7900",
        "lng": "76.5000",
        "country": "India"
    },
    {
        "name": "Polkowice",
        "lat": "51.5000",
        "lng": "16.0667",
        "country": "Poland"
    },
    {
        "name": "Charo",
        "lat": "19.7500",
        "lng": "-101.0500",
        "country": "Mexico"
    },
    {
        "name": "A\u1e11 \u1e10abyah",
        "lat": "13.6967",
        "lng": "44.7308",
        "country": "Yemen"
    },
    {
        "name": "A\u1e11 \u1e10\u0101li\u2018",
        "lat": "13.6957",
        "lng": "44.7314",
        "country": "Yemen"
    },
    {
        "name": "Le Petit-Quevilly",
        "lat": "49.4311",
        "lng": "1.0539",
        "country": "France"
    },
    {
        "name": "Jaynagar",
        "lat": "26.5925",
        "lng": "86.1372",
        "country": "India"
    },
    {
        "name": "Puruk Cahu",
        "lat": "-0.6384",
        "lng": "114.5677",
        "country": "Indonesia"
    },
    {
        "name": "T\u016bn\u0113ri",
        "lat": "11.6833",
        "lng": "75.6167",
        "country": "India"
    },
    {
        "name": "Had Oulad Issa",
        "lat": "32.9519",
        "lng": "-8.6982",
        "country": "Morocco"
    },
    {
        "name": "Ambatomanoina",
        "lat": "-18.3167",
        "lng": "47.6167",
        "country": "Madagascar"
    },
    {
        "name": "Hassi Maameche",
        "lat": "35.8611",
        "lng": "0.7250",
        "country": "Algeria"
    },
    {
        "name": "Langley Park",
        "lat": "38.9897",
        "lng": "-76.9808",
        "country": "United States"
    },
    {
        "name": "Silverdale",
        "lat": "47.6663",
        "lng": "-122.6828",
        "country": "United States"
    },
    {
        "name": "Sidi Amrane",
        "lat": "33.5000",
        "lng": "6.0167",
        "country": "Algeria"
    },
    {
        "name": "Surpur",
        "lat": "23.1895",
        "lng": "73.8928",
        "country": "India"
    },
    {
        "name": "Bh\u0101npura",
        "lat": "24.5108",
        "lng": "75.7483",
        "country": "India"
    },
    {
        "name": "G\u00fcl\u015fehir",
        "lat": "38.7464",
        "lng": "34.6206",
        "country": "Turkey"
    },
    {
        "name": "Geertruidenberg",
        "lat": "51.7000",
        "lng": "4.8586",
        "country": "Netherlands"
    },
    {
        "name": "El Callao",
        "lat": "7.3463",
        "lng": "-61.8271",
        "country": "Venezuela"
    },
    {
        "name": "Chatra Gobraura",
        "lat": "26.4973",
        "lng": "86.2179",
        "country": "India"
    },
    {
        "name": "Kayanza",
        "lat": "-2.9167",
        "lng": "29.6167",
        "country": "Burundi"
    },
    {
        "name": "Sedalia",
        "lat": "38.7059",
        "lng": "-93.2340",
        "country": "United States"
    },
    {
        "name": "Maniche",
        "lat": "18.3500",
        "lng": "-73.7667",
        "country": "Haiti"
    },
    {
        "name": "Mailavaram",
        "lat": "16.7833",
        "lng": "80.6333",
        "country": "India"
    },
    {
        "name": "Selden",
        "lat": "40.8714",
        "lng": "-73.0466",
        "country": "United States"
    },
    {
        "name": "Seia",
        "lat": "40.4167",
        "lng": "-7.7000",
        "country": "Portugal"
    },
    {
        "name": "South Euclid",
        "lat": "41.5240",
        "lng": "-81.5245",
        "country": "United States"
    },
    {
        "name": "Zara",
        "lat": "39.8950",
        "lng": "37.7531",
        "country": "Turkey"
    },
    {
        "name": "Otopeni",
        "lat": "44.5500",
        "lng": "26.0700",
        "country": "Romania"
    },
    {
        "name": "N\u00f8tter\u00f8y",
        "lat": "59.2011",
        "lng": "10.4078",
        "country": "Norway"
    },
    {
        "name": "Penonom\u00e9",
        "lat": "8.5187",
        "lng": "-80.3553",
        "country": "Panama"
    },
    {
        "name": "Oberwingert",
        "lat": "47.5170",
        "lng": "8.7690",
        "country": "Switzerland"
    },
    {
        "name": "Shendurjana",
        "lat": "21.5217",
        "lng": "78.2908",
        "country": "India"
    }
]