[
    {
        "name": "Ch\u01a1n Th\u00e0nh",
        "lat": "11.4292",
        "lng": "106.6572",
        "country": "Vietnam"
    },
    {
        "name": "Puruliya",
        "lat": "23.3400",
        "lng": "86.3600",
        "country": "India"
    },
    {
        "name": "M\u012bt Ghamr",
        "lat": "30.7167",
        "lng": "31.2500",
        "country": "Egypt"
    },
    {
        "name": "Tabuk",
        "lat": "17.4069",
        "lng": "121.4425",
        "country": "Philippines"
    },
    {
        "name": "K\u0131r\u0131khan",
        "lat": "36.4975",
        "lng": "36.3608",
        "country": "Turkey"
    },
    {
        "name": "Sassari",
        "lat": "40.7250",
        "lng": "8.5586",
        "country": "Italy"
    },
    {
        "name": "Ghaz\u012bpur",
        "lat": "25.5800",
        "lng": "83.5700",
        "country": "India"
    },
    {
        "name": "Ch\u2019ungmu",
        "lat": "34.8333",
        "lng": "128.4167",
        "country": "Korea, South"
    },
    {
        "name": "Apartad\u00f3",
        "lat": "7.8833",
        "lng": "-76.6333",
        "country": "Colombia"
    },
    {
        "name": "Tumen",
        "lat": "42.9667",
        "lng": "129.8500",
        "country": "China"
    },
    {
        "name": "Th\u00e0nh Ph\u1ed1 U\u00f4ng B\u00ed",
        "lat": "21.0356",
        "lng": "106.7644",
        "country": "Vietnam"
    },
    {
        "name": "J\u012bma",
        "lat": "7.6667",
        "lng": "36.8333",
        "country": "Ethiopia"
    },
    {
        "name": "Genhe",
        "lat": "50.7833",
        "lng": "121.5167",
        "country": "China"
    },
    {
        "name": "Navojoa",
        "lat": "27.0813",
        "lng": "-109.4461",
        "country": "Mexico"
    },
    {
        "name": "Porlamar",
        "lat": "10.9500",
        "lng": "-63.8500",
        "country": "Venezuela"
    },
    {
        "name": "Anderlecht",
        "lat": "50.8333",
        "lng": "4.3333",
        "country": "Belgium"
    },
    {
        "name": "Metz",
        "lat": "49.1203",
        "lng": "6.1778",
        "country": "France"
    },
    {
        "name": "Winterveld",
        "lat": "-25.4200",
        "lng": "27.9490",
        "country": "South Africa"
    },
    {
        "name": "Renala Khurd",
        "lat": "30.8833",
        "lng": "73.6000",
        "country": "Pakistan"
    },
    {
        "name": "Chilapa de \u00c1lvarez",
        "lat": "17.5944",
        "lng": "-99.1778",
        "country": "Mexico"
    },
    {
        "name": "Coatepeque",
        "lat": "14.7000",
        "lng": "-91.8667",
        "country": "Guatemala"
    },
    {
        "name": "Bagaha",
        "lat": "27.0992",
        "lng": "84.0900",
        "country": "India"
    },
    {
        "name": "Gudiy\u0101ttam",
        "lat": "12.9476",
        "lng": "78.8700",
        "country": "India"
    },
    {
        "name": "Mahuva",
        "lat": "21.0833",
        "lng": "71.8000",
        "country": "India"
    },
    {
        "name": "Catchiungo",
        "lat": "-12.5667",
        "lng": "16.2333",
        "country": "Angola"
    },
    {
        "name": "Fier",
        "lat": "40.7250",
        "lng": "19.5572",
        "country": "Albania"
    },
    {
        "name": "Clovis",
        "lat": "36.8278",
        "lng": "-119.6830",
        "country": "United States"
    },
    {
        "name": "Kotamobagu",
        "lat": "0.7333",
        "lng": "124.3167",
        "country": "Indonesia"
    },
    {
        "name": "Gurd\u0101spur",
        "lat": "32.0333",
        "lng": "75.4000",
        "country": "India"
    },
    {
        "name": "K\u1ef3 Anh",
        "lat": "18.0678",
        "lng": "106.2967",
        "country": "Vietnam"
    },
    {
        "name": "Kot Addu",
        "lat": "30.4664",
        "lng": "70.9656",
        "country": "Pakistan"
    },
    {
        "name": "Round Rock",
        "lat": "30.5270",
        "lng": "-97.6642",
        "country": "United States"
    },
    {
        "name": "Barcelos",
        "lat": "41.5167",
        "lng": "-8.6167",
        "country": "Portugal"
    },
    {
        "name": "Pueblo",
        "lat": "38.2701",
        "lng": "-104.6114",
        "country": "United States"
    },
    {
        "name": "Ramos Mej\u00eda",
        "lat": "-34.6500",
        "lng": "-58.5667",
        "country": "Argentina"
    },
    {
        "name": "High Wycombe",
        "lat": "51.6287",
        "lng": "-0.7482",
        "country": "United Kingdom"
    },
    {
        "name": "Gemlik",
        "lat": "40.4317",
        "lng": "29.1561",
        "country": "Turkey"
    },
    {
        "name": "Temple",
        "lat": "31.1068",
        "lng": "-97.3891",
        "country": "United States"
    },
    {
        "name": "S\u00f6ke",
        "lat": "37.7508",
        "lng": "27.4103",
        "country": "Turkey"
    },
    {
        "name": "Khurda",
        "lat": "20.1800",
        "lng": "85.6200",
        "country": "India"
    },
    {
        "name": "Delgado",
        "lat": "13.7167",
        "lng": "-89.1667",
        "country": "El Salvador"
    },
    {
        "name": "Kandy",
        "lat": "7.2964",
        "lng": "80.6350",
        "country": "Sri Lanka"
    },
    {
        "name": "Ban Bang Pu Mai",
        "lat": "13.5441",
        "lng": "100.6175",
        "country": "Thailand"
    },
    {
        "name": "Gateshead",
        "lat": "54.9556",
        "lng": "-1.6000",
        "country": "United Kingdom"
    },
    {
        "name": "Guelma",
        "lat": "36.4500",
        "lng": "7.4333",
        "country": "Algeria"
    },
    {
        "name": "Unwana",
        "lat": "5.8625",
        "lng": "7.9486",
        "country": "Nigeria"
    },
    {
        "name": "Ar Rust\u0101q",
        "lat": "23.3908",
        "lng": "57.4244",
        "country": "Oman"
    },
    {
        "name": "Baraka",
        "lat": "-4.1041",
        "lng": "29.0940",
        "country": "Congo (Kinshasa)"
    },
    {
        "name": "Gharda\u00efa",
        "lat": "32.4833",
        "lng": "3.6667",
        "country": "Algeria"
    },
    {
        "name": "Nokha",
        "lat": "27.6000",
        "lng": "73.4200",
        "country": "India"
    },
    {
        "name": "Jandrapeta",
        "lat": "15.8246",
        "lng": "80.3521",
        "country": "India"
    },
    {
        "name": "Hengken",
        "lat": "24.3460",
        "lng": "93.7000",
        "country": "India"
    },
    {
        "name": "\u0110\u00f4ng H\u00f2a",
        "lat": "12.9931",
        "lng": "109.3314",
        "country": "Vietnam"
    },
    {
        "name": "Gorz\u00f3w Wielkopolski",
        "lat": "52.7333",
        "lng": "15.2500",
        "country": "Poland"
    },
    {
        "name": "Terrebonne",
        "lat": "45.7000",
        "lng": "-73.6333",
        "country": "Canada"
    },
    {
        "name": "Lalo",
        "lat": "6.9167",
        "lng": "1.8833",
        "country": "Benin"
    },
    {
        "name": "Pelabuhanratu",
        "lat": "-6.9878",
        "lng": "106.5439",
        "country": "Indonesia"
    },
    {
        "name": "Yelahanka",
        "lat": "13.1007",
        "lng": "77.5963",
        "country": "India"
    },
    {
        "name": "Meridian",
        "lat": "43.6116",
        "lng": "-116.3977",
        "country": "United States"
    },
    {
        "name": "Malindi",
        "lat": "-3.2236",
        "lng": "40.1300",
        "country": "Kenya"
    },
    {
        "name": "Almirante Tamandar\u00e9",
        "lat": "-25.3250",
        "lng": "-49.3100",
        "country": "Brazil"
    },
    {
        "name": "Ebetsu",
        "lat": "43.1000",
        "lng": "141.5333",
        "country": "Japan"
    },
    {
        "name": "Boulogne-Billancourt",
        "lat": "48.8352",
        "lng": "2.2409",
        "country": "France"
    },
    {
        "name": "Moncton",
        "lat": "46.1328",
        "lng": "-64.7714",
        "country": "Canada"
    },
    {
        "name": "Y\u00fcksekova",
        "lat": "37.5690",
        "lng": "44.2830",
        "country": "Turkey"
    },
    {
        "name": "Palma Soriano",
        "lat": "20.2139",
        "lng": "-75.9919",
        "country": "Cuba"
    },
    {
        "name": "An",
        "lat": "19.7833",
        "lng": "94.0333",
        "country": "Burma"
    },
    {
        "name": "Jiangna",
        "lat": "23.6128",
        "lng": "104.3433",
        "country": "China"
    },
    {
        "name": "Perpignan",
        "lat": "42.6986",
        "lng": "2.8956",
        "country": "France"
    },
    {
        "name": "Pleven",
        "lat": "43.4078",
        "lng": "24.6203",
        "country": "Bulgaria"
    },
    {
        "name": "Fulg\u0101zi",
        "lat": "23.1333",
        "lng": "91.4333",
        "country": "Bangladesh"
    },
    {
        "name": "Bergamo",
        "lat": "45.6950",
        "lng": "9.6700",
        "country": "Italy"
    },
    {
        "name": "Shuixi",
        "lat": "22.5090",
        "lng": "113.3213",
        "country": "China"
    },
    {
        "name": "Sanxi",
        "lat": "22.5111",
        "lng": "113.3161",
        "country": "China"
    },
    {
        "name": "Naz\u0327ar\u0101b\u0101d",
        "lat": "35.9583",
        "lng": "50.6050",
        "country": "Iran"
    },
    {
        "name": "Candaba",
        "lat": "15.0933",
        "lng": "120.8283",
        "country": "Philippines"
    },
    {
        "name": "Parow",
        "lat": "-33.9000",
        "lng": "18.6000",
        "country": "South Africa"
    },
    {
        "name": "Tizayuca",
        "lat": "19.8333",
        "lng": "-98.9833",
        "country": "Mexico"
    },
    {
        "name": "Mo\u1e29ammad Shahr",
        "lat": "35.7483",
        "lng": "50.9025",
        "country": "Iran"
    },
    {
        "name": "Silifke",
        "lat": "36.3761",
        "lng": "33.9322",
        "country": "Turkey"
    },
    {
        "name": "Port Dickson",
        "lat": "2.5167",
        "lng": "101.8000",
        "country": "Malaysia"
    },
    {
        "name": "Besan\u00e7on",
        "lat": "47.2400",
        "lng": "6.0200",
        "country": "France"
    },
    {
        "name": "Debre Tabor",
        "lat": "11.8500",
        "lng": "38.0167",
        "country": "Ethiopia"
    },
    {
        "name": "Arapongas",
        "lat": "-23.4189",
        "lng": "-51.4239",
        "country": "Brazil"
    },
    {
        "name": "Guaratinguet\u00e1",
        "lat": "-22.8167",
        "lng": "-45.2278",
        "country": "Brazil"
    },
    {
        "name": "Slough",
        "lat": "51.5084",
        "lng": "-0.5881",
        "country": "United Kingdom"
    },
    {
        "name": "Aw Dheegle",
        "lat": "1.9667",
        "lng": "44.8333",
        "country": "Somalia"
    },
    {
        "name": "\u0162\u016bz Kh\u016brm\u0101t\u016b",
        "lat": "34.8772",
        "lng": "44.6383",
        "country": "Iraq"
    },
    {
        "name": "Birigui",
        "lat": "-21.2886",
        "lng": "-50.3400",
        "country": "Brazil"
    },
    {
        "name": "Totonicap\u00e1n",
        "lat": "14.9108",
        "lng": "-91.3606",
        "country": "Guatemala"
    },
    {
        "name": "G\u00f6ttingen",
        "lat": "51.5339",
        "lng": "9.9356",
        "country": "Germany"
    },
    {
        "name": "Huaraz",
        "lat": "-9.5333",
        "lng": "-77.5333",
        "country": "Peru"
    },
    {
        "name": "Dait\u014dch\u014d",
        "lat": "34.7167",
        "lng": "135.6167",
        "country": "Japan"
    },
    {
        "name": "Darjeeling",
        "lat": "27.0375",
        "lng": "88.2631",
        "country": "India"
    },
    {
        "name": "Piraquara",
        "lat": "-25.4419",
        "lng": "-49.0628",
        "country": "Brazil"
    },
    {
        "name": "Bet Shemesh",
        "lat": "31.7456",
        "lng": "34.9867",
        "country": "Israel"
    },
    {
        "name": "Bismil",
        "lat": "37.8467",
        "lng": "40.6661",
        "country": "Turkey"
    },
    {
        "name": "Vihiga",
        "lat": "0.0500",
        "lng": "34.7250",
        "country": "Kenya"
    },
    {
        "name": "Pescara",
        "lat": "42.4639",
        "lng": "14.2142",
        "country": "Italy"
    },
    {
        "name": "Sopur",
        "lat": "34.3000",
        "lng": "74.4700",
        "country": "India"
    }
]