[
    {
        "name": "B\u0101ra Khurd",
        "lat": "25.2599",
        "lng": "85.4325",
        "country": "India"
    },
    {
        "name": "Mocharim",
        "lat": "24.6794",
        "lng": "84.9905",
        "country": "India"
    },
    {
        "name": "Alassio",
        "lat": "44.0000",
        "lng": "8.1667",
        "country": "Italy"
    },
    {
        "name": "Scenic Oaks",
        "lat": "29.7038",
        "lng": "-98.6712",
        "country": "United States"
    },
    {
        "name": "Burgum",
        "lat": "53.2000",
        "lng": "6.0000",
        "country": "Netherlands"
    },
    {
        "name": "Parthenay",
        "lat": "46.6462",
        "lng": "-0.2478",
        "country": "France"
    },
    {
        "name": "Mold",
        "lat": "53.1660",
        "lng": "-3.1330",
        "country": "United Kingdom"
    },
    {
        "name": "Rup\u0101na",
        "lat": "30.4070",
        "lng": "74.5276",
        "country": "India"
    },
    {
        "name": "Abj\u012bj",
        "lat": "29.2861",
        "lng": "30.8152",
        "country": "Egypt"
    },
    {
        "name": "Macerata Campania",
        "lat": "41.0667",
        "lng": "14.2667",
        "country": "Italy"
    },
    {
        "name": "Jiji",
        "lat": "23.8300",
        "lng": "120.7830",
        "country": "Taiwan"
    },
    {
        "name": "C\u0103lan",
        "lat": "45.7319",
        "lng": "23.0247",
        "country": "Romania"
    },
    {
        "name": "Kis\u00fajsz\u00e1ll\u00e1s",
        "lat": "47.2169",
        "lng": "20.7669",
        "country": "Hungary"
    },
    {
        "name": "Dh\u0101mua",
        "lat": "22.2875",
        "lng": "88.3962",
        "country": "India"
    },
    {
        "name": "Taghbalt",
        "lat": "30.6200",
        "lng": "-5.3500",
        "country": "Morocco"
    },
    {
        "name": "San Ignacio de Moxo",
        "lat": "-14.9961",
        "lng": "-65.6400",
        "country": "Bolivia"
    },
    {
        "name": "R\u00fcdesheim am Rhein",
        "lat": "49.9833",
        "lng": "7.9306",
        "country": "Germany"
    },
    {
        "name": "\u2019A\u00efn Naga",
        "lat": "34.6883",
        "lng": "6.0886",
        "country": "Algeria"
    },
    {
        "name": "Dal\u0101warpur",
        "lat": "26.3466",
        "lng": "84.9581",
        "country": "India"
    },
    {
        "name": "Begijnendijk",
        "lat": "51.0167",
        "lng": "4.7833",
        "country": "Belgium"
    },
    {
        "name": "Satipo",
        "lat": "-11.2542",
        "lng": "-74.6367",
        "country": "Peru"
    },
    {
        "name": "Verucchio",
        "lat": "43.9833",
        "lng": "12.4333",
        "country": "Italy"
    },
    {
        "name": "Krivodanovka",
        "lat": "55.0881",
        "lng": "82.6551",
        "country": "Russia"
    },
    {
        "name": "S\u0101ha",
        "lat": "30.3000",
        "lng": "76.9667",
        "country": "India"
    },
    {
        "name": "Rangasamudram",
        "lat": "14.9852",
        "lng": "78.9765",
        "country": "India"
    },
    {
        "name": "Vange",
        "lat": "51.5500",
        "lng": "0.4667",
        "country": "United Kingdom"
    },
    {
        "name": "Lys\u00e1 nad Labem",
        "lat": "50.2014",
        "lng": "14.8328",
        "country": "Czechia"
    },
    {
        "name": "La Ba\u00f1eza",
        "lat": "42.2975",
        "lng": "-5.9017",
        "country": "Spain"
    },
    {
        "name": "Blackwells Mills",
        "lat": "40.4773",
        "lng": "-74.5976",
        "country": "United States"
    },
    {
        "name": "Namorona",
        "lat": "-21.6500",
        "lng": "48.2000",
        "country": "Madagascar"
    },
    {
        "name": "Levski",
        "lat": "43.3667",
        "lng": "25.1333",
        "country": "Bulgaria"
    },
    {
        "name": "M\u00e9ry-sur-Oise",
        "lat": "49.0644",
        "lng": "2.1872",
        "country": "France"
    },
    {
        "name": "Al H\u0101mah",
        "lat": "33.5581",
        "lng": "36.2222",
        "country": "Syria"
    },
    {
        "name": "Vysokyi",
        "lat": "49.8875",
        "lng": "36.1211",
        "country": "Ukraine"
    },
    {
        "name": "Schotten",
        "lat": "50.5000",
        "lng": "9.1167",
        "country": "Germany"
    },
    {
        "name": "Oakbrook",
        "lat": "38.9996",
        "lng": "-84.6797",
        "country": "United States"
    },
    {
        "name": "\u0130li\u00e7",
        "lat": "39.4536",
        "lng": "38.5633",
        "country": "Turkey"
    },
    {
        "name": "Francisville",
        "lat": "39.1068",
        "lng": "-84.7277",
        "country": "United States"
    },
    {
        "name": "Ciudad Tula",
        "lat": "23.0000",
        "lng": "-99.7200",
        "country": "Mexico"
    },
    {
        "name": "Chapeltown",
        "lat": "53.4620",
        "lng": "-1.4660",
        "country": "United Kingdom"
    },
    {
        "name": "Lydney",
        "lat": "51.7286",
        "lng": "-2.5285",
        "country": "United Kingdom"
    },
    {
        "name": "Taiy\u016br",
        "lat": "12.7833",
        "lng": "80.1833",
        "country": "India"
    },
    {
        "name": "Gauli Pal\u0101siya",
        "lat": "22.5323",
        "lng": "75.7275",
        "country": "India"
    },
    {
        "name": "Petmanhalli",
        "lat": "17.7688",
        "lng": "77.5056",
        "country": "India"
    },
    {
        "name": "P\u00e1jaros",
        "lat": "18.3610",
        "lng": "-66.2184",
        "country": "Puerto Rico"
    },
    {
        "name": "B\u00fcy\u00fckorhan",
        "lat": "39.7500",
        "lng": "28.9167",
        "country": "Turkey"
    },
    {
        "name": "Tinkoni",
        "lat": "26.8613",
        "lng": "84.9647",
        "country": "India"
    },
    {
        "name": "Lep\u0101kshi",
        "lat": "13.8100",
        "lng": "77.6000",
        "country": "India"
    },
    {
        "name": "Sakuho",
        "lat": "36.1610",
        "lng": "138.4834",
        "country": "Japan"
    },
    {
        "name": "Makaha",
        "lat": "21.4739",
        "lng": "-158.2102",
        "country": "United States"
    },
    {
        "name": "Mikuszowice",
        "lat": "49.7833",
        "lng": "19.0703",
        "country": "Poland"
    },
    {
        "name": "Mengibar",
        "lat": "37.9683",
        "lng": "-3.8089",
        "country": "Spain"
    },
    {
        "name": "Lipova",
        "lat": "46.0917",
        "lng": "21.6917",
        "country": "Romania"
    },
    {
        "name": "Tiszaf\u00f6ldv\u00e1r",
        "lat": "46.9739",
        "lng": "20.2539",
        "country": "Hungary"
    },
    {
        "name": "Glocester",
        "lat": "41.8934",
        "lng": "-71.6889",
        "country": "United States"
    },
    {
        "name": "Zani\u00e9na",
        "lat": "11.2708",
        "lng": "-6.4236",
        "country": "Mali"
    },
    {
        "name": "Abaiara",
        "lat": "-7.3500",
        "lng": "-39.0500",
        "country": "Brazil"
    },
    {
        "name": "Nallikod\u016br",
        "lat": "17.5811",
        "lng": "79.7500",
        "country": "India"
    },
    {
        "name": "Sermoneta",
        "lat": "41.5500",
        "lng": "12.9833",
        "country": "Italy"
    },
    {
        "name": "Cross Lanes",
        "lat": "38.4351",
        "lng": "-81.7707",
        "country": "United States"
    },
    {
        "name": "Parilla",
        "lat": "17.9119",
        "lng": "-92.9175",
        "country": "Mexico"
    },
    {
        "name": "Ikryanoye",
        "lat": "46.1000",
        "lng": "47.7333",
        "country": "Russia"
    },
    {
        "name": "Bou\u2019nane",
        "lat": "32.0275",
        "lng": "-3.0400",
        "country": "Morocco"
    },
    {
        "name": "Vembadit\u0101lam",
        "lat": "11.5000",
        "lng": "78.1000",
        "country": "India"
    },
    {
        "name": "Cheat Lake",
        "lat": "39.6670",
        "lng": "-79.8564",
        "country": "United States"
    },
    {
        "name": "Mah\u0101r\u0101japuram",
        "lat": "9.6588",
        "lng": "77.6631",
        "country": "India"
    },
    {
        "name": "Baldeogarh",
        "lat": "24.7562",
        "lng": "79.0672",
        "country": "India"
    },
    {
        "name": "Volpago del Montello",
        "lat": "45.7833",
        "lng": "12.1167",
        "country": "Italy"
    },
    {
        "name": "Tay",
        "lat": "44.7167",
        "lng": "-79.7667",
        "country": "Canada"
    },
    {
        "name": "Zaggota",
        "lat": "34.1667",
        "lng": "-5.5333",
        "country": "Morocco"
    },
    {
        "name": "Olevsk",
        "lat": "51.2167",
        "lng": "27.6500",
        "country": "Ukraine"
    },
    {
        "name": "Houthulst",
        "lat": "50.9833",
        "lng": "2.9500",
        "country": "Belgium"
    },
    {
        "name": "Suth\u0101lia",
        "lat": "23.9955",
        "lng": "77.1395",
        "country": "India"
    },
    {
        "name": "Puduparambubh\u0101gam",
        "lat": "9.6000",
        "lng": "76.7400",
        "country": "India"
    },
    {
        "name": "Ba\u015fmak\u00e7\u0131",
        "lat": "37.8833",
        "lng": "30.0000",
        "country": "Turkey"
    },
    {
        "name": "Sirugamani",
        "lat": "10.8975",
        "lng": "78.5142",
        "country": "India"
    },
    {
        "name": "Nikaid\u014d-kaminosh\u014dch\u014d",
        "lat": "34.5914",
        "lng": "135.7962",
        "country": "Japan"
    },
    {
        "name": "Massi",
        "lat": "9.9167",
        "lng": "1.4667",
        "country": "Benin"
    },
    {
        "name": "Red Hook",
        "lat": "42.0188",
        "lng": "-73.8788",
        "country": "United States"
    },
    {
        "name": "Castlegar",
        "lat": "49.3256",
        "lng": "-117.6661",
        "country": "Canada"
    },
    {
        "name": "Lauterach",
        "lat": "47.4772",
        "lng": "9.7314",
        "country": "Austria"
    },
    {
        "name": "Munagap\u0101ka",
        "lat": "17.6333",
        "lng": "83.0000",
        "country": "India"
    },
    {
        "name": "Goito",
        "lat": "45.2500",
        "lng": "10.6667",
        "country": "Italy"
    },
    {
        "name": "Benem\u00e9rito",
        "lat": "16.5158",
        "lng": "-90.6533",
        "country": "Mexico"
    },
    {
        "name": "Novooleksiivka",
        "lat": "46.2261",
        "lng": "34.6417",
        "country": "Ukraine"
    },
    {
        "name": "Tomboutou",
        "lat": "11.8550",
        "lng": "3.2892",
        "country": "Benin"
    },
    {
        "name": "P\u0101nrepatti",
        "lat": "25.5537",
        "lng": "83.9775",
        "country": "India"
    },
    {
        "name": "L\u0101lmunia Munh\u0101ra",
        "lat": "26.5741",
        "lng": "86.4012",
        "country": "India"
    },
    {
        "name": "K\u016bche\u015ffah\u0101n",
        "lat": "37.2783",
        "lng": "49.7728",
        "country": "Iran"
    },
    {
        "name": "Bierbeek",
        "lat": "50.8333",
        "lng": "4.7667",
        "country": "Belgium"
    },
    {
        "name": "Steinhaus",
        "lat": "47.2000",
        "lng": "8.4833",
        "country": "Switzerland"
    },
    {
        "name": "Kaldenkirchen",
        "lat": "51.3167",
        "lng": "6.2833",
        "country": "Germany"
    },
    {
        "name": "Southwater",
        "lat": "51.0238",
        "lng": "-0.3526",
        "country": "United Kingdom"
    },
    {
        "name": "Kirundo",
        "lat": "-2.5900",
        "lng": "30.0900",
        "country": "Burundi"
    },
    {
        "name": "K\u012bl Perambal\u016br",
        "lat": "11.3600",
        "lng": "79.0980",
        "country": "India"
    },
    {
        "name": "Harrisonville",
        "lat": "38.6530",
        "lng": "-94.3467",
        "country": "United States"
    },
    {
        "name": "Canelli",
        "lat": "44.7225",
        "lng": "8.2936",
        "country": "Italy"
    },
    {
        "name": "Toukoto",
        "lat": "13.4500",
        "lng": "-9.8792",
        "country": "Mali"
    },
    {
        "name": "Kingaroy",
        "lat": "-26.5410",
        "lng": "151.8400",
        "country": "Australia"
    },
    {
        "name": "Airmont",
        "lat": "41.0992",
        "lng": "-74.0989",
        "country": "United States"
    }
]