[
    {
        "name": "Khut\u0101ha",
        "lat": "25.2645",
        "lng": "86.0598",
        "country": "India"
    },
    {
        "name": "Lemont",
        "lat": "41.6695",
        "lng": "-87.9838",
        "country": "United States"
    },
    {
        "name": "Clemson",
        "lat": "34.6837",
        "lng": "-82.8124",
        "country": "United States"
    },
    {
        "name": "G\u00f6me\u00e7",
        "lat": "39.3911",
        "lng": "26.8400",
        "country": "Turkey"
    },
    {
        "name": "P\u0101laiyam",
        "lat": "10.7256",
        "lng": "78.1354",
        "country": "India"
    },
    {
        "name": "Mawkanin",
        "lat": "15.5106",
        "lng": "97.8533",
        "country": "Burma"
    },
    {
        "name": "Son en Breugel",
        "lat": "51.5167",
        "lng": "5.5000",
        "country": "Netherlands"
    },
    {
        "name": "Penn",
        "lat": "39.7994",
        "lng": "-76.9642",
        "country": "United States"
    },
    {
        "name": "Le Pontet",
        "lat": "43.9650",
        "lng": "4.8606",
        "country": "France"
    },
    {
        "name": "\u00c7ameli",
        "lat": "37.0708",
        "lng": "29.3453",
        "country": "Turkey"
    },
    {
        "name": "Glencoe",
        "lat": "-28.1833",
        "lng": "30.1500",
        "country": "South Africa"
    },
    {
        "name": "Punnay\u016br",
        "lat": "10.6500",
        "lng": "76.0000",
        "country": "India"
    },
    {
        "name": "Morarano-Gara",
        "lat": "-18.7100",
        "lng": "48.2700",
        "country": "Madagascar"
    },
    {
        "name": "Waalre",
        "lat": "51.4000",
        "lng": "5.4667",
        "country": "Netherlands"
    },
    {
        "name": "Lattes",
        "lat": "43.5700",
        "lng": "3.9094",
        "country": "France"
    },
    {
        "name": "Aliy\u0101b\u0101d",
        "lat": "12.6317",
        "lng": "79.2164",
        "country": "India"
    },
    {
        "name": "Takoma Park",
        "lat": "38.9810",
        "lng": "-77.0028",
        "country": "United States"
    },
    {
        "name": "Kori\u0101patti",
        "lat": "26.1149",
        "lng": "86.9905",
        "country": "India"
    },
    {
        "name": "Swellendam",
        "lat": "-34.0231",
        "lng": "20.4400",
        "country": "South Africa"
    },
    {
        "name": "Yeniseysk",
        "lat": "58.4667",
        "lng": "92.1333",
        "country": "Russia"
    },
    {
        "name": "Al \u2018Ash\u0101rah",
        "lat": "34.9203",
        "lng": "40.5594",
        "country": "Syria"
    },
    {
        "name": "Etacheri",
        "lat": "10.6028",
        "lng": "76.6444",
        "country": "India"
    },
    {
        "name": "Sona",
        "lat": "45.4333",
        "lng": "10.8333",
        "country": "Italy"
    },
    {
        "name": "Mitake",
        "lat": "35.4344",
        "lng": "137.1307",
        "country": "Japan"
    },
    {
        "name": "Kempele",
        "lat": "64.9125",
        "lng": "25.5083",
        "country": "Finland"
    },
    {
        "name": "V\u0101yalp\u0101d",
        "lat": "13.6500",
        "lng": "78.6333",
        "country": "India"
    },
    {
        "name": "Oak Grove",
        "lat": "45.4156",
        "lng": "-122.6349",
        "country": "United States"
    },
    {
        "name": "Shangjing",
        "lat": "24.5601",
        "lng": "114.8943",
        "country": "China"
    },
    {
        "name": "Shanglingcun",
        "lat": "24.6076",
        "lng": "114.9939",
        "country": "China"
    },
    {
        "name": "Harin\u0101kunda",
        "lat": "23.6500",
        "lng": "89.0333",
        "country": "Bangladesh"
    },
    {
        "name": "Duijiang",
        "lat": "27.0782",
        "lng": "105.5256",
        "country": "China"
    },
    {
        "name": "Kirksville",
        "lat": "40.1986",
        "lng": "-92.5752",
        "country": "United States"
    },
    {
        "name": "Esquimalt",
        "lat": "48.4306",
        "lng": "-123.4147",
        "country": "Canada"
    },
    {
        "name": "Polignano a Mare",
        "lat": "41.0000",
        "lng": "17.2167",
        "country": "Italy"
    },
    {
        "name": "Rio Bananal",
        "lat": "-19.2650",
        "lng": "-40.3328",
        "country": "Brazil"
    },
    {
        "name": "Bonnyrigg",
        "lat": "55.8747",
        "lng": "-3.1031",
        "country": "United Kingdom"
    },
    {
        "name": "Turuvekere",
        "lat": "13.1637",
        "lng": "76.6664",
        "country": "India"
    },
    {
        "name": "Shirva",
        "lat": "13.2465",
        "lng": "74.8444",
        "country": "India"
    },
    {
        "name": "Norcross",
        "lat": "33.9379",
        "lng": "-84.2065",
        "country": "United States"
    },
    {
        "name": "Mistrat\u00f3",
        "lat": "5.3000",
        "lng": "-75.8833",
        "country": "Colombia"
    },
    {
        "name": "Dabas",
        "lat": "47.1890",
        "lng": "19.3126",
        "country": "Hungary"
    },
    {
        "name": "Attimarappatti",
        "lat": "8.7297",
        "lng": "78.1169",
        "country": "India"
    },
    {
        "name": "Garching bei M\u00fcnchen",
        "lat": "48.2500",
        "lng": "11.6500",
        "country": "Germany"
    },
    {
        "name": "Guidan Roumdji",
        "lat": "13.6575",
        "lng": "6.6958",
        "country": "Niger"
    },
    {
        "name": "Boljoon",
        "lat": "9.6300",
        "lng": "123.4300",
        "country": "Philippines"
    },
    {
        "name": "Ye\u015filhisar",
        "lat": "38.3500",
        "lng": "35.0867",
        "country": "Turkey"
    },
    {
        "name": "Villorba",
        "lat": "45.7333",
        "lng": "12.2333",
        "country": "Italy"
    },
    {
        "name": "Matagob",
        "lat": "11.1469",
        "lng": "124.4733",
        "country": "Philippines"
    },
    {
        "name": "Man\u012bn",
        "lat": "33.6422",
        "lng": "36.2978",
        "country": "Syria"
    },
    {
        "name": "Gunjur",
        "lat": "13.1833",
        "lng": "-16.7667",
        "country": "Gambia, The"
    },
    {
        "name": "Krasnystaw",
        "lat": "51.0000",
        "lng": "23.1667",
        "country": "Poland"
    },
    {
        "name": "Quedgeley",
        "lat": "51.8250",
        "lng": "-2.2800",
        "country": "United Kingdom"
    },
    {
        "name": "Malacacheta",
        "lat": "-17.8419",
        "lng": "-42.0769",
        "country": "Brazil"
    },
    {
        "name": "Ivanovka",
        "lat": "42.8864",
        "lng": "75.0822",
        "country": "Kyrgyzstan"
    },
    {
        "name": "Strzelce Opolskie",
        "lat": "50.5000",
        "lng": "18.2833",
        "country": "Poland"
    },
    {
        "name": "Rocca di Papa",
        "lat": "41.7611",
        "lng": "12.7092",
        "country": "Italy"
    },
    {
        "name": "St. Matthews",
        "lat": "38.2497",
        "lng": "-85.6384",
        "country": "United States"
    },
    {
        "name": "Sulaco",
        "lat": "14.9167",
        "lng": "-87.2667",
        "country": "Honduras"
    },
    {
        "name": "Plast",
        "lat": "54.3833",
        "lng": "60.8167",
        "country": "Russia"
    },
    {
        "name": "Ebino",
        "lat": "32.0453",
        "lng": "130.8108",
        "country": "Japan"
    },
    {
        "name": "Elank\u016br",
        "lat": "11.1333",
        "lng": "76.1667",
        "country": "India"
    },
    {
        "name": "Moloac\u00e1n",
        "lat": "17.9833",
        "lng": "-94.3500",
        "country": "Mexico"
    },
    {
        "name": "Tenango de Doria",
        "lat": "20.3356",
        "lng": "-98.2267",
        "country": "Mexico"
    },
    {
        "name": "Piratini",
        "lat": "-31.4478",
        "lng": "-53.1039",
        "country": "Brazil"
    },
    {
        "name": "Mendes",
        "lat": "-22.5269",
        "lng": "-43.7328",
        "country": "Brazil"
    },
    {
        "name": "Baxt",
        "lat": "40.7139",
        "lng": "68.6933",
        "country": "Uzbekistan"
    },
    {
        "name": "San Antonio de Ibarra",
        "lat": "0.3627",
        "lng": "-78.1307",
        "country": "Ecuador"
    },
    {
        "name": "Eksambe",
        "lat": "16.4200",
        "lng": "74.5800",
        "country": "India"
    },
    {
        "name": "Goodlettsville",
        "lat": "36.3330",
        "lng": "-86.7026",
        "country": "United States"
    },
    {
        "name": "Buguda",
        "lat": "19.8081",
        "lng": "84.7908",
        "country": "India"
    },
    {
        "name": "Kudav\u0101sal",
        "lat": "10.8582",
        "lng": "79.4823",
        "country": "India"
    },
    {
        "name": "Sahel",
        "lat": "34.9667",
        "lng": "-4.5500",
        "country": "Morocco"
    },
    {
        "name": "\u012al\u0101m",
        "lat": "26.9080",
        "lng": "87.9260",
        "country": "Nepal"
    },
    {
        "name": "Stockach",
        "lat": "47.8514",
        "lng": "9.0114",
        "country": "Germany"
    },
    {
        "name": "Scott",
        "lat": "40.3875",
        "lng": "-80.0791",
        "country": "United States"
    },
    {
        "name": "Coalinga",
        "lat": "36.1420",
        "lng": "-120.3242",
        "country": "United States"
    },
    {
        "name": "N\u00fcmbrecht",
        "lat": "50.9053",
        "lng": "7.5422",
        "country": "Germany"
    },
    {
        "name": "Biyahm\u016b",
        "lat": "29.3675",
        "lng": "30.8528",
        "country": "Egypt"
    },
    {
        "name": "Karukh",
        "lat": "34.4922",
        "lng": "62.5922",
        "country": "Afghanistan"
    },
    {
        "name": "Augustin\u00f3polis",
        "lat": "-5.4658",
        "lng": "-47.8878",
        "country": "Brazil"
    },
    {
        "name": "Zhoujia",
        "lat": "35.2976",
        "lng": "108.0347",
        "country": "China"
    },
    {
        "name": "Bhucho Mandi",
        "lat": "30.2129",
        "lng": "75.0969",
        "country": "India"
    },
    {
        "name": "Ambatolahy",
        "lat": "-20.0000",
        "lng": "45.5333",
        "country": "Madagascar"
    },
    {
        "name": "Villa Sarmiento",
        "lat": "-34.6333",
        "lng": "-58.5667",
        "country": "Argentina"
    },
    {
        "name": "Croat\u00e1",
        "lat": "-4.4000",
        "lng": "-40.9108",
        "country": "Brazil"
    },
    {
        "name": "Pajapan",
        "lat": "18.2667",
        "lng": "-94.6833",
        "country": "Mexico"
    },
    {
        "name": "Budva",
        "lat": "42.2881",
        "lng": "18.8425",
        "country": "Montenegro"
    },
    {
        "name": "Kushk",
        "lat": "33.2956",
        "lng": "61.9522",
        "country": "Afghanistan"
    },
    {
        "name": "Urucuia",
        "lat": "-16.1308",
        "lng": "-45.7425",
        "country": "Brazil"
    },
    {
        "name": "Shin-Kamigot\u014d",
        "lat": "32.9844",
        "lng": "129.0733",
        "country": "Japan"
    },
    {
        "name": "South Ogden",
        "lat": "41.1722",
        "lng": "-111.9576",
        "country": "United States"
    },
    {
        "name": "El Reno",
        "lat": "35.5429",
        "lng": "-97.9660",
        "country": "United States"
    },
    {
        "name": "Fairview",
        "lat": "40.1735",
        "lng": "-76.8655",
        "country": "United States"
    },
    {
        "name": "Tepatlaxco",
        "lat": "19.0667",
        "lng": "-97.9667",
        "country": "Mexico"
    },
    {
        "name": "Dharampuri",
        "lat": "22.1495",
        "lng": "75.3444",
        "country": "India"
    },
    {
        "name": "Umirim",
        "lat": "-3.6833",
        "lng": "-39.3333",
        "country": "Brazil"
    },
    {
        "name": "Corb\u00e9lia",
        "lat": "-24.8000",
        "lng": "-53.3000",
        "country": "Brazil"
    },
    {
        "name": "Valli\u00e8res",
        "lat": "19.4333",
        "lng": "-71.9167",
        "country": "Haiti"
    },
    {
        "name": "Anant\u0101v\u016br",
        "lat": "10.8925",
        "lng": "75.9983",
        "country": "India"
    },
    {
        "name": "Saluzzo",
        "lat": "44.6500",
        "lng": "7.4833",
        "country": "Italy"
    }
]