[
    {
        "name": "Gwoza",
        "lat": "11.0861",
        "lng": "13.6914",
        "country": "Nigeria"
    },
    {
        "name": "Sampaloc",
        "lat": "14.6031",
        "lng": "121.0022",
        "country": "Philippines"
    },
    {
        "name": "Saki",
        "lat": "8.6667",
        "lng": "3.4000",
        "country": "Nigeria"
    },
    {
        "name": "Bologna",
        "lat": "44.4939",
        "lng": "11.3428",
        "country": "Italy"
    },
    {
        "name": "Aqt\u00f6be",
        "lat": "50.2836",
        "lng": "57.2297",
        "country": "Kazakhstan"
    },
    {
        "name": "Cilegon",
        "lat": "-6.0027",
        "lng": "106.0112",
        "country": "Indonesia"
    },
    {
        "name": "Uvinza",
        "lat": "-5.1069",
        "lng": "30.3839",
        "country": "Tanzania"
    },
    {
        "name": "Aurora",
        "lat": "39.7083",
        "lng": "-104.7237",
        "country": "United States"
    },
    {
        "name": "Carapicu\u00edba",
        "lat": "-23.5192",
        "lng": "-46.8358",
        "country": "Brazil"
    },
    {
        "name": "\u1e28afr al B\u0101\u0163in",
        "lat": "28.4342",
        "lng": "45.9636",
        "country": "Saudi Arabia"
    },
    {
        "name": "Zanj\u0101n",
        "lat": "36.6789",
        "lng": "48.5056",
        "country": "Iran"
    },
    {
        "name": "Petrolina",
        "lat": "-9.3825",
        "lng": "-40.5022",
        "country": "Brazil"
    },
    {
        "name": "Bairia",
        "lat": "25.7583",
        "lng": "84.1489",
        "country": "India"
    },
    {
        "name": "Oyo",
        "lat": "7.8500",
        "lng": "3.9330",
        "country": "Nigeria"
    },
    {
        "name": "Taytay",
        "lat": "14.5692",
        "lng": "121.1325",
        "country": "Philippines"
    },
    {
        "name": "Kisenzi",
        "lat": "-4.4094",
        "lng": "15.3425",
        "country": "Congo (Kinshasa)"
    },
    {
        "name": "Bh\u0101tp\u0101ra",
        "lat": "22.8700",
        "lng": "88.4100",
        "country": "India"
    },
    {
        "name": "K\u016bkatpalli",
        "lat": "17.4849",
        "lng": "78.4138",
        "country": "India"
    },
    {
        "name": "Manisa",
        "lat": "38.6144",
        "lng": "27.4292",
        "country": "Turkey"
    },
    {
        "name": "Sir\u016br",
        "lat": "18.8300",
        "lng": "74.3800",
        "country": "India"
    },
    {
        "name": "Tarlac City",
        "lat": "15.4869",
        "lng": "120.5900",
        "country": "Philippines"
    },
    {
        "name": "Okazaki",
        "lat": "34.9543",
        "lng": "137.1744",
        "country": "Japan"
    },
    {
        "name": "Lianzhou",
        "lat": "24.7810",
        "lng": "112.3770",
        "country": "China"
    },
    {
        "name": "Ceel Baraf",
        "lat": "3.2073",
        "lng": "45.7587",
        "country": "Somalia"
    },
    {
        "name": "Yidu",
        "lat": "30.3780",
        "lng": "111.4500",
        "country": "China"
    },
    {
        "name": "Lingxi",
        "lat": "27.5036",
        "lng": "120.3975",
        "country": "China"
    },
    {
        "name": "Ilesa",
        "lat": "7.6167",
        "lng": "4.7167",
        "country": "Nigeria"
    },
    {
        "name": "K\u0101kin\u0101da",
        "lat": "16.9661",
        "lng": "82.2550",
        "country": "India"
    },
    {
        "name": "Savar",
        "lat": "23.8500",
        "lng": "90.2600",
        "country": "Bangladesh"
    },
    {
        "name": "Nuevo Laredo",
        "lat": "27.4861",
        "lng": "-99.5069",
        "country": "Mexico"
    },
    {
        "name": "Bawshar",
        "lat": "23.5333",
        "lng": "58.3833",
        "country": "Oman"
    },
    {
        "name": "Christchurch",
        "lat": "-43.5310",
        "lng": "172.6365",
        "country": "New Zealand"
    },
    {
        "name": "Gusau",
        "lat": "12.1500",
        "lng": "6.6667",
        "country": "Nigeria"
    },
    {
        "name": "Z\u00eatang",
        "lat": "29.2380",
        "lng": "91.7710",
        "country": "China"
    },
    {
        "name": "Palu",
        "lat": "-0.8950",
        "lng": "119.8594",
        "country": "Indonesia"
    },
    {
        "name": "Canberra",
        "lat": "-35.2931",
        "lng": "149.1269",
        "country": "Australia"
    },
    {
        "name": "Minamisuita",
        "lat": "34.7594",
        "lng": "135.5169",
        "country": "Japan"
    },
    {
        "name": "T\u00e9touan",
        "lat": "35.5667",
        "lng": "-5.3667",
        "country": "Morocco"
    },
    {
        "name": "Malabon",
        "lat": "14.6600",
        "lng": "120.9600",
        "country": "Philippines"
    },
    {
        "name": "Neiva",
        "lat": "2.9345",
        "lng": "-75.2809",
        "country": "Colombia"
    },
    {
        "name": "Novi Sad",
        "lat": "45.2542",
        "lng": "19.8425",
        "country": "Serbia"
    },
    {
        "name": "Huancayo",
        "lat": "-12.0667",
        "lng": "-75.2167",
        "country": "Peru"
    },
    {
        "name": "Celaya",
        "lat": "20.5222",
        "lng": "-100.8122",
        "country": "Mexico"
    },
    {
        "name": "Ichinomiya",
        "lat": "35.3039",
        "lng": "136.8031",
        "country": "Japan"
    },
    {
        "name": "Caruaru",
        "lat": "-8.2828",
        "lng": "-35.9758",
        "country": "Brazil"
    },
    {
        "name": "Sintra",
        "lat": "38.7992",
        "lng": "-9.3883",
        "country": "Portugal"
    },
    {
        "name": "Hatay",
        "lat": "36.2025",
        "lng": "36.1606",
        "country": "Turkey"
    },
    {
        "name": "Iquitos",
        "lat": "-3.7500",
        "lng": "-73.2500",
        "country": "Peru"
    },
    {
        "name": "P\u0101nih\u0101ti",
        "lat": "22.6900",
        "lng": "88.3700",
        "country": "India"
    },
    {
        "name": "Cainta",
        "lat": "14.5700",
        "lng": "121.1200",
        "country": "Philippines"
    },
    {
        "name": "Helixi",
        "lat": "30.6267",
        "lng": "118.9861",
        "country": "China"
    },
    {
        "name": "Mamou",
        "lat": "10.3833",
        "lng": "-12.0833",
        "country": "Guinea"
    },
    {
        "name": "Manukau City",
        "lat": "-37.0000",
        "lng": "174.8850",
        "country": "New Zealand"
    },
    {
        "name": "Itaquaquecetuba",
        "lat": "-23.4864",
        "lng": "-46.3486",
        "country": "Brazil"
    },
    {
        "name": "Cantonment",
        "lat": "31.5167",
        "lng": "74.3833",
        "country": "Pakistan"
    },
    {
        "name": "Rohtak",
        "lat": "28.8909",
        "lng": "76.5796",
        "country": "India"
    },
    {
        "name": "Gaziantep",
        "lat": "37.0628",
        "lng": "37.3792",
        "country": "Turkey"
    },
    {
        "name": "M\u0101ler Kotla",
        "lat": "30.5167",
        "lng": "75.8833",
        "country": "India"
    },
    {
        "name": "Bhawana",
        "lat": "31.5661",
        "lng": "72.6461",
        "country": "Pakistan"
    },
    {
        "name": "Khorram\u0101b\u0101d",
        "lat": "33.4875",
        "lng": "48.3561",
        "country": "Iran"
    },
    {
        "name": "Lipa City",
        "lat": "13.9411",
        "lng": "121.1622",
        "country": "Philippines"
    },
    {
        "name": "Butuan",
        "lat": "8.9480",
        "lng": "125.5430",
        "country": "Philippines"
    },
    {
        "name": "Dikirnis",
        "lat": "31.0883",
        "lng": "31.5969",
        "country": "Egypt"
    },
    {
        "name": "Stoke-on-Trent",
        "lat": "53.0000",
        "lng": "-2.1833",
        "country": "United Kingdom"
    },
    {
        "name": "Takasaki",
        "lat": "36.3219",
        "lng": "139.0033",
        "country": "Japan"
    },
    {
        "name": "Malakwal",
        "lat": "32.5531",
        "lng": "73.2067",
        "country": "Pakistan"
    },
    {
        "name": "Toyohashi",
        "lat": "34.7692",
        "lng": "137.3915",
        "country": "Japan"
    },
    {
        "name": "Chitungwiza",
        "lat": "-17.9939",
        "lng": "31.0481",
        "country": "Zimbabwe"
    },
    {
        "name": "Gebze",
        "lat": "40.8000",
        "lng": "29.4333",
        "country": "Turkey"
    },
    {
        "name": "Cibinong",
        "lat": "-6.4850",
        "lng": "106.8420",
        "country": "Indonesia"
    },
    {
        "name": "Lengshuijiang",
        "lat": "27.6860",
        "lng": "111.4360",
        "country": "China"
    },
    {
        "name": "Panshi",
        "lat": "42.9500",
        "lng": "126.0667",
        "country": "China"
    },
    {
        "name": "Az Zubayr",
        "lat": "30.3833",
        "lng": "47.7000",
        "country": "Iraq"
    },
    {
        "name": "Oxnard",
        "lat": "34.1964",
        "lng": "-119.1815",
        "country": "United States"
    },
    {
        "name": "Vinnytsia",
        "lat": "49.2333",
        "lng": "28.4833",
        "country": "Ukraine"
    },
    {
        "name": "Indio",
        "lat": "33.7346",
        "lng": "-116.2346",
        "country": "United States"
    },
    {
        "name": "Bharatpur",
        "lat": "27.6833",
        "lng": "84.4333",
        "country": "Nepal"
    },
    {
        "name": "Petare",
        "lat": "10.4833",
        "lng": "-66.8167",
        "country": "Venezuela"
    },
    {
        "name": "Nagano",
        "lat": "36.6486",
        "lng": "138.1947",
        "country": "Japan"
    },
    {
        "name": "Huichang",
        "lat": "34.9073",
        "lng": "112.7914",
        "country": "China"
    },
    {
        "name": "Keelung",
        "lat": "25.1333",
        "lng": "121.7333",
        "country": "Taiwan"
    },
    {
        "name": "Bauru",
        "lat": "-22.3150",
        "lng": "-49.0608",
        "country": "Brazil"
    },
    {
        "name": "La Florida",
        "lat": "-33.5333",
        "lng": "-70.5833",
        "country": "Chile"
    },
    {
        "name": "Nicol\u00e1s Romero",
        "lat": "19.5833",
        "lng": "-99.3667",
        "country": "Mexico"
    },
    {
        "name": "Jinshan",
        "lat": "25.1462",
        "lng": "102.0723",
        "country": "China"
    },
    {
        "name": "Baguio City",
        "lat": "16.4119",
        "lng": "120.5933",
        "country": "Philippines"
    },
    {
        "name": "Scranton",
        "lat": "41.4044",
        "lng": "-75.6649",
        "country": "United States"
    },
    {
        "name": "Bochum",
        "lat": "51.4819",
        "lng": "7.2158",
        "country": "Germany"
    },
    {
        "name": "Sivas",
        "lat": "39.7500",
        "lng": "37.0167",
        "country": "Turkey"
    },
    {
        "name": "Kolga",
        "lat": "22.3500",
        "lng": "82.6800",
        "country": "India"
    },
    {
        "name": "Korba",
        "lat": "22.3458",
        "lng": "82.6963",
        "country": "India"
    },
    {
        "name": "Qardho",
        "lat": "9.5000",
        "lng": "49.0833",
        "country": "Somalia"
    },
    {
        "name": "Rio Branco",
        "lat": "-9.9747",
        "lng": "-67.8100",
        "country": "Brazil"
    },
    {
        "name": "Tec\u00e1mac",
        "lat": "19.7131",
        "lng": "-98.9683",
        "country": "Mexico"
    },
    {
        "name": "Alanya",
        "lat": "36.5500",
        "lng": "32.0000",
        "country": "Turkey"
    },
    {
        "name": "Mandaue City",
        "lat": "10.3300",
        "lng": "123.9300",
        "country": "Philippines"
    },
    {
        "name": "Victorville",
        "lat": "34.5277",
        "lng": "-117.3536",
        "country": "United States"
    },
    {
        "name": "Kocaeli",
        "lat": "40.7625",
        "lng": "29.9175",
        "country": "Turkey"
    },
    {
        "name": "Warri",
        "lat": "5.5167",
        "lng": "5.7500",
        "country": "Nigeria"
    },
    {
        "name": "Victoria",
        "lat": "48.4283",
        "lng": "-123.3647",
        "country": "Canada"
    }
]