[
    {
        "name": "Jalp\u0101iguri",
        "lat": "26.5200",
        "lng": "88.7300",
        "country": "India"
    },
    {
        "name": "Manokwari",
        "lat": "-0.8667",
        "lng": "134.0833",
        "country": "Indonesia"
    },
    {
        "name": "Sh\u0101mli",
        "lat": "29.4500",
        "lng": "77.3200",
        "country": "India"
    },
    {
        "name": "Argenteuil",
        "lat": "48.9500",
        "lng": "2.2500",
        "country": "France"
    },
    {
        "name": "Sandy Springs",
        "lat": "33.9366",
        "lng": "-84.3703",
        "country": "United States"
    },
    {
        "name": "Wa",
        "lat": "10.0667",
        "lng": "-2.5000",
        "country": "Ghana"
    },
    {
        "name": "Camb\u00e9",
        "lat": "-23.2758",
        "lng": "-51.2778",
        "country": "Brazil"
    },
    {
        "name": "Bhilai Karanja",
        "lat": "21.2198",
        "lng": "81.4575",
        "country": "India"
    },
    {
        "name": "Chongshan",
        "lat": "18.7751",
        "lng": "109.5169",
        "country": "China"
    },
    {
        "name": "Ilebo",
        "lat": "-4.3167",
        "lng": "20.6000",
        "country": "Congo (Kinshasa)"
    },
    {
        "name": "La Gi",
        "lat": "10.6600",
        "lng": "107.7719",
        "country": "Vietnam"
    },
    {
        "name": "Ejido",
        "lat": "8.3333",
        "lng": "-71.4000",
        "country": "Venezuela"
    },
    {
        "name": "Emmen",
        "lat": "52.7833",
        "lng": "6.9000",
        "country": "Netherlands"
    },
    {
        "name": "Edison",
        "lat": "40.5360",
        "lng": "-74.3697",
        "country": "United States"
    },
    {
        "name": "Reutov",
        "lat": "55.7622",
        "lng": "37.8567",
        "country": "Russia"
    },
    {
        "name": "Bant\u00e9",
        "lat": "8.4167",
        "lng": "1.8833",
        "country": "Benin"
    },
    {
        "name": "Luj\u00e1n",
        "lat": "-34.5667",
        "lng": "-59.1000",
        "country": "Argentina"
    },
    {
        "name": "Bagong Silangan",
        "lat": "14.7094",
        "lng": "121.1000",
        "country": "Philippines"
    },
    {
        "name": "Noyabrsk",
        "lat": "63.2000",
        "lng": "75.4500",
        "country": "Russia"
    },
    {
        "name": "Yopal",
        "lat": "5.3500",
        "lng": "-72.4100",
        "country": "Colombia"
    },
    {
        "name": "Erdenet",
        "lat": "49.0278",
        "lng": "104.0444",
        "country": "Mongolia"
    },
    {
        "name": "Inglewood",
        "lat": "33.9566",
        "lng": "-118.3444",
        "country": "United States"
    },
    {
        "name": "Suri\u0101pet",
        "lat": "17.1415",
        "lng": "79.6236",
        "country": "India"
    },
    {
        "name": "Kalmunai",
        "lat": "7.4167",
        "lng": "81.8167",
        "country": "Sri Lanka"
    },
    {
        "name": "Tajimi",
        "lat": "35.3328",
        "lng": "137.1316",
        "country": "Japan"
    },
    {
        "name": "Ch\u0101bah\u0101r",
        "lat": "25.2928",
        "lng": "60.6497",
        "country": "Iran"
    },
    {
        "name": "Art\u00ebm",
        "lat": "43.3667",
        "lng": "132.2000",
        "country": "Russia"
    },
    {
        "name": "Tenggarong",
        "lat": "-0.4000",
        "lng": "116.9667",
        "country": "Indonesia"
    },
    {
        "name": "Hillsboro",
        "lat": "45.5273",
        "lng": "-122.9360",
        "country": "United States"
    },
    {
        "name": "Crawley",
        "lat": "51.1092",
        "lng": "-0.1872",
        "country": "United Kingdom"
    },
    {
        "name": "A\u00e7ailandia",
        "lat": "-4.9469",
        "lng": "-47.5050",
        "country": "Brazil"
    },
    {
        "name": "Roquetas de Mar",
        "lat": "36.7642",
        "lng": "-2.6147",
        "country": "Spain"
    },
    {
        "name": "As Saf\u012brah",
        "lat": "36.0778",
        "lng": "37.3733",
        "country": "Syria"
    },
    {
        "name": "Wardha",
        "lat": "20.7417",
        "lng": "78.6056",
        "country": "India"
    },
    {
        "name": "La Banda",
        "lat": "-27.7333",
        "lng": "-64.2500",
        "country": "Argentina"
    },
    {
        "name": "Catbalogan",
        "lat": "11.7800",
        "lng": "124.8800",
        "country": "Philippines"
    },
    {
        "name": "Htison",
        "lat": "15.9000",
        "lng": "98.1833",
        "country": "Burma"
    },
    {
        "name": "R\u0101n\u012bbennur",
        "lat": "14.6167",
        "lng": "75.6167",
        "country": "India"
    },
    {
        "name": "Burbank",
        "lat": "34.1879",
        "lng": "-118.3235",
        "country": "United States"
    },
    {
        "name": "Terni",
        "lat": "42.5619",
        "lng": "12.6414",
        "country": "Italy"
    },
    {
        "name": "Mulhouse",
        "lat": "47.7500",
        "lng": "7.3400",
        "country": "France"
    },
    {
        "name": "Nakhon Si Thammarat",
        "lat": "8.4364",
        "lng": "99.9631",
        "country": "Thailand"
    },
    {
        "name": "Berdiansk",
        "lat": "46.7556",
        "lng": "36.7889",
        "country": "Ukraine"
    },
    {
        "name": "Toufen",
        "lat": "24.6832",
        "lng": "120.9072",
        "country": "Taiwan"
    },
    {
        "name": "K\u016dlob",
        "lat": "37.9092",
        "lng": "69.7819",
        "country": "Tajikistan"
    },
    {
        "name": "Kemalpa\u015fa",
        "lat": "38.4278",
        "lng": "27.4161",
        "country": "Turkey"
    },
    {
        "name": "Ad Dakhla",
        "lat": "23.7081",
        "lng": "-15.9456",
        "country": "Morocco"
    },
    {
        "name": "Tiaong",
        "lat": "13.9500",
        "lng": "121.3200",
        "country": "Philippines"
    },
    {
        "name": "Tarn\u00f3w",
        "lat": "50.0125",
        "lng": "20.9886",
        "country": "Poland"
    },
    {
        "name": "Carmona",
        "lat": "14.3200",
        "lng": "121.0500",
        "country": "Philippines"
    },
    {
        "name": "Dagenham",
        "lat": "51.5397",
        "lng": "0.1422",
        "country": "United Kingdom"
    },
    {
        "name": "El Lim\u00f3n",
        "lat": "10.3003",
        "lng": "-67.6336",
        "country": "Venezuela"
    },
    {
        "name": "Barnoi",
        "lat": "32.4300",
        "lng": "75.4300",
        "country": "India"
    },
    {
        "name": "Bolzano",
        "lat": "46.5000",
        "lng": "11.3500",
        "country": "Italy"
    },
    {
        "name": "Raba",
        "lat": "-8.4614",
        "lng": "118.7469",
        "country": "Indonesia"
    },
    {
        "name": "Ming\u0259\u00e7evir",
        "lat": "40.7700",
        "lng": "47.0489",
        "country": "Azerbaijan"
    },
    {
        "name": "S\u012bt\u0101marhi",
        "lat": "26.6000",
        "lng": "85.4800",
        "country": "India"
    },
    {
        "name": "Lokossa",
        "lat": "6.6333",
        "lng": "1.7167",
        "country": "Benin"
    },
    {
        "name": "Nanaimo",
        "lat": "49.1642",
        "lng": "-123.9364",
        "country": "Canada"
    },
    {
        "name": "S\u01a1n La",
        "lat": "21.3270",
        "lng": "103.9141",
        "country": "Vietnam"
    },
    {
        "name": "S\u00e3o Pedro da Aldeia",
        "lat": "-22.8389",
        "lng": "-42.1028",
        "country": "Brazil"
    },
    {
        "name": "Contramaestre",
        "lat": "20.3000",
        "lng": "-76.2506",
        "country": "Cuba"
    },
    {
        "name": "Khanty-Mansiysk",
        "lat": "61.0000",
        "lng": "69.0000",
        "country": "Russia"
    },
    {
        "name": "Atebubu",
        "lat": "7.7500",
        "lng": "-0.9833",
        "country": "Ghana"
    },
    {
        "name": "Koszalin",
        "lat": "54.2000",
        "lng": "16.1833",
        "country": "Poland"
    },
    {
        "name": "Idk\u016b",
        "lat": "31.3000",
        "lng": "30.3000",
        "country": "Egypt"
    },
    {
        "name": "Lo Barnechea",
        "lat": "-33.3500",
        "lng": "-70.5167",
        "country": "Chile"
    },
    {
        "name": "Davie",
        "lat": "26.0789",
        "lng": "-80.2870",
        "country": "United States"
    },
    {
        "name": "Kishanganj",
        "lat": "26.0794",
        "lng": "87.9372",
        "country": "India"
    },
    {
        "name": "S\u00f4ng C\u1ea7u",
        "lat": "13.5500",
        "lng": "109.2000",
        "country": "Vietnam"
    },
    {
        "name": "Temoaya",
        "lat": "19.4686",
        "lng": "-99.5933",
        "country": "Mexico"
    },
    {
        "name": "Kiry\u016b",
        "lat": "36.4052",
        "lng": "139.4973",
        "country": "Japan"
    },
    {
        "name": "Jata\u00ed",
        "lat": "-17.8808",
        "lng": "-51.8306",
        "country": "Brazil"
    },
    {
        "name": "El Cajon",
        "lat": "32.8017",
        "lng": "-116.9604",
        "country": "United States"
    },
    {
        "name": "Erechim",
        "lat": "-27.6339",
        "lng": "-52.2739",
        "country": "Brazil"
    },
    {
        "name": "Tikr\u012bt",
        "lat": "34.6100",
        "lng": "43.6800",
        "country": "Iraq"
    },
    {
        "name": "Hindaun",
        "lat": "26.7400",
        "lng": "77.0300",
        "country": "India"
    },
    {
        "name": "Azare",
        "lat": "11.6742",
        "lng": "10.1911",
        "country": "Nigeria"
    },
    {
        "name": "Sem\u0101ri",
        "lat": "24.0555",
        "lng": "73.8566",
        "country": "India"
    },
    {
        "name": "Jurupa Valley",
        "lat": "34.0010",
        "lng": "-117.4706",
        "country": "United States"
    },
    {
        "name": "Lerma",
        "lat": "19.2847",
        "lng": "-99.5119",
        "country": "Mexico"
    },
    {
        "name": "Tar\u012bm",
        "lat": "16.0500",
        "lng": "49.0000",
        "country": "Yemen"
    },
    {
        "name": "Nova Serrana",
        "lat": "-19.8667",
        "lng": "-44.9833",
        "country": "Brazil"
    },
    {
        "name": "Japeri",
        "lat": "-22.6431",
        "lng": "-43.6533",
        "country": "Brazil"
    },
    {
        "name": "Paragominas",
        "lat": "-2.9958",
        "lng": "-47.3528",
        "country": "Brazil"
    },
    {
        "name": "Gang\u0101wati",
        "lat": "15.4300",
        "lng": "76.5300",
        "country": "India"
    },
    {
        "name": "Pushkino",
        "lat": "56.0167",
        "lng": "37.8333",
        "country": "Russia"
    },
    {
        "name": "Malu\u00f1gun",
        "lat": "6.2700",
        "lng": "125.2800",
        "country": "Philippines"
    },
    {
        "name": "Allen",
        "lat": "33.1088",
        "lng": "-96.6735",
        "country": "United States"
    },
    {
        "name": "\u0160abac",
        "lat": "44.7500",
        "lng": "19.7000",
        "country": "Serbia"
    },
    {
        "name": "Charsadda",
        "lat": "34.1500",
        "lng": "71.7333",
        "country": "Pakistan"
    },
    {
        "name": "Alchevsk",
        "lat": "48.4778",
        "lng": "38.7978",
        "country": "Ukraine"
    },
    {
        "name": "Rob\u0101\u0163 Kar\u012bm",
        "lat": "35.4825",
        "lng": "51.0786",
        "country": "Iran"
    },
    {
        "name": "Auburn",
        "lat": "32.6087",
        "lng": "-85.4903",
        "country": "United States"
    },
    {
        "name": "Renton",
        "lat": "47.4784",
        "lng": "-122.1918",
        "country": "United States"
    },
    {
        "name": "Nautanwa",
        "lat": "27.4300",
        "lng": "83.4200",
        "country": "India"
    },
    {
        "name": "Mazyr",
        "lat": "52.0500",
        "lng": "29.2500",
        "country": "Belarus"
    },
    {
        "name": "Xiva",
        "lat": "41.3814",
        "lng": "60.3611",
        "country": "Uzbekistan"
    },
    {
        "name": "Moers",
        "lat": "51.4592",
        "lng": "6.6197",
        "country": "Germany"
    },
    {
        "name": "Achinsk",
        "lat": "56.2817",
        "lng": "90.5039",
        "country": "Russia"
    }
]