[
    {
        "name": "Tarabha",
        "lat": "20.7325",
        "lng": "83.6744",
        "country": "India"
    },
    {
        "name": "Tilougguit",
        "lat": "32.0333",
        "lng": "-6.2000",
        "country": "Morocco"
    },
    {
        "name": "Phaphot",
        "lat": "25.6817",
        "lng": "86.0069",
        "country": "India"
    },
    {
        "name": "Kulri\u0101n",
        "lat": "29.7994",
        "lng": "75.6827",
        "country": "India"
    },
    {
        "name": "Bir Ben Laabed",
        "lat": "36.2175",
        "lng": "3.4267",
        "country": "Algeria"
    },
    {
        "name": "Urrugne",
        "lat": "43.3631",
        "lng": "-1.6989",
        "country": "France"
    },
    {
        "name": "Paran\u00e3",
        "lat": "-12.6150",
        "lng": "-47.8828",
        "country": "Brazil"
    },
    {
        "name": "Chervyen",
        "lat": "53.7078",
        "lng": "28.4322",
        "country": "Belarus"
    },
    {
        "name": "Wendeburg",
        "lat": "52.3167",
        "lng": "10.4000",
        "country": "Germany"
    },
    {
        "name": "Sambalhera",
        "lat": "29.3250",
        "lng": "77.9194",
        "country": "India"
    },
    {
        "name": "Bischofshofen",
        "lat": "47.4172",
        "lng": "13.2194",
        "country": "Austria"
    },
    {
        "name": "Ormesson-sur-Marne",
        "lat": "48.7858",
        "lng": "2.5383",
        "country": "France"
    },
    {
        "name": "Werlte",
        "lat": "52.8500",
        "lng": "7.6833",
        "country": "Germany"
    },
    {
        "name": "Lasht-e Nesh\u0101",
        "lat": "37.3608",
        "lng": "49.8611",
        "country": "Iran"
    },
    {
        "name": "Marotaolana",
        "lat": "-14.0167",
        "lng": "48.6167",
        "country": "Madagascar"
    },
    {
        "name": "Grevesm\u00fchlen",
        "lat": "53.8667",
        "lng": "11.1667",
        "country": "Germany"
    },
    {
        "name": "Torpa",
        "lat": "22.9361",
        "lng": "85.0889",
        "country": "India"
    },
    {
        "name": "Madathapatti",
        "lat": "9.1321",
        "lng": "77.4245",
        "country": "India"
    },
    {
        "name": "Montalegre",
        "lat": "41.8231",
        "lng": "-7.7917",
        "country": "Portugal"
    },
    {
        "name": "Saint-G\u00e9ly-du-Fesc",
        "lat": "43.6931",
        "lng": "3.8067",
        "country": "France"
    },
    {
        "name": "Ar\u0101velli",
        "lat": "18.7190",
        "lng": "79.0262",
        "country": "India"
    },
    {
        "name": "Chota Mollakh\u0101li",
        "lat": "22.2222",
        "lng": "88.8956",
        "country": "India"
    },
    {
        "name": "Jhonkar",
        "lat": "23.2361",
        "lng": "76.1814",
        "country": "India"
    },
    {
        "name": "Antenetibe",
        "lat": "-18.7833",
        "lng": "47.4167",
        "country": "Madagascar"
    },
    {
        "name": "Apt",
        "lat": "43.8769",
        "lng": "5.3969",
        "country": "France"
    },
    {
        "name": "Pallatt\u016br",
        "lat": "10.1461",
        "lng": "78.8031",
        "country": "India"
    },
    {
        "name": "San Juanito",
        "lat": "27.9700",
        "lng": "-107.6003",
        "country": "Mexico"
    },
    {
        "name": "Torotoro",
        "lat": "-18.1342",
        "lng": "-65.7633",
        "country": "Bolivia"
    },
    {
        "name": "Maevka",
        "lat": "42.9250",
        "lng": "74.5694",
        "country": "Kyrgyzstan"
    },
    {
        "name": "N\u0101gambhotlap\u0101lem",
        "lat": "15.6804",
        "lng": "79.8151",
        "country": "India"
    },
    {
        "name": "The Pinery",
        "lat": "39.4462",
        "lng": "-104.7591",
        "country": "United States"
    },
    {
        "name": "Zmeinogorsk",
        "lat": "51.1667",
        "lng": "82.2000",
        "country": "Russia"
    },
    {
        "name": "Mfou",
        "lat": "3.9600",
        "lng": "11.9300",
        "country": "Cameroon"
    },
    {
        "name": "Leninaul",
        "lat": "43.0833",
        "lng": "46.5667",
        "country": "Russia"
    },
    {
        "name": "K\u0101khandiki",
        "lat": "16.6010",
        "lng": "75.6405",
        "country": "India"
    },
    {
        "name": "River Grove",
        "lat": "41.9243",
        "lng": "-87.8379",
        "country": "United States"
    },
    {
        "name": "Mouans-Sartoux",
        "lat": "43.6211",
        "lng": "6.9725",
        "country": "France"
    },
    {
        "name": "T\u0101marankottai",
        "lat": "10.4300",
        "lng": "79.3200",
        "country": "India"
    },
    {
        "name": "North Bellport",
        "lat": "40.7868",
        "lng": "-72.9457",
        "country": "United States"
    },
    {
        "name": "Rabta",
        "lat": "35.9167",
        "lng": "4.7500",
        "country": "Algeria"
    },
    {
        "name": "Sidi Bousber",
        "lat": "34.5667",
        "lng": "-5.3667",
        "country": "Morocco"
    },
    {
        "name": "Garag",
        "lat": "15.5750",
        "lng": "74.9297",
        "country": "India"
    },
    {
        "name": "Pazaryeri",
        "lat": "40.0000",
        "lng": "29.9000",
        "country": "Turkey"
    },
    {
        "name": "Reiskirchen",
        "lat": "50.6000",
        "lng": "8.8333",
        "country": "Germany"
    },
    {
        "name": "Cotacachi",
        "lat": "0.3000",
        "lng": "-78.2667",
        "country": "Ecuador"
    },
    {
        "name": "Alcora",
        "lat": "40.0667",
        "lng": "-0.2000",
        "country": "Spain"
    },
    {
        "name": "T\u00e1rnok",
        "lat": "47.3597",
        "lng": "18.8586",
        "country": "Hungary"
    },
    {
        "name": "Skillo\u00fanta",
        "lat": "37.6061",
        "lng": "21.6870",
        "country": "Greece"
    },
    {
        "name": "Alderwood Manor",
        "lat": "47.8146",
        "lng": "-122.2672",
        "country": "United States"
    },
    {
        "name": "Dhilwan",
        "lat": "31.5143",
        "lng": "75.3457",
        "country": "India"
    },
    {
        "name": "Tulshia",
        "lat": "26.3468",
        "lng": "87.8411",
        "country": "India"
    },
    {
        "name": "Karukkalv\u0101di",
        "lat": "11.6714",
        "lng": "78.0126",
        "country": "India"
    },
    {
        "name": "Saks",
        "lat": "33.7118",
        "lng": "-85.8536",
        "country": "United States"
    },
    {
        "name": "Wanderl\u00e2ndia",
        "lat": "-6.8333",
        "lng": "-47.8000",
        "country": "Brazil"
    },
    {
        "name": "La Virgen",
        "lat": "10.4312",
        "lng": "-84.0772",
        "country": "Costa Rica"
    },
    {
        "name": "Benedito Novo",
        "lat": "-26.8000",
        "lng": "-49.4167",
        "country": "Brazil"
    },
    {
        "name": "Recreio",
        "lat": "-21.5250",
        "lng": "-42.4689",
        "country": "Brazil"
    },
    {
        "name": "Flawil",
        "lat": "47.4167",
        "lng": "9.2000",
        "country": "Switzerland"
    },
    {
        "name": "Felida",
        "lat": "45.7138",
        "lng": "-122.7103",
        "country": "United States"
    },
    {
        "name": "Rasebetsane",
        "lat": "-29.8992",
        "lng": "27.6628",
        "country": "Lesotho"
    },
    {
        "name": "Parczew",
        "lat": "51.6333",
        "lng": "22.8667",
        "country": "Poland"
    },
    {
        "name": "Sahuria",
        "lat": "25.8197",
        "lng": "86.6132",
        "country": "India"
    },
    {
        "name": "N\u0101hargarh",
        "lat": "24.1692",
        "lng": "75.2342",
        "country": "India"
    },
    {
        "name": "Buttar Khurd",
        "lat": "30.7250",
        "lng": "75.2750",
        "country": "India"
    },
    {
        "name": "Montale",
        "lat": "43.9333",
        "lng": "11.0167",
        "country": "Italy"
    },
    {
        "name": "Xambio\u00e1",
        "lat": "-6.4108",
        "lng": "-48.5358",
        "country": "Brazil"
    },
    {
        "name": "Paitt\u016br",
        "lat": "11.5356",
        "lng": "78.5749",
        "country": "India"
    },
    {
        "name": "Simpelveld",
        "lat": "50.8333",
        "lng": "5.9833",
        "country": "Netherlands"
    },
    {
        "name": "G\u00f6lyaka",
        "lat": "40.7769",
        "lng": "30.9958",
        "country": "Turkey"
    },
    {
        "name": "Fl\u00f6ha",
        "lat": "50.8558",
        "lng": "13.0714",
        "country": "Germany"
    },
    {
        "name": "Sainte-Savine",
        "lat": "48.2956",
        "lng": "4.0497",
        "country": "France"
    },
    {
        "name": "Pierre-B\u00e9nite",
        "lat": "45.7036",
        "lng": "4.8242",
        "country": "France"
    },
    {
        "name": "Her\u012bs",
        "lat": "38.2475",
        "lng": "47.1164",
        "country": "Iran"
    },
    {
        "name": "Naganuma",
        "lat": "43.0167",
        "lng": "141.7000",
        "country": "Japan"
    },
    {
        "name": "Loudoun Valley Estates",
        "lat": "38.9770",
        "lng": "-77.5053",
        "country": "United States"
    },
    {
        "name": "Forest Acres",
        "lat": "34.0323",
        "lng": "-80.9716",
        "country": "United States"
    },
    {
        "name": "Shumanay",
        "lat": "42.6333",
        "lng": "58.9167",
        "country": "Uzbekistan"
    },
    {
        "name": "Per\u016br",
        "lat": "10.9752",
        "lng": "76.9129",
        "country": "India"
    },
    {
        "name": "Vargem",
        "lat": "-22.8889",
        "lng": "-46.4136",
        "country": "Brazil"
    },
    {
        "name": "Boudouaou el Bahri",
        "lat": "36.7733",
        "lng": "3.3872",
        "country": "Algeria"
    },
    {
        "name": "Stansbury Park",
        "lat": "40.6356",
        "lng": "-112.3054",
        "country": "United States"
    },
    {
        "name": "Plankstadt",
        "lat": "49.3933",
        "lng": "8.5942",
        "country": "Germany"
    },
    {
        "name": "Hilter",
        "lat": "52.1500",
        "lng": "8.1500",
        "country": "Germany"
    },
    {
        "name": "Neuhausen am Rheinfall",
        "lat": "47.6833",
        "lng": "8.6167",
        "country": "Switzerland"
    },
    {
        "name": "Obuse",
        "lat": "36.6975",
        "lng": "138.3121",
        "country": "Japan"
    },
    {
        "name": "Winterville",
        "lat": "35.5291",
        "lng": "-77.4000",
        "country": "United States"
    },
    {
        "name": "Burgau",
        "lat": "48.4322",
        "lng": "10.4069",
        "country": "Germany"
    },
    {
        "name": "Bagr\u012bnagar",
        "lat": "25.9000",
        "lng": "73.8000",
        "country": "India"
    },
    {
        "name": "Nallipp\u0101laiyam",
        "lat": "11.2388",
        "lng": "78.1495",
        "country": "India"
    },
    {
        "name": "Surinam",
        "lat": "-20.5139",
        "lng": "57.5111",
        "country": "Mauritius"
    },
    {
        "name": "Santiago Chimaltenango",
        "lat": "15.4814",
        "lng": "-91.7261",
        "country": "Guatemala"
    },
    {
        "name": "Murata",
        "lat": "38.1185",
        "lng": "140.7224",
        "country": "Japan"
    },
    {
        "name": "Morsand",
        "lat": "25.9335",
        "lng": "85.6980",
        "country": "India"
    },
    {
        "name": "Soquel",
        "lat": "36.9978",
        "lng": "-121.9483",
        "country": "United States"
    },
    {
        "name": "Imst",
        "lat": "47.2394",
        "lng": "10.7381",
        "country": "Austria"
    },
    {
        "name": "Andonabe Atsimo",
        "lat": "-19.8833",
        "lng": "48.2167",
        "country": "Madagascar"
    },
    {
        "name": "Heule",
        "lat": "50.8333",
        "lng": "3.2333",
        "country": "Belgium"
    },
    {
        "name": "Ertvelde",
        "lat": "51.1783",
        "lng": "3.7447",
        "country": "Belgium"
    },
    {
        "name": "Cristino Castro",
        "lat": "-8.8167",
        "lng": "-44.2167",
        "country": "Brazil"
    },
    {
        "name": "Tierra Colorada",
        "lat": "17.1656",
        "lng": "-99.5264",
        "country": "Mexico"
    }
]