[
    {
        "name": "Dyatkovo",
        "lat": "53.6000",
        "lng": "34.3333",
        "country": "Russia"
    },
    {
        "name": "Kawlin",
        "lat": "23.7903",
        "lng": "95.6806",
        "country": "Burma"
    },
    {
        "name": "Albergaria-a-Velha",
        "lat": "40.6933",
        "lng": "-8.4811",
        "country": "Portugal"
    },
    {
        "name": "Elkridge",
        "lat": "39.1941",
        "lng": "-76.7428",
        "country": "United States"
    },
    {
        "name": "Acatl\u00e1n",
        "lat": "20.2333",
        "lng": "-103.5333",
        "country": "Mexico"
    },
    {
        "name": "Topo\u013e\u010dany",
        "lat": "48.5542",
        "lng": "18.1769",
        "country": "Slovakia"
    },
    {
        "name": "Reedley",
        "lat": "36.5988",
        "lng": "-119.4471",
        "country": "United States"
    },
    {
        "name": "C\u00e2ndido Sales",
        "lat": "-15.5050",
        "lng": "-41.2389",
        "country": "Brazil"
    },
    {
        "name": "Delitzsch",
        "lat": "51.5264",
        "lng": "12.3425",
        "country": "Germany"
    },
    {
        "name": "Chardonni\u00e8res",
        "lat": "18.2667",
        "lng": "-74.1667",
        "country": "Haiti"
    },
    {
        "name": "Talugtug",
        "lat": "15.7789",
        "lng": "120.8111",
        "country": "Philippines"
    },
    {
        "name": "Camalaniugan",
        "lat": "18.2756",
        "lng": "121.6756",
        "country": "Philippines"
    },
    {
        "name": "Fengruncun",
        "lat": "34.8537",
        "lng": "109.8283",
        "country": "China"
    },
    {
        "name": "Chiromo",
        "lat": "-16.5500",
        "lng": "35.1333",
        "country": "Malawi"
    },
    {
        "name": "Barstow",
        "lat": "34.8661",
        "lng": "-117.0471",
        "country": "United States"
    },
    {
        "name": "Ganshoren",
        "lat": "50.8667",
        "lng": "4.3167",
        "country": "Belgium"
    },
    {
        "name": "Almonte",
        "lat": "37.2667",
        "lng": "-6.5167",
        "country": "Spain"
    },
    {
        "name": "Ilaiy\u0101nkudi",
        "lat": "9.6271",
        "lng": "78.6247",
        "country": "India"
    },
    {
        "name": "Mudgal",
        "lat": "16.0119",
        "lng": "76.4420",
        "country": "India"
    },
    {
        "name": "Atlatlahucan",
        "lat": "18.9350",
        "lng": "-98.9000",
        "country": "Mexico"
    },
    {
        "name": "Pfungstadt",
        "lat": "49.8056",
        "lng": "8.6044",
        "country": "Germany"
    },
    {
        "name": "Bacoli",
        "lat": "40.8000",
        "lng": "14.0833",
        "country": "Italy"
    },
    {
        "name": "Miahuatl\u00e1n",
        "lat": "18.5667",
        "lng": "-97.4333",
        "country": "Mexico"
    },
    {
        "name": "Tipasa",
        "lat": "36.5919",
        "lng": "2.4494",
        "country": "Algeria"
    },
    {
        "name": "Mananjary",
        "lat": "-21.2311",
        "lng": "48.3419",
        "country": "Madagascar"
    },
    {
        "name": "Petershagen",
        "lat": "52.3833",
        "lng": "8.9667",
        "country": "Germany"
    },
    {
        "name": "Wumayingcun",
        "lat": "38.0094",
        "lng": "116.8032",
        "country": "China"
    },
    {
        "name": "Sandon\u00e1",
        "lat": "1.2833",
        "lng": "-77.4667",
        "country": "Colombia"
    },
    {
        "name": "Sastamala",
        "lat": "61.3417",
        "lng": "22.9083",
        "country": "Finland"
    },
    {
        "name": "Avon Lake",
        "lat": "41.4944",
        "lng": "-82.0159",
        "country": "United States"
    },
    {
        "name": "Apia\u00ed",
        "lat": "-24.5097",
        "lng": "-48.8428",
        "country": "Brazil"
    },
    {
        "name": "Workington",
        "lat": "54.6365",
        "lng": "-3.5549",
        "country": "United Kingdom"
    },
    {
        "name": "Gu\u00e9n\u00e9",
        "lat": "11.7306",
        "lng": "3.2242",
        "country": "Benin"
    },
    {
        "name": "Allendale",
        "lat": "42.9845",
        "lng": "-85.9499",
        "country": "United States"
    },
    {
        "name": "Uru\u00e7u\u00ed",
        "lat": "-7.2333",
        "lng": "-44.5500",
        "country": "Brazil"
    },
    {
        "name": "Maaseik",
        "lat": "51.1000",
        "lng": "5.8000",
        "country": "Belgium"
    },
    {
        "name": "Brod\u00f3squi",
        "lat": "-20.9908",
        "lng": "-47.6589",
        "country": "Brazil"
    },
    {
        "name": "Somoniyon",
        "lat": "38.4422",
        "lng": "68.7769",
        "country": "Tajikistan"
    },
    {
        "name": "Saranga",
        "lat": "22.5400",
        "lng": "88.2100",
        "country": "India"
    },
    {
        "name": "Morozovsk",
        "lat": "48.3667",
        "lng": "41.8333",
        "country": "Russia"
    },
    {
        "name": "Taquari",
        "lat": "-29.8000",
        "lng": "-51.8597",
        "country": "Brazil"
    },
    {
        "name": "Adra",
        "lat": "36.7478",
        "lng": "-3.0161",
        "country": "Spain"
    },
    {
        "name": "\u015eaydn\u0101y\u0101",
        "lat": "33.6967",
        "lng": "36.3739",
        "country": "Syria"
    },
    {
        "name": "Uttaramer\u016br",
        "lat": "12.6160",
        "lng": "79.7530",
        "country": "India"
    },
    {
        "name": "Kingswinford",
        "lat": "52.4981",
        "lng": "-2.1657",
        "country": "United Kingdom"
    },
    {
        "name": "Kola",
        "lat": "22.4300",
        "lng": "87.8700",
        "country": "India"
    },
    {
        "name": "Villarrobledo",
        "lat": "39.2667",
        "lng": "-2.6000",
        "country": "Spain"
    },
    {
        "name": "L\u0101teh\u0101r",
        "lat": "23.7442",
        "lng": "84.4998",
        "country": "India"
    },
    {
        "name": "G\u00f6le",
        "lat": "40.7928",
        "lng": "42.6086",
        "country": "Turkey"
    },
    {
        "name": "Chekfa",
        "lat": "36.7667",
        "lng": "5.9667",
        "country": "Algeria"
    },
    {
        "name": "Sarrat",
        "lat": "18.1578",
        "lng": "120.6447",
        "country": "Philippines"
    },
    {
        "name": "Erlun",
        "lat": "23.7910",
        "lng": "120.3954",
        "country": "Taiwan"
    },
    {
        "name": "Piranhas",
        "lat": "-9.6239",
        "lng": "-37.7569",
        "country": "Brazil"
    },
    {
        "name": "P\u0101onta S\u0101hib",
        "lat": "30.4380",
        "lng": "77.6240",
        "country": "India"
    },
    {
        "name": "Tiror\u0101",
        "lat": "21.4072",
        "lng": "79.9326",
        "country": "India"
    },
    {
        "name": "Norden",
        "lat": "53.5967",
        "lng": "7.2056",
        "country": "Germany"
    },
    {
        "name": "University Park",
        "lat": "32.8506",
        "lng": "-96.7937",
        "country": "United States"
    },
    {
        "name": "Fish Hawk",
        "lat": "27.8511",
        "lng": "-82.2164",
        "country": "United States"
    },
    {
        "name": "Melrose Park",
        "lat": "41.9030",
        "lng": "-87.8636",
        "country": "United States"
    },
    {
        "name": "Banhatti",
        "lat": "16.3853",
        "lng": "75.1494",
        "country": "India"
    },
    {
        "name": "Walker",
        "lat": "42.9853",
        "lng": "-85.7446",
        "country": "United States"
    },
    {
        "name": "Espelkamp",
        "lat": "52.3772",
        "lng": "8.6328",
        "country": "Germany"
    },
    {
        "name": "Malyn",
        "lat": "50.7689",
        "lng": "29.2700",
        "country": "Ukraine"
    },
    {
        "name": "El Calafate",
        "lat": "-50.3378",
        "lng": "-72.2600",
        "country": "Argentina"
    },
    {
        "name": "Juta\u00ed",
        "lat": "-2.7469",
        "lng": "-66.7669",
        "country": "Brazil"
    },
    {
        "name": "Overijse",
        "lat": "50.7667",
        "lng": "4.5333",
        "country": "Belgium"
    },
    {
        "name": "Aridagawa",
        "lat": "34.0500",
        "lng": "135.2167",
        "country": "Japan"
    },
    {
        "name": "Barberton",
        "lat": "41.0095",
        "lng": "-81.6037",
        "country": "United States"
    },
    {
        "name": "Raahe",
        "lat": "64.6833",
        "lng": "24.4667",
        "country": "Finland"
    },
    {
        "name": "Monreal",
        "lat": "12.6440",
        "lng": "123.6648",
        "country": "Philippines"
    },
    {
        "name": "El Ghiate",
        "lat": "32.0331",
        "lng": "-9.1625",
        "country": "Morocco"
    },
    {
        "name": "Fatim\u00e9",
        "lat": "13.5761",
        "lng": "-5.3833",
        "country": "Mali"
    },
    {
        "name": "V\u0101sudevanall\u016br",
        "lat": "9.2417",
        "lng": "77.4118",
        "country": "India"
    },
    {
        "name": "Carteret",
        "lat": "40.5849",
        "lng": "-74.2284",
        "country": "United States"
    },
    {
        "name": "\u00c1lamo",
        "lat": "20.9167",
        "lng": "-97.6750",
        "country": "Mexico"
    },
    {
        "name": "Debila",
        "lat": "33.5064",
        "lng": "6.9381",
        "country": "Algeria"
    },
    {
        "name": "Bagno a Ripoli",
        "lat": "43.7500",
        "lng": "11.3167",
        "country": "Italy"
    },
    {
        "name": "Moses Lake",
        "lat": "47.1279",
        "lng": "-119.2759",
        "country": "United States"
    },
    {
        "name": "Bards\u012br",
        "lat": "29.9275",
        "lng": "56.5764",
        "country": "Iran"
    },
    {
        "name": "Dedham",
        "lat": "42.2467",
        "lng": "-71.1777",
        "country": "United States"
    },
    {
        "name": "Rhyl",
        "lat": "53.3210",
        "lng": "-3.4800",
        "country": "United Kingdom"
    },
    {
        "name": "Gul\u0101m",
        "lat": "25.7965",
        "lng": "86.7416",
        "country": "India"
    },
    {
        "name": "Sovetskaya Gavan\u2019",
        "lat": "48.9667",
        "lng": "140.2833",
        "country": "Russia"
    },
    {
        "name": "Kasr\u0101wad",
        "lat": "22.1274",
        "lng": "75.6110",
        "country": "India"
    },
    {
        "name": "Ditzingen",
        "lat": "48.8264",
        "lng": "9.0667",
        "country": "Germany"
    },
    {
        "name": "Wewak",
        "lat": "-3.5500",
        "lng": "143.6333",
        "country": "Papua New Guinea"
    },
    {
        "name": "Pan\u0101gar",
        "lat": "23.3000",
        "lng": "79.9800",
        "country": "India"
    },
    {
        "name": "Aimor\u00e9s",
        "lat": "-19.4958",
        "lng": "-41.0639",
        "country": "Brazil"
    },
    {
        "name": "Atkarsk",
        "lat": "51.8667",
        "lng": "45.0000",
        "country": "Russia"
    },
    {
        "name": "Campos Sales",
        "lat": "-7.0739",
        "lng": "-40.3758",
        "country": "Brazil"
    },
    {
        "name": "Otuzco",
        "lat": "-7.9000",
        "lng": "-78.5833",
        "country": "Peru"
    },
    {
        "name": "Pallappatti",
        "lat": "10.7198",
        "lng": "77.8915",
        "country": "India"
    },
    {
        "name": "North Tustin",
        "lat": "33.7636",
        "lng": "-117.7947",
        "country": "United States"
    },
    {
        "name": "Santa Mar\u00eda Tonameca",
        "lat": "15.7458",
        "lng": "-96.5472",
        "country": "Mexico"
    },
    {
        "name": "S\u0101hibpur Kam\u0101l",
        "lat": "25.4167",
        "lng": "86.3901",
        "country": "India"
    },
    {
        "name": "Sohwal",
        "lat": "26.7500",
        "lng": "81.9861",
        "country": "India"
    },
    {
        "name": "R\u0101nia",
        "lat": "29.5300",
        "lng": "74.8300",
        "country": "India"
    },
    {
        "name": "Edgewood",
        "lat": "39.4190",
        "lng": "-76.2964",
        "country": "United States"
    },
    {
        "name": "Dickinson",
        "lat": "46.8918",
        "lng": "-102.7925",
        "country": "United States"
    },
    {
        "name": "Atuntaqui",
        "lat": "0.3317",
        "lng": "-78.2189",
        "country": "Ecuador"
    }
]