[
    {
        "name": "Komoro",
        "lat": "36.3275",
        "lng": "138.4258",
        "country": "Japan"
    },
    {
        "name": "Ishaka",
        "lat": "-0.5450",
        "lng": "30.1383",
        "country": "Uganda"
    },
    {
        "name": "Sumoto",
        "lat": "34.3500",
        "lng": "134.9000",
        "country": "Japan"
    },
    {
        "name": "Tagbina",
        "lat": "8.4578",
        "lng": "126.1578",
        "country": "Philippines"
    },
    {
        "name": "Amami",
        "lat": "28.3783",
        "lng": "129.4944",
        "country": "Japan"
    },
    {
        "name": "Pozi",
        "lat": "23.4611",
        "lng": "120.2420",
        "country": "Taiwan"
    },
    {
        "name": "Arraij\u00e1n",
        "lat": "8.9500",
        "lng": "-79.6500",
        "country": "Panama"
    },
    {
        "name": "Tampakan",
        "lat": "6.4500",
        "lng": "124.9300",
        "country": "Philippines"
    },
    {
        "name": "Unzen",
        "lat": "32.8353",
        "lng": "130.1875",
        "country": "Japan"
    },
    {
        "name": "Ciudad Dar\u00edo",
        "lat": "12.7167",
        "lng": "-86.1167",
        "country": "Nicaragua"
    },
    {
        "name": "Bazar-Korgon",
        "lat": "41.0417",
        "lng": "72.7472",
        "country": "Kyrgyzstan"
    },
    {
        "name": "Ciudad Vieja",
        "lat": "14.5233",
        "lng": "-90.7667",
        "country": "Guatemala"
    },
    {
        "name": "Pyt\u2019-Yakh",
        "lat": "60.7500",
        "lng": "72.7833",
        "country": "Russia"
    },
    {
        "name": "Upper Hutt",
        "lat": "-41.1333",
        "lng": "175.0500",
        "country": "New Zealand"
    },
    {
        "name": "Gatunda",
        "lat": "-1.4350",
        "lng": "30.0211",
        "country": "Rwanda"
    },
    {
        "name": "Sarand\u00eb",
        "lat": "39.8750",
        "lng": "20.0100",
        "country": "Albania"
    },
    {
        "name": "Dongyangshi",
        "lat": "28.2133",
        "lng": "113.3997",
        "country": "China"
    },
    {
        "name": "Shengaocun",
        "lat": "32.5844",
        "lng": "120.1336",
        "country": "China"
    },
    {
        "name": "Dongluocun",
        "lat": "22.3994",
        "lng": "107.6850",
        "country": "China"
    },
    {
        "name": "Chambas",
        "lat": "22.1967",
        "lng": "-78.9133",
        "country": "Cuba"
    },
    {
        "name": "Welling",
        "lat": "51.4594",
        "lng": "0.1097",
        "country": "United Kingdom"
    },
    {
        "name": "Woburn",
        "lat": "42.4869",
        "lng": "-71.1543",
        "country": "United States"
    },
    {
        "name": "Beigang",
        "lat": "23.5667",
        "lng": "120.3000",
        "country": "Taiwan"
    },
    {
        "name": "Hongfengcun",
        "lat": "21.9231",
        "lng": "111.9329",
        "country": "China"
    },
    {
        "name": "Wujie",
        "lat": "24.7000",
        "lng": "121.7833",
        "country": "Taiwan"
    },
    {
        "name": "Monterotondo",
        "lat": "42.0500",
        "lng": "12.6167",
        "country": "Italy"
    },
    {
        "name": "Patti",
        "lat": "31.2800",
        "lng": "74.8600",
        "country": "India"
    },
    {
        "name": "Esperantina",
        "lat": "-3.9019",
        "lng": "-42.2339",
        "country": "Brazil"
    },
    {
        "name": "Marikina Heights",
        "lat": "14.6534",
        "lng": "121.1187",
        "country": "Philippines"
    },
    {
        "name": "Parana\u00edba",
        "lat": "-19.6769",
        "lng": "-51.1908",
        "country": "Brazil"
    },
    {
        "name": "Drogheda",
        "lat": "53.7150",
        "lng": "-6.3525",
        "country": "Ireland"
    },
    {
        "name": "Bagua Grande",
        "lat": "-5.7572",
        "lng": "-78.4453",
        "country": "Peru"
    },
    {
        "name": "Nanbei",
        "lat": "35.3167",
        "lng": "139.1000",
        "country": "Japan"
    },
    {
        "name": "Dowlat\u0101b\u0101d",
        "lat": "32.8003",
        "lng": "51.6958",
        "country": "Iran"
    },
    {
        "name": "Maddela",
        "lat": "16.3411",
        "lng": "121.6833",
        "country": "Philippines"
    },
    {
        "name": "Lijiaxiang",
        "lat": "39.5556",
        "lng": "116.4292",
        "country": "China"
    },
    {
        "name": "Reynoldsburg",
        "lat": "39.9588",
        "lng": "-82.7943",
        "country": "United States"
    },
    {
        "name": "Yingzhou Linchang",
        "lat": "18.4199",
        "lng": "109.8553",
        "country": "China"
    },
    {
        "name": "Covington",
        "lat": "39.0334",
        "lng": "-84.5166",
        "country": "United States"
    },
    {
        "name": "Salin\u00f3polis",
        "lat": "-0.6276",
        "lng": "-47.3456",
        "country": "Brazil"
    },
    {
        "name": "Azemmour",
        "lat": "33.2878",
        "lng": "-8.3422",
        "country": "Morocco"
    },
    {
        "name": "Famagusta",
        "lat": "35.1250",
        "lng": "33.9417",
        "country": "Cyprus"
    },
    {
        "name": "Buxtehude",
        "lat": "53.4769",
        "lng": "9.7011",
        "country": "Germany"
    },
    {
        "name": "Ciudad Piar",
        "lat": "7.4522",
        "lng": "-63.3200",
        "country": "Venezuela"
    },
    {
        "name": "Dhamd\u0101ha",
        "lat": "25.7435",
        "lng": "87.1835",
        "country": "India"
    },
    {
        "name": "Boulogne-sur-Mer",
        "lat": "50.7264",
        "lng": "1.6147",
        "country": "France"
    },
    {
        "name": "Muan\u00e1",
        "lat": "-1.5278",
        "lng": "-49.2169",
        "country": "Brazil"
    },
    {
        "name": "Velika Plana",
        "lat": "44.3340",
        "lng": "21.0768",
        "country": "Serbia"
    },
    {
        "name": "Del\u012bj\u0101n",
        "lat": "33.9903",
        "lng": "50.6836",
        "country": "Iran"
    },
    {
        "name": "Jalalpur Bhattian",
        "lat": "32.0644",
        "lng": "73.3770",
        "country": "Pakistan"
    },
    {
        "name": "Pugachev",
        "lat": "52.0167",
        "lng": "48.8000",
        "country": "Russia"
    },
    {
        "name": "Friendswood",
        "lat": "29.5110",
        "lng": "-95.1981",
        "country": "United States"
    },
    {
        "name": "Talukkara",
        "lat": "10.9500",
        "lng": "75.9097",
        "country": "India"
    },
    {
        "name": "Meftah",
        "lat": "36.6167",
        "lng": "3.2333",
        "country": "Algeria"
    },
    {
        "name": "Penn Hills",
        "lat": "40.4762",
        "lng": "-79.8254",
        "country": "United States"
    },
    {
        "name": "Betun",
        "lat": "-9.4953",
        "lng": "124.9603",
        "country": "Indonesia"
    },
    {
        "name": "Ap\u00f3stoles",
        "lat": "-27.9167",
        "lng": "-55.7667",
        "country": "Argentina"
    },
    {
        "name": "Weslaco",
        "lat": "26.1599",
        "lng": "-97.9877",
        "country": "United States"
    },
    {
        "name": "Malilipot",
        "lat": "13.3200",
        "lng": "123.7300",
        "country": "Philippines"
    },
    {
        "name": "Patzic\u00eda",
        "lat": "14.6317",
        "lng": "-90.9269",
        "country": "Guatemala"
    },
    {
        "name": "Land O' Lakes",
        "lat": "28.2075",
        "lng": "-82.4476",
        "country": "United States"
    },
    {
        "name": "Essex",
        "lat": "39.3021",
        "lng": "-76.4449",
        "country": "United States"
    },
    {
        "name": "T\u0101lcher",
        "lat": "20.9500",
        "lng": "85.2300",
        "country": "India"
    },
    {
        "name": "Soe",
        "lat": "-9.8667",
        "lng": "124.2833",
        "country": "Indonesia"
    },
    {
        "name": "Wattrelos",
        "lat": "50.7000",
        "lng": "3.2170",
        "country": "France"
    },
    {
        "name": "Cuito Cuanavale",
        "lat": "-15.1667",
        "lng": "19.1667",
        "country": "Angola"
    },
    {
        "name": "Promiss\u00e3o",
        "lat": "-21.5369",
        "lng": "-49.8583",
        "country": "Brazil"
    },
    {
        "name": "Anyuan",
        "lat": "34.8839",
        "lng": "105.2758",
        "country": "China"
    },
    {
        "name": "Q\u0101di\u0101n",
        "lat": "31.8192",
        "lng": "75.3764",
        "country": "India"
    },
    {
        "name": "Fourou",
        "lat": "10.7472",
        "lng": "-6.1403",
        "country": "Mali"
    },
    {
        "name": "Mobo",
        "lat": "12.3372",
        "lng": "123.6581",
        "country": "Philippines"
    },
    {
        "name": "P\u0101mban",
        "lat": "9.2790",
        "lng": "79.2109",
        "country": "India"
    },
    {
        "name": "Abadan",
        "lat": "38.0517",
        "lng": "58.2100",
        "country": "Turkmenistan"
    },
    {
        "name": "Buchholz in der Nordheide",
        "lat": "53.3167",
        "lng": "9.8667",
        "country": "Germany"
    },
    {
        "name": "Neumarkt",
        "lat": "49.2833",
        "lng": "11.4667",
        "country": "Germany"
    },
    {
        "name": "Ahlat",
        "lat": "38.7528",
        "lng": "42.4944",
        "country": "Turkey"
    },
    {
        "name": "Saint-Germain-en-Laye",
        "lat": "48.8989",
        "lng": "2.0938",
        "country": "France"
    },
    {
        "name": "Kitob",
        "lat": "39.1336",
        "lng": "66.8819",
        "country": "Uzbekistan"
    },
    {
        "name": "Temsia",
        "lat": "30.3600",
        "lng": "-9.4140",
        "country": "Morocco"
    },
    {
        "name": "Vallehermoso",
        "lat": "10.3300",
        "lng": "123.3200",
        "country": "Philippines"
    },
    {
        "name": "Swords",
        "lat": "53.4597",
        "lng": "-6.2181",
        "country": "Ireland"
    },
    {
        "name": "Vavveru",
        "lat": "14.5594",
        "lng": "79.8725",
        "country": "India"
    },
    {
        "name": "Elmal\u0131",
        "lat": "36.7333",
        "lng": "29.9000",
        "country": "Turkey"
    },
    {
        "name": "Gon\u0101b\u0101d",
        "lat": "34.3575",
        "lng": "58.6783",
        "country": "Iran"
    },
    {
        "name": "Sidi Moussa",
        "lat": "36.6056",
        "lng": "3.0886",
        "country": "Algeria"
    },
    {
        "name": "Baichigan",
        "lat": "39.5275",
        "lng": "115.8564",
        "country": "China"
    },
    {
        "name": "Lobo",
        "lat": "13.6500",
        "lng": "121.2500",
        "country": "Philippines"
    },
    {
        "name": "Sassuolo",
        "lat": "44.5500",
        "lng": "10.7833",
        "country": "Italy"
    },
    {
        "name": "Kingswood",
        "lat": "51.4600",
        "lng": "-2.5050",
        "country": "United Kingdom"
    },
    {
        "name": "Pie de Pat\u00f3",
        "lat": "5.5333",
        "lng": "-77.0000",
        "country": "Colombia"
    },
    {
        "name": "Buddh Gaya",
        "lat": "24.6981",
        "lng": "84.9869",
        "country": "India"
    },
    {
        "name": "Shanhe",
        "lat": "35.4950",
        "lng": "108.3519",
        "country": "China"
    },
    {
        "name": "Kat\u014d",
        "lat": "34.9167",
        "lng": "134.9667",
        "country": "Japan"
    },
    {
        "name": "Kirkkonummi",
        "lat": "60.1167",
        "lng": "24.4333",
        "country": "Finland"
    },
    {
        "name": "Khowrm\u016bj",
        "lat": "28.6567",
        "lng": "51.3808",
        "country": "Iran"
    },
    {
        "name": "Annapolis",
        "lat": "38.9706",
        "lng": "-76.5047",
        "country": "United States"
    },
    {
        "name": "Villafranca del Panad\u00e9s",
        "lat": "41.3447",
        "lng": "1.6994",
        "country": "Spain"
    },
    {
        "name": "Arys",
        "lat": "42.4333",
        "lng": "68.8000",
        "country": "Kazakhstan"
    },
    {
        "name": "Ipia\u00fa",
        "lat": "-14.1369",
        "lng": "-39.7339",
        "country": "Brazil"
    },
    {
        "name": "Dunstable",
        "lat": "51.8860",
        "lng": "-0.5210",
        "country": "United Kingdom"
    }
]