[
    {
        "name": "Badantola",
        "lat": "25.2517",
        "lng": "87.8420",
        "country": "India"
    },
    {
        "name": "Araruna",
        "lat": "-6.5578",
        "lng": "-35.7419",
        "country": "Brazil"
    },
    {
        "name": "Glen Parva",
        "lat": "52.5867",
        "lng": "-1.1617",
        "country": "United Kingdom"
    },
    {
        "name": "Mont-Organis\u00e9",
        "lat": "19.4000",
        "lng": "-71.7833",
        "country": "Haiti"
    },
    {
        "name": "Dormentes",
        "lat": "-8.4469",
        "lng": "-40.7708",
        "country": "Brazil"
    },
    {
        "name": "Flowing Wells",
        "lat": "32.2937",
        "lng": "-111.0110",
        "country": "United States"
    },
    {
        "name": "Sudipen",
        "lat": "16.9000",
        "lng": "120.4700",
        "country": "Philippines"
    },
    {
        "name": "B\u0101\u0163\u016bfah",
        "lat": "37.1744",
        "lng": "43.0132",
        "country": "Iraq"
    },
    {
        "name": "Forssa",
        "lat": "60.8167",
        "lng": "23.6250",
        "country": "Finland"
    },
    {
        "name": "Cherakara",
        "lat": "8.8456",
        "lng": "76.7164",
        "country": "India"
    },
    {
        "name": "Calhoun",
        "lat": "34.4910",
        "lng": "-84.9386",
        "country": "United States"
    },
    {
        "name": "North Decatur",
        "lat": "33.8074",
        "lng": "-84.2889",
        "country": "United States"
    },
    {
        "name": "Lyepyel",
        "lat": "54.8750",
        "lng": "28.6944",
        "country": "Belarus"
    },
    {
        "name": "Trstenik",
        "lat": "43.6167",
        "lng": "20.9833",
        "country": "Serbia"
    },
    {
        "name": "Bad W\u00f6rishofen",
        "lat": "48.0058",
        "lng": "10.5969",
        "country": "Germany"
    },
    {
        "name": "Cacimba de Dentro",
        "lat": "-6.6419",
        "lng": "-35.7900",
        "country": "Brazil"
    },
    {
        "name": "Jouy-le-Moutier",
        "lat": "49.0117",
        "lng": "2.0397",
        "country": "France"
    },
    {
        "name": "Padugup\u0101du",
        "lat": "14.4885",
        "lng": "79.9923",
        "country": "India"
    },
    {
        "name": "Neerpelt",
        "lat": "51.2333",
        "lng": "5.4333",
        "country": "Belgium"
    },
    {
        "name": "Al \u1e28\u0101rah",
        "lat": "33.0500",
        "lng": "36.0000",
        "country": "Syria"
    },
    {
        "name": "Nederweert",
        "lat": "51.2833",
        "lng": "5.7500",
        "country": "Netherlands"
    },
    {
        "name": "Alcantara",
        "lat": "12.2584",
        "lng": "122.0543",
        "country": "Philippines"
    },
    {
        "name": "Shek Tong Tsui",
        "lat": "22.2871",
        "lng": "114.1357",
        "country": "Hong Kong"
    },
    {
        "name": "Villa Isabela",
        "lat": "19.8200",
        "lng": "-71.0500",
        "country": "Dominican Republic"
    },
    {
        "name": "Hinsdale",
        "lat": "41.8007",
        "lng": "-87.9273",
        "country": "United States"
    },
    {
        "name": "Zandvoort",
        "lat": "52.3667",
        "lng": "4.5333",
        "country": "Netherlands"
    },
    {
        "name": "Guoxing",
        "lat": "24.0550",
        "lng": "120.8700",
        "country": "Taiwan"
    },
    {
        "name": "Castilleja de la Cuesta",
        "lat": "37.3833",
        "lng": "-6.0500",
        "country": "Spain"
    },
    {
        "name": "Sum\u00e9",
        "lat": "-7.6500",
        "lng": "-36.9167",
        "country": "Brazil"
    },
    {
        "name": "Concei\u00e7\u00e3o do Almeida",
        "lat": "-12.6178",
        "lng": "-39.9558",
        "country": "Brazil"
    },
    {
        "name": "Iati",
        "lat": "-9.0500",
        "lng": "-36.8500",
        "country": "Brazil"
    },
    {
        "name": "Traigu\u00e9n",
        "lat": "-38.2500",
        "lng": "-72.6833",
        "country": "Chile"
    },
    {
        "name": "Cluses",
        "lat": "46.0611",
        "lng": "6.5794",
        "country": "France"
    },
    {
        "name": "Cottingham",
        "lat": "53.7822",
        "lng": "-0.4136",
        "country": "United Kingdom"
    },
    {
        "name": "Calnali",
        "lat": "20.9000",
        "lng": "-98.5833",
        "country": "Mexico"
    },
    {
        "name": "Bellaire",
        "lat": "29.7040",
        "lng": "-95.4621",
        "country": "United States"
    },
    {
        "name": "Pinewood",
        "lat": "25.8697",
        "lng": "-80.2174",
        "country": "United States"
    },
    {
        "name": "Massaranduba",
        "lat": "-26.6108",
        "lng": "-49.0078",
        "country": "Brazil"
    },
    {
        "name": "Peka",
        "lat": "-28.9667",
        "lng": "27.7667",
        "country": "Lesotho"
    },
    {
        "name": "Po\u00e7\u00e3o de Pedras",
        "lat": "-4.7500",
        "lng": "-44.9333",
        "country": "Brazil"
    },
    {
        "name": "Tizi Rached",
        "lat": "36.6667",
        "lng": "4.1833",
        "country": "Algeria"
    },
    {
        "name": "S\u00ecnnai",
        "lat": "39.3000",
        "lng": "9.2000",
        "country": "Italy"
    },
    {
        "name": "Konstantinovsk",
        "lat": "47.5667",
        "lng": "41.0833",
        "country": "Russia"
    },
    {
        "name": "Itirapina",
        "lat": "-22.2528",
        "lng": "-47.8228",
        "country": "Brazil"
    },
    {
        "name": "Kayaralam",
        "lat": "12.0000",
        "lng": "75.4167",
        "country": "India"
    },
    {
        "name": "Tanque Novo",
        "lat": "-13.5458",
        "lng": "-42.4908",
        "country": "Brazil"
    },
    {
        "name": "Malta",
        "lat": "42.9853",
        "lng": "-73.7879",
        "country": "United States"
    },
    {
        "name": "Swansea",
        "lat": "41.7571",
        "lng": "-71.2120",
        "country": "United States"
    },
    {
        "name": "Konstancin-Jeziorna",
        "lat": "52.0833",
        "lng": "21.1167",
        "country": "Poland"
    },
    {
        "name": "C\u00e1ssia",
        "lat": "-20.5828",
        "lng": "-46.9219",
        "country": "Brazil"
    },
    {
        "name": "Teju\u00e7uoca",
        "lat": "-4.0167",
        "lng": "-39.5167",
        "country": "Brazil"
    },
    {
        "name": "Tlahuelilpan",
        "lat": "20.1297",
        "lng": "-99.2286",
        "country": "Mexico"
    },
    {
        "name": "Joaquim Gomes",
        "lat": "-9.1328",
        "lng": "-35.7478",
        "country": "Brazil"
    },
    {
        "name": "Mayuge",
        "lat": "0.4578",
        "lng": "33.4800",
        "country": "Uganda"
    },
    {
        "name": "Bom Sucesso",
        "lat": "-21.0328",
        "lng": "-44.7578",
        "country": "Brazil"
    },
    {
        "name": "Sake",
        "lat": "-1.5741",
        "lng": "29.0413",
        "country": "Congo (Kinshasa)"
    },
    {
        "name": "Settiy\u0101rpatti",
        "lat": "9.3935",
        "lng": "77.4935",
        "country": "India"
    },
    {
        "name": "Monsenhor Tabosa",
        "lat": "-4.7833",
        "lng": "-40.0667",
        "country": "Brazil"
    },
    {
        "name": "Maj\u012btha",
        "lat": "31.7571",
        "lng": "74.9589",
        "country": "India"
    },
    {
        "name": "Sawankhalok",
        "lat": "17.3099",
        "lng": "99.8263",
        "country": "Thailand"
    },
    {
        "name": "\u014ci",
        "lat": "35.3333",
        "lng": "139.1500",
        "country": "Japan"
    },
    {
        "name": "Grumo Nevano",
        "lat": "40.9333",
        "lng": "14.2667",
        "country": "Italy"
    },
    {
        "name": "Ayin\u012bkk\u0101d",
        "lat": "11.4974",
        "lng": "75.7200",
        "country": "India"
    },
    {
        "name": "Tricase",
        "lat": "39.9333",
        "lng": "18.3667",
        "country": "Italy"
    },
    {
        "name": "Clitheroe",
        "lat": "53.8711",
        "lng": "-2.3916",
        "country": "United Kingdom"
    },
    {
        "name": "Grenchen",
        "lat": "47.1906",
        "lng": "7.3964",
        "country": "Switzerland"
    },
    {
        "name": "Berezhany",
        "lat": "49.4458",
        "lng": "24.9361",
        "country": "Ukraine"
    },
    {
        "name": "Saguday",
        "lat": "16.5394",
        "lng": "121.5636",
        "country": "Philippines"
    },
    {
        "name": "Firminy",
        "lat": "45.3889",
        "lng": "4.2878",
        "country": "France"
    },
    {
        "name": "P\u0101nchgr\u0101m",
        "lat": "24.1996",
        "lng": "88.0077",
        "country": "India"
    },
    {
        "name": "Fairview Park",
        "lat": "41.4419",
        "lng": "-81.8530",
        "country": "United States"
    },
    {
        "name": "Kusa",
        "lat": "55.3500",
        "lng": "59.4500",
        "country": "Russia"
    },
    {
        "name": "Ipaba",
        "lat": "-19.3833",
        "lng": "-42.4167",
        "country": "Brazil"
    },
    {
        "name": "Figline Valdarno",
        "lat": "43.6167",
        "lng": "11.4667",
        "country": "Italy"
    },
    {
        "name": "Frederikssund",
        "lat": "55.8333",
        "lng": "12.0666",
        "country": "Denmark"
    },
    {
        "name": "Regenera\u00e7\u00e3o",
        "lat": "-6.2378",
        "lng": "-42.6878",
        "country": "Brazil"
    },
    {
        "name": "Sallanches",
        "lat": "45.9372",
        "lng": "6.6328",
        "country": "France"
    },
    {
        "name": "Beckley",
        "lat": "37.7877",
        "lng": "-81.1841",
        "country": "United States"
    },
    {
        "name": "Peso da R\u00e9gua",
        "lat": "41.1653",
        "lng": "-7.7764",
        "country": "Portugal"
    },
    {
        "name": "Banovi\u0107i",
        "lat": "44.4000",
        "lng": "18.5333",
        "country": "Bosnia and Herzegovina"
    },
    {
        "name": "Correntes",
        "lat": "-9.1289",
        "lng": "-36.3300",
        "country": "Brazil"
    },
    {
        "name": "Giria",
        "lat": "24.5167",
        "lng": "88.0767",
        "country": "India"
    },
    {
        "name": "Sa\u2018\u0101dat Shahr",
        "lat": "30.0772",
        "lng": "53.1328",
        "country": "Iran"
    },
    {
        "name": "Marsabit",
        "lat": "2.3333",
        "lng": "37.9833",
        "country": "Kenya"
    },
    {
        "name": "Pouso Redondo",
        "lat": "-27.2578",
        "lng": "-49.9339",
        "country": "Brazil"
    },
    {
        "name": "Ejea de los Caballeros",
        "lat": "42.1292",
        "lng": "-1.1372",
        "country": "Spain"
    },
    {
        "name": "Manassas Park",
        "lat": "38.7709",
        "lng": "-77.4429",
        "country": "United States"
    },
    {
        "name": "W\u0101d\u012b \u1e28alf\u0101\u2019",
        "lat": "21.8000",
        "lng": "31.3500",
        "country": "Sudan"
    },
    {
        "name": "Barrington",
        "lat": "41.7443",
        "lng": "-71.3145",
        "country": "United States"
    },
    {
        "name": "Ilaka Atsinanana",
        "lat": "-19.5531",
        "lng": "48.8408",
        "country": "Madagascar"
    },
    {
        "name": "Ban Phe",
        "lat": "12.6287",
        "lng": "101.4399",
        "country": "Thailand"
    },
    {
        "name": "Wang Tau Hom",
        "lat": "22.3408",
        "lng": "114.1871",
        "country": "Hong Kong"
    },
    {
        "name": "South Hadley",
        "lat": "42.2567",
        "lng": "-72.5793",
        "country": "United States"
    },
    {
        "name": "P\u00e9ruwelz",
        "lat": "50.5167",
        "lng": "3.5833",
        "country": "Belgium"
    },
    {
        "name": "Damous",
        "lat": "36.5500",
        "lng": "1.7000",
        "country": "Algeria"
    },
    {
        "name": "Kaukauna",
        "lat": "44.2773",
        "lng": "-88.2641",
        "country": "United States"
    },
    {
        "name": "Groves",
        "lat": "29.9457",
        "lng": "-93.9164",
        "country": "United States"
    },
    {
        "name": "Kutiy\u0101na",
        "lat": "21.6300",
        "lng": "69.9800",
        "country": "India"
    },
    {
        "name": "Manaquiri",
        "lat": "-3.4281",
        "lng": "-60.4594",
        "country": "Brazil"
    },
    {
        "name": "Shoufeng",
        "lat": "23.8667",
        "lng": "121.5167",
        "country": "Taiwan"
    }
]