[
    {
        "name": "Alenquer",
        "lat": "-1.9448",
        "lng": "-54.7320",
        "country": "Brazil"
    },
    {
        "name": "Aqs\u016b",
        "lat": "52.0333",
        "lng": "76.9167",
        "country": "Kazakhstan"
    },
    {
        "name": "Chisec",
        "lat": "15.8125",
        "lng": "-90.3217",
        "country": "Guatemala"
    },
    {
        "name": "Kird\u0101sah",
        "lat": "30.0320",
        "lng": "31.1104",
        "country": "Egypt"
    },
    {
        "name": "Poinciana",
        "lat": "28.1217",
        "lng": "-81.4821",
        "country": "United States"
    },
    {
        "name": "Nowrangapur",
        "lat": "19.2300",
        "lng": "82.5500",
        "country": "India"
    },
    {
        "name": "Welland",
        "lat": "42.9833",
        "lng": "-79.2333",
        "country": "Canada"
    },
    {
        "name": "Kars",
        "lat": "40.6078",
        "lng": "43.0958",
        "country": "Turkey"
    },
    {
        "name": "Bitola",
        "lat": "41.0319",
        "lng": "21.3347",
        "country": "North Macedonia"
    },
    {
        "name": "Planeta Rica",
        "lat": "8.4089",
        "lng": "-75.5819",
        "country": "Colombia"
    },
    {
        "name": "Don Carlos",
        "lat": "7.6808",
        "lng": "124.9953",
        "country": "Philippines"
    },
    {
        "name": "Bafia",
        "lat": "4.7500",
        "lng": "11.2167",
        "country": "Cameroon"
    },
    {
        "name": "Tulare",
        "lat": "36.1995",
        "lng": "-119.3400",
        "country": "United States"
    },
    {
        "name": "Anan",
        "lat": "33.9167",
        "lng": "134.6667",
        "country": "Japan"
    },
    {
        "name": "Limonade",
        "lat": "19.6667",
        "lng": "-72.1167",
        "country": "Haiti"
    },
    {
        "name": "Limb\u00e9",
        "lat": "19.7056",
        "lng": "-72.4147",
        "country": "Haiti"
    },
    {
        "name": "Shangchuankou",
        "lat": "36.3283",
        "lng": "102.8015",
        "country": "China"
    },
    {
        "name": "Barra do Gar\u00e7as",
        "lat": "-15.8900",
        "lng": "-52.2567",
        "country": "Brazil"
    },
    {
        "name": "Ongjang",
        "lat": "37.9371",
        "lng": "125.3571",
        "country": "Korea, North"
    },
    {
        "name": "Cu\u00edmba",
        "lat": "-6.1178",
        "lng": "14.6172",
        "country": "Angola"
    },
    {
        "name": "Torbeck",
        "lat": "18.1667",
        "lng": "-73.8167",
        "country": "Haiti"
    },
    {
        "name": "Fedosiia",
        "lat": "45.0342",
        "lng": "35.3792",
        "country": "Ukraine"
    },
    {
        "name": "Gary",
        "lat": "41.5905",
        "lng": "-87.3473",
        "country": "United States"
    },
    {
        "name": "Ad Darb",
        "lat": "17.7167",
        "lng": "42.2500",
        "country": "Saudi Arabia"
    },
    {
        "name": "Imola",
        "lat": "44.3531",
        "lng": "11.7147",
        "country": "Italy"
    },
    {
        "name": "Necocl\u00ed",
        "lat": "8.4167",
        "lng": "-76.7833",
        "country": "Colombia"
    },
    {
        "name": "Mansehra",
        "lat": "34.3339",
        "lng": "73.2014",
        "country": "Pakistan"
    },
    {
        "name": "Renk",
        "lat": "11.8300",
        "lng": "32.8000",
        "country": "South Sudan"
    },
    {
        "name": "Mila",
        "lat": "36.4503",
        "lng": "6.2644",
        "country": "Algeria"
    },
    {
        "name": "Mocuba",
        "lat": "-16.8500",
        "lng": "36.9833",
        "country": "Mozambique"
    },
    {
        "name": "Dharmas\u0101garam",
        "lat": "17.9933",
        "lng": "79.4428",
        "country": "India"
    },
    {
        "name": "Granby",
        "lat": "45.4000",
        "lng": "-72.7333",
        "country": "Canada"
    },
    {
        "name": "Gaithersburg",
        "lat": "39.1346",
        "lng": "-77.2131",
        "country": "United States"
    },
    {
        "name": "San Pascual",
        "lat": "13.8000",
        "lng": "121.0300",
        "country": "Philippines"
    },
    {
        "name": "Peru\u00edbe",
        "lat": "-24.3231",
        "lng": "-47.0022",
        "country": "Brazil"
    },
    {
        "name": "Kireka",
        "lat": "0.3467",
        "lng": "32.5000",
        "country": "Uganda"
    },
    {
        "name": "Kamsar",
        "lat": "10.6500",
        "lng": "-14.6167",
        "country": "Guinea"
    },
    {
        "name": "Ko Samui",
        "lat": "9.5000",
        "lng": "100.0000",
        "country": "Thailand"
    },
    {
        "name": "Moriya",
        "lat": "35.9514",
        "lng": "139.9754",
        "country": "Japan"
    },
    {
        "name": "Tanabe",
        "lat": "33.7333",
        "lng": "135.3833",
        "country": "Japan"
    },
    {
        "name": "Mococa",
        "lat": "-21.4678",
        "lng": "-47.0047",
        "country": "Brazil"
    },
    {
        "name": "Piotrk\u00f3w Trybunalski",
        "lat": "51.4000",
        "lng": "19.6833",
        "country": "Poland"
    },
    {
        "name": "Varisshiyakuni",
        "lat": "11.6325",
        "lng": "75.5840",
        "country": "India"
    },
    {
        "name": "Huishi",
        "lat": "35.6918",
        "lng": "105.0531",
        "country": "China"
    },
    {
        "name": "Yitiaoshan",
        "lat": "37.1889",
        "lng": "104.0571",
        "country": "China"
    },
    {
        "name": "Bagumbayan",
        "lat": "6.5339",
        "lng": "124.5633",
        "country": "Philippines"
    },
    {
        "name": "Liuhe",
        "lat": "42.2669",
        "lng": "125.7404",
        "country": "China"
    },
    {
        "name": "P\u0101lghar",
        "lat": "19.6969",
        "lng": "72.7654",
        "country": "India"
    },
    {
        "name": "La Chorrera",
        "lat": "8.8792",
        "lng": "-79.7822",
        "country": "Panama"
    },
    {
        "name": "Buenavista",
        "lat": "8.9700",
        "lng": "125.4100",
        "country": "Philippines"
    },
    {
        "name": "Lippstadt",
        "lat": "51.6667",
        "lng": "8.3500",
        "country": "Germany"
    },
    {
        "name": "East Orange",
        "lat": "40.7651",
        "lng": "-74.2117",
        "country": "United States"
    },
    {
        "name": "San Jos\u00e9 del Guaviare",
        "lat": "2.5667",
        "lng": "-72.6333",
        "country": "Colombia"
    },
    {
        "name": "Queenstown",
        "lat": "-31.9000",
        "lng": "26.8833",
        "country": "South Africa"
    },
    {
        "name": "Yunnanyi",
        "lat": "25.3916",
        "lng": "100.6846",
        "country": "China"
    },
    {
        "name": "Aparri",
        "lat": "18.3575",
        "lng": "121.6372",
        "country": "Philippines"
    },
    {
        "name": "Assen",
        "lat": "53.0000",
        "lng": "6.5667",
        "country": "Netherlands"
    },
    {
        "name": "Ixtaczoquitl\u00e1n",
        "lat": "18.8500",
        "lng": "-97.0667",
        "country": "Mexico"
    },
    {
        "name": "Aalen",
        "lat": "48.8333",
        "lng": "10.1000",
        "country": "Germany"
    },
    {
        "name": "Wesley Chapel",
        "lat": "28.2106",
        "lng": "-82.3238",
        "country": "United States"
    },
    {
        "name": "Ponta Delgada",
        "lat": "37.7411",
        "lng": "-25.6806",
        "country": "Portugal"
    },
    {
        "name": "Pur\u00edsima de Bustos",
        "lat": "21.0333",
        "lng": "-101.8667",
        "country": "Mexico"
    },
    {
        "name": "Arcoverde",
        "lat": "-8.4189",
        "lng": "-37.0539",
        "country": "Brazil"
    },
    {
        "name": "Jacona de Plancarte",
        "lat": "19.9333",
        "lng": "-102.3167",
        "country": "Mexico"
    },
    {
        "name": "Pakribaraw\u0101n",
        "lat": "24.9516",
        "lng": "85.7347",
        "country": "India"
    },
    {
        "name": "Al A\u1e29mad\u012b",
        "lat": "29.0769",
        "lng": "48.0838",
        "country": "Kuwait"
    },
    {
        "name": "Suwa\u0142ki",
        "lat": "54.0989",
        "lng": "22.9286",
        "country": "Poland"
    },
    {
        "name": "Say\u2019\u016bn",
        "lat": "15.9430",
        "lng": "48.7873",
        "country": "Yemen"
    },
    {
        "name": "West Des Moines",
        "lat": "41.5521",
        "lng": "-93.7806",
        "country": "United States"
    },
    {
        "name": "Yuriria",
        "lat": "20.2000",
        "lng": "-101.1500",
        "country": "Mexico"
    },
    {
        "name": "Mineral de la Reforma",
        "lat": "20.1500",
        "lng": "-98.4333",
        "country": "Mexico"
    },
    {
        "name": "Indang",
        "lat": "14.2000",
        "lng": "120.8800",
        "country": "Philippines"
    },
    {
        "name": "Sabae",
        "lat": "35.9565",
        "lng": "136.1843",
        "country": "Japan"
    },
    {
        "name": "Alamada",
        "lat": "7.3868",
        "lng": "124.5534",
        "country": "Philippines"
    },
    {
        "name": "Isn\u0101",
        "lat": "25.3000",
        "lng": "32.5500",
        "country": "Egypt"
    },
    {
        "name": "Ven\u00e2ncio Aires",
        "lat": "-29.6000",
        "lng": "-52.1833",
        "country": "Brazil"
    },
    {
        "name": "Po\u017earevac",
        "lat": "44.6167",
        "lng": "21.1833",
        "country": "Serbia"
    },
    {
        "name": "K\u0101yankulam",
        "lat": "9.1720",
        "lng": "76.5010",
        "country": "India"
    },
    {
        "name": "Velsen-Zuid",
        "lat": "52.4667",
        "lng": "4.6167",
        "country": "Netherlands"
    },
    {
        "name": "Dalton",
        "lat": "34.7690",
        "lng": "-84.9720",
        "country": "United States"
    },
    {
        "name": "Dubuque",
        "lat": "42.5002",
        "lng": "-90.7070",
        "country": "United States"
    },
    {
        "name": "Jarabacoa",
        "lat": "19.1167",
        "lng": "-70.6333",
        "country": "Dominican Republic"
    },
    {
        "name": "Par\u0101d\u012bp Garh",
        "lat": "20.3160",
        "lng": "86.6100",
        "country": "India"
    },
    {
        "name": "Quartu Sant\u2019Elena",
        "lat": "39.2333",
        "lng": "9.1833",
        "country": "Italy"
    },
    {
        "name": "Issy-les-Moulineaux",
        "lat": "48.8239",
        "lng": "2.2700",
        "country": "France"
    },
    {
        "name": "Valle Hermoso",
        "lat": "25.6736",
        "lng": "-97.8144",
        "country": "Mexico"
    },
    {
        "name": "Bouira",
        "lat": "36.3800",
        "lng": "3.9014",
        "country": "Algeria"
    },
    {
        "name": "San Leonardo",
        "lat": "15.3611",
        "lng": "120.9622",
        "country": "Philippines"
    },
    {
        "name": "Ilkal",
        "lat": "15.9592",
        "lng": "76.1135",
        "country": "India"
    },
    {
        "name": "Zapotlanejo",
        "lat": "20.6228",
        "lng": "-103.0689",
        "country": "Mexico"
    },
    {
        "name": "Doboj",
        "lat": "44.7314",
        "lng": "18.0844",
        "country": "Bosnia and Herzegovina"
    },
    {
        "name": "V\u00edctor Larco Herrera",
        "lat": "-8.1333",
        "lng": "-79.0500",
        "country": "Peru"
    },
    {
        "name": "Igbanke",
        "lat": "6.3869",
        "lng": "6.1647",
        "country": "Nigeria"
    },
    {
        "name": "Nihtaur",
        "lat": "29.3300",
        "lng": "78.3800",
        "country": "India"
    },
    {
        "name": "Schenectady",
        "lat": "42.8025",
        "lng": "-73.9275",
        "country": "United States"
    },
    {
        "name": "Mamungan",
        "lat": "8.1200",
        "lng": "124.2200",
        "country": "Philippines"
    },
    {
        "name": "Cabo San Lucas",
        "lat": "22.8897",
        "lng": "-109.9156",
        "country": "Mexico"
    },
    {
        "name": "Kladno",
        "lat": "50.1431",
        "lng": "14.1053",
        "country": "Czechia"
    },
    {
        "name": "Castelldefels",
        "lat": "41.2860",
        "lng": "1.9820",
        "country": "Spain"
    },
    {
        "name": "Ankeny",
        "lat": "41.7288",
        "lng": "-93.6031",
        "country": "United States"
    }
]