[
    {
        "name": "Nezahualc\u00f3yotl",
        "lat": "19.4081",
        "lng": "-99.0186",
        "country": "Mexico"
    },
    {
        "name": "Nouakchott",
        "lat": "18.0858",
        "lng": "-15.9785",
        "country": "Mauritania"
    },
    {
        "name": "H\u0101ora",
        "lat": "22.5800",
        "lng": "88.3294",
        "country": "India"
    },
    {
        "name": "Tongjin",
        "lat": "37.2333",
        "lng": "127.2000",
        "country": "Korea, South"
    },
    {
        "name": "Xiashi",
        "lat": "30.5333",
        "lng": "120.6833",
        "country": "China"
    },
    {
        "name": "Yerevan",
        "lat": "40.1814",
        "lng": "44.5144",
        "country": "Armenia"
    },
    {
        "name": "R\u0101nchi",
        "lat": "23.3600",
        "lng": "85.3300",
        "country": "India"
    },
    {
        "name": "Richmond",
        "lat": "37.5295",
        "lng": "-77.4756",
        "country": "United States"
    },
    {
        "name": "Ciudad Nezahualc\u00f3yotl",
        "lat": "19.4006",
        "lng": "-99.0148",
        "country": "Mexico"
    },
    {
        "name": "Gwalior",
        "lat": "26.2124",
        "lng": "78.1772",
        "country": "India"
    },
    {
        "name": "Ottawa",
        "lat": "45.4247",
        "lng": "-75.6950",
        "country": "Canada"
    },
    {
        "name": "Zhongwei",
        "lat": "37.5002",
        "lng": "105.1968",
        "country": "China"
    },
    {
        "name": "Oslo",
        "lat": "59.9133",
        "lng": "10.7389",
        "country": "Norway"
    },
    {
        "name": "Goyang",
        "lat": "37.6500",
        "lng": "126.8000",
        "country": "Korea, South"
    },
    {
        "name": "Sendai",
        "lat": "38.2682",
        "lng": "140.8694",
        "country": "Japan"
    },
    {
        "name": "Mizhou",
        "lat": "35.9900",
        "lng": "119.3801",
        "country": "China"
    },
    {
        "name": "Xishan",
        "lat": "27.6461",
        "lng": "113.4970",
        "country": "China"
    },
    {
        "name": "Barquisimeto",
        "lat": "10.0636",
        "lng": "-69.3347",
        "country": "Venezuela"
    },
    {
        "name": "Hegang",
        "lat": "47.3501",
        "lng": "130.2980",
        "country": "China"
    },
    {
        "name": "Chand\u012bgarh",
        "lat": "30.7500",
        "lng": "76.7800",
        "country": "India"
    },
    {
        "name": "Voronezh",
        "lat": "51.6717",
        "lng": "39.2106",
        "country": "Russia"
    },
    {
        "name": "Managua",
        "lat": "12.1364",
        "lng": "-86.2514",
        "country": "Nicaragua"
    },
    {
        "name": "Haldw\u0101ni",
        "lat": "29.2200",
        "lng": "79.5200",
        "country": "India"
    },
    {
        "name": "Vijayav\u0101da",
        "lat": "16.5193",
        "lng": "80.6305",
        "country": "India"
    },
    {
        "name": "Perm",
        "lat": "58.0000",
        "lng": "56.3167",
        "country": "Russia"
    },
    {
        "name": "Fangchenggang",
        "lat": "21.6867",
        "lng": "108.3547",
        "country": "China"
    },
    {
        "name": "Jiancheng",
        "lat": "30.3931",
        "lng": "104.5465",
        "country": "China"
    },
    {
        "name": "Cazenga",
        "lat": "-8.8214",
        "lng": "13.2911",
        "country": "Angola"
    },
    {
        "name": "Kisangani",
        "lat": "0.5167",
        "lng": "25.2000",
        "country": "Congo (Kinshasa)"
    },
    {
        "name": "Shouguang",
        "lat": "36.8570",
        "lng": "118.7910",
        "country": "China"
    },
    {
        "name": "Memphis",
        "lat": "35.1087",
        "lng": "-89.9663",
        "country": "United States"
    },
    {
        "name": "S\u00e3o Lu\u00eds",
        "lat": "-2.5283",
        "lng": "-44.3044",
        "country": "Brazil"
    },
    {
        "name": "Jodhpur",
        "lat": "26.2800",
        "lng": "73.0200",
        "country": "India"
    },
    {
        "name": "Matola",
        "lat": "-25.9667",
        "lng": "32.4667",
        "country": "Mozambique"
    },
    {
        "name": "Ogbomoso",
        "lat": "8.1333",
        "lng": "4.2500",
        "country": "Nigeria"
    },
    {
        "name": "Sanya",
        "lat": "18.2533",
        "lng": "109.5036",
        "country": "China"
    },
    {
        "name": "Rangapukur",
        "lat": "25.5600",
        "lng": "89.2500",
        "country": "Bangladesh"
    },
    {
        "name": "Ashgabat",
        "lat": "37.9375",
        "lng": "58.3800",
        "country": "Turkmenistan"
    },
    {
        "name": "Wutong",
        "lat": "30.6333",
        "lng": "120.5333",
        "country": "China"
    },
    {
        "name": "Linhai",
        "lat": "28.8500",
        "lng": "121.1167",
        "country": "China"
    },
    {
        "name": "Denizli",
        "lat": "37.7833",
        "lng": "29.0964",
        "country": "Turkey"
    },
    {
        "name": "Niamey",
        "lat": "13.5150",
        "lng": "2.1175",
        "country": "Niger"
    },
    {
        "name": "Shubr\u0101 al Khaymah",
        "lat": "30.1286",
        "lng": "31.2422",
        "country": "Egypt"
    },
    {
        "name": "Wafangdian",
        "lat": "39.6271",
        "lng": "121.9796",
        "country": "China"
    },
    {
        "name": "Zhongxiang",
        "lat": "31.1690",
        "lng": "112.5853",
        "country": "China"
    },
    {
        "name": "Monrovia",
        "lat": "6.3133",
        "lng": "-10.8014",
        "country": "Liberia"
    },
    {
        "name": "San Crist\u00f3bal",
        "lat": "7.7667",
        "lng": "-72.2333",
        "country": "Venezuela"
    },
    {
        "name": "Islamabad",
        "lat": "33.6931",
        "lng": "73.0639",
        "country": "Pakistan"
    },
    {
        "name": "Xinyi",
        "lat": "22.3549",
        "lng": "110.9468",
        "country": "China"
    },
    {
        "name": "Th\u1ee7 \u0110\u1ee9c",
        "lat": "10.8266",
        "lng": "106.7609",
        "country": "Vietnam"
    },
    {
        "name": "Morelia",
        "lat": "19.7683",
        "lng": "-101.1894",
        "country": "Mexico"
    },
    {
        "name": "Odesa",
        "lat": "46.4775",
        "lng": "30.7326",
        "country": "Ukraine"
    },
    {
        "name": "Raipur",
        "lat": "21.2444",
        "lng": "81.6306",
        "country": "India"
    },
    {
        "name": "Changwon",
        "lat": "35.2708",
        "lng": "128.6631",
        "country": "Korea, South"
    },
    {
        "name": "Arequipa",
        "lat": "-16.4000",
        "lng": "-71.5333",
        "country": "Peru"
    },
    {
        "name": "Volgograd",
        "lat": "48.7086",
        "lng": "44.5147",
        "country": "Russia"
    },
    {
        "name": "Zaoyang",
        "lat": "32.1290",
        "lng": "112.7720",
        "country": "China"
    },
    {
        "name": "Xingyi",
        "lat": "25.0920",
        "lng": "104.8955",
        "country": "China"
    },
    {
        "name": "Shuizhai",
        "lat": "33.4433",
        "lng": "114.8994",
        "country": "China"
    },
    {
        "name": "Kota",
        "lat": "25.1800",
        "lng": "75.8300",
        "country": "India"
    },
    {
        "name": "Quetta",
        "lat": "30.1833",
        "lng": "67.0000",
        "country": "Pakistan"
    },
    {
        "name": "Qu\u1ea3ng H\u00e0",
        "lat": "15.9333",
        "lng": "108.2667",
        "country": "Vietnam"
    },
    {
        "name": "Domaa-Ahenkro",
        "lat": "7.2833",
        "lng": "-2.8833",
        "country": "Ghana"
    },
    {
        "name": "Bareilly",
        "lat": "28.3640",
        "lng": "79.4150",
        "country": "India"
    },
    {
        "name": "Oklahoma City",
        "lat": "35.4676",
        "lng": "-97.5136",
        "country": "United States"
    },
    {
        "name": "Bordeaux",
        "lat": "44.8400",
        "lng": "-0.5800",
        "country": "France"
    },
    {
        "name": "Xingcheng",
        "lat": "24.1347",
        "lng": "115.7300",
        "country": "China"
    },
    {
        "name": "Taixing",
        "lat": "32.1590",
        "lng": "120.0290",
        "country": "China"
    },
    {
        "name": "Xinhualu",
        "lat": "34.3964",
        "lng": "113.7402",
        "country": "China"
    },
    {
        "name": "Lilongwe",
        "lat": "-13.9833",
        "lng": "33.7833",
        "country": "Malawi"
    },
    {
        "name": "Port-au-Prince",
        "lat": "18.5333",
        "lng": "-72.3333",
        "country": "Haiti"
    },
    {
        "name": "Yingcheng",
        "lat": "24.2100",
        "lng": "113.4010",
        "country": "China"
    },
    {
        "name": "Al Mijlad",
        "lat": "11.0339",
        "lng": "27.7400",
        "country": "Sudan"
    },
    {
        "name": "Luocheng",
        "lat": "22.7689",
        "lng": "111.5697",
        "country": "China"
    },
    {
        "name": "Pekanbaru",
        "lat": "0.5092",
        "lng": "101.4453",
        "country": "Indonesia"
    },
    {
        "name": "Natal",
        "lat": "-6.9838",
        "lng": "-60.2699",
        "country": "Brazil"
    },
    {
        "name": "Chiba",
        "lat": "35.6073",
        "lng": "140.1064",
        "country": "Japan"
    },
    {
        "name": "Kirkuk",
        "lat": "35.4667",
        "lng": "44.3167",
        "country": "Iraq"
    },
    {
        "name": "Hartford",
        "lat": "41.7661",
        "lng": "-72.6834",
        "country": "United States"
    },
    {
        "name": "Huilong",
        "lat": "31.8700",
        "lng": "121.7030",
        "country": "China"
    },
    {
        "name": "Wuchuan",
        "lat": "21.4410",
        "lng": "110.7790",
        "country": "China"
    },
    {
        "name": "Dnipro",
        "lat": "48.4675",
        "lng": "35.0400",
        "country": "Ukraine"
    },
    {
        "name": "N\u0101r\u0101yanganj",
        "lat": "23.6200",
        "lng": "90.5000",
        "country": "Bangladesh"
    },
    {
        "name": "Gqeberha",
        "lat": "-33.9581",
        "lng": "25.6000",
        "country": "South Africa"
    },
    {
        "name": "M\u00e1laga",
        "lat": "36.7194",
        "lng": "-4.4200",
        "country": "Spain"
    },
    {
        "name": "Marrakech",
        "lat": "31.6300",
        "lng": "-8.0089",
        "country": "Morocco"
    },
    {
        "name": "Cebu City",
        "lat": "10.3200",
        "lng": "123.7500",
        "country": "Philippines"
    },
    {
        "name": "Louisville",
        "lat": "38.1663",
        "lng": "-85.6485",
        "country": "United States"
    },
    {
        "name": "Asmara",
        "lat": "15.3228",
        "lng": "38.9250",
        "country": "Eritrea"
    },
    {
        "name": "Coimbatore",
        "lat": "11.0167",
        "lng": "76.9556",
        "country": "India"
    },
    {
        "name": "Macei\u00f3",
        "lat": "-9.6658",
        "lng": "-35.7350",
        "country": "Brazil"
    },
    {
        "name": "Nada",
        "lat": "19.5209",
        "lng": "109.5808",
        "country": "China"
    },
    {
        "name": "Taishan",
        "lat": "22.2486",
        "lng": "112.7850",
        "country": "China"
    },
    {
        "name": "Teresina",
        "lat": "-5.0949",
        "lng": "-42.8042",
        "country": "Brazil"
    },
    {
        "name": "Sol\u0101pur",
        "lat": "17.6800",
        "lng": "75.9200",
        "country": "India"
    },
    {
        "name": "Freetown",
        "lat": "8.4844",
        "lng": "-13.2344",
        "country": "Sierra Leone"
    },
    {
        "name": "Santo Domingo Este",
        "lat": "18.4855",
        "lng": "-69.8734",
        "country": "Dominican Republic"
    },
    {
        "name": "Krasnodar",
        "lat": "45.0333",
        "lng": "38.9667",
        "country": "Russia"
    },
    {
        "name": "Vientiane",
        "lat": "17.9800",
        "lng": "102.6300",
        "country": "Laos"
    },
    {
        "name": "Tangier",
        "lat": "35.7767",
        "lng": "-5.8039",
        "country": "Morocco"
    }
]