[
    {
        "name": "Dayan",
        "lat": "26.8552",
        "lng": "100.2259",
        "country": "China"
    },
    {
        "name": "Bal\u0131kesir",
        "lat": "39.6333",
        "lng": "27.8833",
        "country": "Turkey"
    },
    {
        "name": "Comayag\u00fcela",
        "lat": "14.0980",
        "lng": "-87.2100",
        "country": "Honduras"
    },
    {
        "name": "Laiwu",
        "lat": "36.1833",
        "lng": "117.6667",
        "country": "China"
    },
    {
        "name": "Sharjah",
        "lat": "25.3575",
        "lng": "55.3908",
        "country": "United Arab Emirates"
    },
    {
        "name": "Jingling",
        "lat": "30.6640",
        "lng": "113.1670",
        "country": "China"
    },
    {
        "name": "Kaly\u0101n",
        "lat": "19.2502",
        "lng": "73.1602",
        "country": "India"
    },
    {
        "name": "Nizhniy Novgorod",
        "lat": "56.3269",
        "lng": "44.0075",
        "country": "Russia"
    },
    {
        "name": "Yongcheng",
        "lat": "33.9299",
        "lng": "116.4500",
        "country": "China"
    },
    {
        "name": "Sumedang",
        "lat": "-6.8400",
        "lng": "107.9208",
        "country": "Indonesia"
    },
    {
        "name": "C\u1ea7n Th\u01a1",
        "lat": "10.0333",
        "lng": "105.7833",
        "country": "Vietnam"
    },
    {
        "name": "Brussels",
        "lat": "50.8467",
        "lng": "4.3525",
        "country": "Belgium"
    },
    {
        "name": "Suwon",
        "lat": "37.2667",
        "lng": "127.0167",
        "country": "Korea, South"
    },
    {
        "name": "Yiwu",
        "lat": "29.3069",
        "lng": "120.0753",
        "country": "China"
    },
    {
        "name": "Beidao",
        "lat": "34.6020",
        "lng": "105.9180",
        "country": "China"
    },
    {
        "name": "Vasai-Virar",
        "lat": "19.3607",
        "lng": "72.7956",
        "country": "India"
    },
    {
        "name": "Xiangshui",
        "lat": "26.5964",
        "lng": "104.8314",
        "country": "China"
    },
    {
        "name": "Dadukou",
        "lat": "26.5824",
        "lng": "101.7184",
        "country": "China"
    },
    {
        "name": "Campinas",
        "lat": "-22.9058",
        "lng": "-47.0608",
        "country": "Brazil"
    },
    {
        "name": "Lingcheng",
        "lat": "22.7000",
        "lng": "110.3500",
        "country": "China"
    },
    {
        "name": "Shuangyashan",
        "lat": "46.6762",
        "lng": "131.1416",
        "country": "China"
    },
    {
        "name": "Mombasa",
        "lat": "-4.0500",
        "lng": "39.6667",
        "country": "Kenya"
    },
    {
        "name": "Najafgarh",
        "lat": "28.6092",
        "lng": "76.9798",
        "country": "India"
    },
    {
        "name": "Xinyu",
        "lat": "27.8186",
        "lng": "114.9167",
        "country": "China"
    },
    {
        "name": "Qom",
        "lat": "34.6400",
        "lng": "50.8764",
        "country": "Iran"
    },
    {
        "name": "Hargeysa",
        "lat": "9.5631",
        "lng": "44.0675",
        "country": "Somalia"
    },
    {
        "name": "Baidoa",
        "lat": "3.1167",
        "lng": "43.6500",
        "country": "Somalia"
    },
    {
        "name": "Zhangye",
        "lat": "38.9248",
        "lng": "100.4499",
        "country": "China"
    },
    {
        "name": "V\u0101r\u0101nasi",
        "lat": "25.3189",
        "lng": "83.0128",
        "country": "India"
    },
    {
        "name": "Hiroshima",
        "lat": "34.3914",
        "lng": "132.4519",
        "country": "Japan"
    },
    {
        "name": "Chiang Mai",
        "lat": "18.7953",
        "lng": "98.9986",
        "country": "Thailand"
    },
    {
        "name": "Belgrade",
        "lat": "44.8200",
        "lng": "20.4600",
        "country": "Serbia"
    },
    {
        "name": "Maiduguri",
        "lat": "11.8333",
        "lng": "13.1500",
        "country": "Nigeria"
    },
    {
        "name": "Chelyabinsk",
        "lat": "55.1547",
        "lng": "61.3758",
        "country": "Russia"
    },
    {
        "name": "Batam Centre",
        "lat": "1.1300",
        "lng": "104.0531",
        "country": "Indonesia"
    },
    {
        "name": "Rongcheng",
        "lat": "26.2180",
        "lng": "104.1030",
        "country": "China"
    },
    {
        "name": "Mbandaka",
        "lat": "0.0478",
        "lng": "18.2558",
        "country": "Congo (Kinshasa)"
    },
    {
        "name": "Doha",
        "lat": "25.2867",
        "lng": "51.5333",
        "country": "Qatar"
    },
    {
        "name": "Ahv\u0101z",
        "lat": "31.3047",
        "lng": "48.6783",
        "country": "Iran"
    },
    {
        "name": "Shymkent",
        "lat": "42.3167",
        "lng": "69.5958",
        "country": "Kazakhstan"
    },
    {
        "name": "Tripoli",
        "lat": "32.8872",
        "lng": "13.1914",
        "country": "Libya"
    },
    {
        "name": "Sr\u012bnagar",
        "lat": "34.0900",
        "lng": "74.7900",
        "country": "India"
    },
    {
        "name": "Nashville",
        "lat": "36.1715",
        "lng": "-86.7842",
        "country": "United States"
    },
    {
        "name": "Liaoyuan",
        "lat": "42.8880",
        "lng": "125.1447",
        "country": "China"
    },
    {
        "name": "Aurang\u0101b\u0101d",
        "lat": "19.8800",
        "lng": "75.3200",
        "country": "India"
    },
    {
        "name": "Cilacap",
        "lat": "-7.7167",
        "lng": "109.0170",
        "country": "Indonesia"
    },
    {
        "name": "Salt Lake City",
        "lat": "40.7776",
        "lng": "-111.9311",
        "country": "United States"
    },
    {
        "name": "Omsk",
        "lat": "54.9833",
        "lng": "73.3667",
        "country": "Russia"
    },
    {
        "name": "Pikine",
        "lat": "14.7500",
        "lng": "-17.4000",
        "country": "Senegal"
    },
    {
        "name": "Samara",
        "lat": "53.2028",
        "lng": "50.1408",
        "country": "Russia"
    },
    {
        "name": "Guankou",
        "lat": "28.1637",
        "lng": "113.6433",
        "country": "China"
    },
    {
        "name": "Bandar Lampung",
        "lat": "-5.4500",
        "lng": "105.2667",
        "country": "Indonesia"
    },
    {
        "name": "Raleigh",
        "lat": "35.8324",
        "lng": "-78.6429",
        "country": "United States"
    },
    {
        "name": "Lianyuan",
        "lat": "27.6920",
        "lng": "111.6640",
        "country": "China"
    },
    {
        "name": "Dhanb\u0101d",
        "lat": "23.7998",
        "lng": "86.4305",
        "country": "India"
    },
    {
        "name": "Nay Pyi Taw",
        "lat": "19.7475",
        "lng": "96.1150",
        "country": "Burma"
    },
    {
        "name": "Aba",
        "lat": "5.1167",
        "lng": "7.3667",
        "country": "Nigeria"
    },
    {
        "name": "Kaiyuan",
        "lat": "36.0193",
        "lng": "113.8600",
        "country": "China"
    },
    {
        "name": "Zhuji",
        "lat": "29.7167",
        "lng": "120.2333",
        "country": "China"
    },
    {
        "name": "Yingtan",
        "lat": "28.2721",
        "lng": "117.0395",
        "country": "China"
    },
    {
        "name": "Edmonton",
        "lat": "53.5344",
        "lng": "-113.4903",
        "country": "Canada"
    },
    {
        "name": "Leiyang",
        "lat": "26.4223",
        "lng": "112.8598",
        "country": "China"
    },
    {
        "name": "Ulsan",
        "lat": "35.5500",
        "lng": "129.3167",
        "country": "Korea, South"
    },
    {
        "name": "Benin City",
        "lat": "6.3333",
        "lng": "5.6222",
        "country": "Nigeria"
    },
    {
        "name": "Bujumbura",
        "lat": "-3.3833",
        "lng": "29.3667",
        "country": "Burundi"
    },
    {
        "name": "Guyuan",
        "lat": "36.0100",
        "lng": "106.2570",
        "country": "China"
    },
    {
        "name": "Xiantao",
        "lat": "30.3280",
        "lng": "113.4430",
        "country": "China"
    },
    {
        "name": "Rostov",
        "lat": "47.2225",
        "lng": "39.7100",
        "country": "Russia"
    },
    {
        "name": "Maputo",
        "lat": "-25.9667",
        "lng": "32.5833",
        "country": "Mozambique"
    },
    {
        "name": "Bukavu",
        "lat": "-2.5000",
        "lng": "28.8667",
        "country": "Congo (Kinshasa)"
    },
    {
        "name": "Amritsar",
        "lat": "31.6400",
        "lng": "74.8600",
        "country": "India"
    },
    {
        "name": "Shagamu",
        "lat": "6.8333",
        "lng": "3.6500",
        "country": "Nigeria"
    },
    {
        "name": "Yingchuan",
        "lat": "34.1511",
        "lng": "113.4733",
        "country": "China"
    },
    {
        "name": "Al\u012bgarh",
        "lat": "27.8800",
        "lng": "78.0800",
        "country": "India"
    },
    {
        "name": "Santo Domingo",
        "lat": "18.4667",
        "lng": "-69.9500",
        "country": "Dominican Republic"
    },
    {
        "name": "Bogor",
        "lat": "-6.5966",
        "lng": "106.7972",
        "country": "Indonesia"
    },
    {
        "name": "Bishkek",
        "lat": "42.8747",
        "lng": "74.6122",
        "country": "Kyrgyzstan"
    },
    {
        "name": "Tbilisi",
        "lat": "41.7225",
        "lng": "44.7925",
        "country": "Georgia"
    },
    {
        "name": "Guw\u0101h\u0101ti",
        "lat": "26.1722",
        "lng": "91.7458",
        "country": "India"
    },
    {
        "name": "Ufa",
        "lat": "54.7261",
        "lng": "55.9475",
        "country": "Russia"
    },
    {
        "name": "F\u00e8s",
        "lat": "34.0433",
        "lng": "-5.0033",
        "country": "Morocco"
    },
    {
        "name": "Mwanza",
        "lat": "-2.5167",
        "lng": "32.9000",
        "country": "Tanzania"
    },
    {
        "name": "Bi\u00ean H\u00f2a",
        "lat": "10.9500",
        "lng": "106.8167",
        "country": "Vietnam"
    },
    {
        "name": "Mexicali",
        "lat": "32.6633",
        "lng": "-115.4678",
        "country": "Mexico"
    },
    {
        "name": "Sevilla",
        "lat": "37.3900",
        "lng": "-5.9900",
        "country": "Spain"
    },
    {
        "name": "Ikare",
        "lat": "7.5167",
        "lng": "5.7500",
        "country": "Nigeria"
    },
    {
        "name": "Dongtai",
        "lat": "32.7950",
        "lng": "120.5190",
        "country": "China"
    },
    {
        "name": "Dingzhou",
        "lat": "38.5160",
        "lng": "114.9900",
        "country": "China"
    },
    {
        "name": "Xibeijie",
        "lat": "39.7334",
        "lng": "98.4943",
        "country": "China"
    },
    {
        "name": "Tamale",
        "lat": "9.4075",
        "lng": "-0.8533",
        "country": "Ghana"
    },
    {
        "name": "Yuyao",
        "lat": "30.0500",
        "lng": "121.1500",
        "country": "China"
    },
    {
        "name": "Hanchuan",
        "lat": "30.6520",
        "lng": "113.8274",
        "country": "China"
    },
    {
        "name": "Gongzhuling",
        "lat": "43.5053",
        "lng": "124.8224",
        "country": "China"
    },
    {
        "name": "N\u2019Djamena",
        "lat": "12.1100",
        "lng": "15.0500",
        "country": "Chad"
    },
    {
        "name": "Ubungo",
        "lat": "-6.7889",
        "lng": "39.2056",
        "country": "Tanzania"
    },
    {
        "name": "Cologne",
        "lat": "50.9364",
        "lng": "6.9528",
        "country": "Germany"
    },
    {
        "name": "Krasnoyarsk",
        "lat": "56.0089",
        "lng": "92.8719",
        "country": "Russia"
    },
    {
        "name": "Zhufeng",
        "lat": "36.0000",
        "lng": "119.4167",
        "country": "China"
    },
    {
        "name": "Ezhou",
        "lat": "30.3914",
        "lng": "114.8949",
        "country": "China"
    },
    {
        "name": "Astana",
        "lat": "51.1472",
        "lng": "71.4222",
        "country": "Kazakhstan"
    }
]