[
    {
        "name": "Trancas",
        "lat": "-26.2172",
        "lng": "-65.2831",
        "country": "Argentina"
    },
    {
        "name": "Bukachacha",
        "lat": "52.9833",
        "lng": "116.9166",
        "country": "Russia"
    },
    {
        "name": "Ugol\u2019nyye Kopi",
        "lat": "64.7333",
        "lng": "177.7000",
        "country": "Russia"
    },
    {
        "name": "Lukulu",
        "lat": "-14.4083",
        "lng": "23.2667",
        "country": "Zambia"
    },
    {
        "name": "Fish Town",
        "lat": "5.1964",
        "lng": "-7.8756",
        "country": "Liberia"
    },
    {
        "name": "Clare",
        "lat": "-33.8333",
        "lng": "138.6000",
        "country": "Australia"
    },
    {
        "name": "Turangi",
        "lat": "-38.9889",
        "lng": "175.8083",
        "country": "New Zealand"
    },
    {
        "name": "Imqabba",
        "lat": "35.8442",
        "lng": "14.4669",
        "country": "Malta"
    },
    {
        "name": "Xewkija",
        "lat": "36.0331",
        "lng": "14.2583",
        "country": "Malta"
    },
    {
        "name": "Weipa",
        "lat": "-12.6300",
        "lng": "141.8786",
        "country": "Australia"
    },
    {
        "name": "La\u0161ko",
        "lat": "46.1563",
        "lng": "15.2386",
        "country": "Slovenia"
    },
    {
        "name": "Pofadder",
        "lat": "-29.1286",
        "lng": "19.3947",
        "country": "South Africa"
    },
    {
        "name": "Lenart v Slovenskih Goricah",
        "lat": "46.5742",
        "lng": "15.8322",
        "country": "Slovenia"
    },
    {
        "name": "Smithton",
        "lat": "-40.8417",
        "lng": "145.1250",
        "country": "Australia"
    },
    {
        "name": "Demir Kapija",
        "lat": "41.4114",
        "lng": "22.2422",
        "country": "North Macedonia"
    },
    {
        "name": "Mezen",
        "lat": "65.8333",
        "lng": "44.2667",
        "country": "Russia"
    },
    {
        "name": "Rietavas",
        "lat": "55.7167",
        "lng": "21.9333",
        "country": "Lithuania"
    },
    {
        "name": "Ljutomer",
        "lat": "46.5168",
        "lng": "16.2027",
        "country": "Slovenia"
    },
    {
        "name": "Jurad\u00f3",
        "lat": "7.1114",
        "lng": "-77.7714",
        "country": "Colombia"
    },
    {
        "name": "Dom\u017eale",
        "lat": "46.1394",
        "lng": "14.5950",
        "country": "Slovenia"
    },
    {
        "name": "Metlika",
        "lat": "45.6517",
        "lng": "15.3200",
        "country": "Slovenia"
    },
    {
        "name": "R\u00f8rvik",
        "lat": "64.8619",
        "lng": "11.2397",
        "country": "Norway"
    },
    {
        "name": "Ankaran",
        "lat": "45.5793",
        "lng": "13.7379",
        "country": "Slovenia"
    },
    {
        "name": "Brezovica",
        "lat": "46.0207",
        "lng": "14.4178",
        "country": "Slovenia"
    },
    {
        "name": "G\u0127ajnsielem",
        "lat": "36.0269",
        "lng": "14.2903",
        "country": "Malta"
    },
    {
        "name": "Teeli",
        "lat": "51.0086",
        "lng": "90.2092",
        "country": "Russia"
    },
    {
        "name": "Sinnamary",
        "lat": "5.3800",
        "lng": "-52.9600",
        "country": "French Guiana"
    },
    {
        "name": "Me\u017eica",
        "lat": "46.5206",
        "lng": "14.8536",
        "country": "Slovenia"
    },
    {
        "name": "Evinayong",
        "lat": "1.4500",
        "lng": "10.5667",
        "country": "Equatorial Guinea"
    },
    {
        "name": "Brandfort",
        "lat": "-28.7014",
        "lng": "26.4589",
        "country": "South Africa"
    },
    {
        "name": "Ocni\u0163a",
        "lat": "48.3853",
        "lng": "27.4392",
        "country": "Moldova"
    },
    {
        "name": "Kudahuvadhoo",
        "lat": "2.6711",
        "lng": "72.8935",
        "country": "Maldives"
    },
    {
        "name": "Saulkrasti",
        "lat": "57.2500",
        "lng": "24.4167",
        "country": "Latvia"
    },
    {
        "name": "Iklin",
        "lat": "35.9042",
        "lng": "14.4544",
        "country": "Malta"
    },
    {
        "name": "\u0160en\u010dur",
        "lat": "46.2430",
        "lng": "14.4181",
        "country": "Slovenia"
    },
    {
        "name": "Golubovci",
        "lat": "42.3344",
        "lng": "19.2253",
        "country": "Montenegro"
    },
    {
        "name": "Bir\u0161tonas",
        "lat": "54.6028",
        "lng": "24.0206",
        "country": "Lithuania"
    },
    {
        "name": "Dravograd",
        "lat": "46.5903",
        "lng": "15.0236",
        "country": "Slovenia"
    },
    {
        "name": "Gornja Radgona",
        "lat": "46.6752",
        "lng": "15.9926",
        "country": "Slovenia"
    },
    {
        "name": "Ainaro",
        "lat": "-8.9833",
        "lng": "125.5000",
        "country": "Timor-Leste"
    },
    {
        "name": "Lija",
        "lat": "35.9014",
        "lng": "14.4472",
        "country": "Malta"
    },
    {
        "name": "\u017delezniki",
        "lat": "46.2182",
        "lng": "14.1592",
        "country": "Slovenia"
    },
    {
        "name": "Aasiaat",
        "lat": "68.7097",
        "lng": "-52.8694",
        "country": "Greenland"
    },
    {
        "name": "Mopipi",
        "lat": "-21.2019",
        "lng": "24.8683",
        "country": "Botswana"
    },
    {
        "name": "Ust\u2019-Maya",
        "lat": "60.4566",
        "lng": "134.5433",
        "country": "Russia"
    },
    {
        "name": "Porto Ingl\u00eas",
        "lat": "15.1380",
        "lng": "-23.2110",
        "country": "Cabo Verde"
    },
    {
        "name": "Arroyos y Esteros",
        "lat": "-25.0500",
        "lng": "-57.0900",
        "country": "Paraguay"
    },
    {
        "name": "Qaqortoq",
        "lat": "60.7222",
        "lng": "-46.0403",
        "country": "Greenland"
    },
    {
        "name": "Tearce",
        "lat": "42.0775",
        "lng": "21.0519",
        "country": "North Macedonia"
    },
    {
        "name": "Trashigang",
        "lat": "27.3326",
        "lng": "91.5528",
        "country": "Bhutan"
    },
    {
        "name": "Ulbroka",
        "lat": "56.9333",
        "lng": "24.2833",
        "country": "Latvia"
    },
    {
        "name": "\u0160kofljica",
        "lat": "45.9836",
        "lng": "14.5761",
        "country": "Slovenia"
    },
    {
        "name": "Aba\u00ed",
        "lat": "-26.0296",
        "lng": "-55.9400",
        "country": "Paraguay"
    },
    {
        "name": "Taoudenni",
        "lat": "22.6667",
        "lng": "-3.9833",
        "country": "Mali"
    },
    {
        "name": "K\u00e4rdla",
        "lat": "58.9981",
        "lng": "22.7467",
        "country": "Estonia"
    },
    {
        "name": "Kalkara",
        "lat": "35.8892",
        "lng": "14.5294",
        "country": "Malta"
    },
    {
        "name": "Tifariti",
        "lat": "26.1580",
        "lng": "-10.5670",
        "country": "Morocco"
    },
    {
        "name": "Mahibadhoo",
        "lat": "3.7575",
        "lng": "72.9686",
        "country": "Maldives"
    },
    {
        "name": "Lethem",
        "lat": "3.3833",
        "lng": "-59.8000",
        "country": "Guyana"
    },
    {
        "name": "Gudja",
        "lat": "35.8483",
        "lng": "14.5025",
        "country": "Malta"
    },
    {
        "name": "Saranpaul",
        "lat": "64.2600",
        "lng": "60.9083",
        "country": "Russia"
    },
    {
        "name": "Al Jaghb\u016bb",
        "lat": "29.7425",
        "lng": "24.5169",
        "country": "Libya"
    },
    {
        "name": "Lendava",
        "lat": "46.5631",
        "lng": "16.4519",
        "country": "Slovenia"
    },
    {
        "name": "Bogdanci",
        "lat": "41.2031",
        "lng": "22.5728",
        "country": "North Macedonia"
    },
    {
        "name": "Roga\u0161ovci",
        "lat": "46.8053",
        "lng": "16.0344",
        "country": "Slovenia"
    },
    {
        "name": "\u0160o\u0161tanj",
        "lat": "46.3798",
        "lng": "15.0482",
        "country": "Slovenia"
    },
    {
        "name": "Zre\u010de",
        "lat": "46.3750",
        "lng": "15.3854",
        "country": "Slovenia"
    },
    {
        "name": "Sowa Town",
        "lat": "-20.5636",
        "lng": "26.2244",
        "country": "Botswana"
    },
    {
        "name": "Bopolu",
        "lat": "7.0667",
        "lng": "-10.4875",
        "country": "Liberia"
    },
    {
        "name": "\u017diti\u0161te",
        "lat": "45.4833",
        "lng": "20.5500",
        "country": "Serbia"
    },
    {
        "name": "Hokitika",
        "lat": "-42.7156",
        "lng": "170.9681",
        "country": "New Zealand"
    },
    {
        "name": "Nautla",
        "lat": "20.2167",
        "lng": "-96.7833",
        "country": "Mexico"
    },
    {
        "name": "Tom Price",
        "lat": "-22.6939",
        "lng": "117.7950",
        "country": "Australia"
    },
    {
        "name": "Radlje ob Dravi",
        "lat": "46.6152",
        "lng": "15.2264",
        "country": "Slovenia"
    },
    {
        "name": "Bordertown",
        "lat": "-36.3118",
        "lng": "140.7702",
        "country": "Australia"
    },
    {
        "name": "Villalonga",
        "lat": "-39.8829",
        "lng": "-62.5833",
        "country": "Argentina"
    },
    {
        "name": "Viligili",
        "lat": "0.7569",
        "lng": "73.4361",
        "country": "Maldives"
    },
    {
        "name": "Mangbwalu",
        "lat": "1.9352",
        "lng": "30.0462",
        "country": "Congo (Kinshasa)"
    },
    {
        "name": "Buala",
        "lat": "-8.1333",
        "lng": "159.5833",
        "country": "Solomon Islands"
    },
    {
        "name": "Entre R\u00edos",
        "lat": "-21.5264",
        "lng": "-64.1733",
        "country": "Bolivia"
    },
    {
        "name": "R\u00edo Mayo",
        "lat": "-45.6869",
        "lng": "-70.2600",
        "country": "Argentina"
    },
    {
        "name": "Senglea",
        "lat": "35.8878",
        "lng": "14.5169",
        "country": "Malta"
    },
    {
        "name": "G\u0127arg\u0127ur",
        "lat": "35.9241",
        "lng": "14.4534",
        "country": "Malta"
    },
    {
        "name": "Qrendi",
        "lat": "35.8342",
        "lng": "14.4589",
        "country": "Malta"
    },
    {
        "name": "Kerewan",
        "lat": "13.5000",
        "lng": "-16.0833",
        "country": "Gambia, The"
    },
    {
        "name": "Hlatikulu",
        "lat": "-26.9667",
        "lng": "31.3167",
        "country": "Eswatini"
    },
    {
        "name": "Longreach",
        "lat": "-23.4422",
        "lng": "144.2491",
        "country": "Australia"
    },
    {
        "name": "Trashi Yangtse",
        "lat": "27.5833",
        "lng": "91.4667",
        "country": "Bhutan"
    },
    {
        "name": "Barclayville",
        "lat": "4.6797",
        "lng": "-8.2339",
        "country": "Liberia"
    },
    {
        "name": "Kola\u0161in",
        "lat": "42.8236",
        "lng": "19.5225",
        "country": "Montenegro"
    },
    {
        "name": "Urubamba",
        "lat": "-13.3042",
        "lng": "-72.1167",
        "country": "Peru"
    },
    {
        "name": "Trongsa",
        "lat": "27.4994",
        "lng": "90.5047",
        "country": "Bhutan"
    },
    {
        "name": "Ra\u010de",
        "lat": "46.4529",
        "lng": "15.6812",
        "country": "Slovenia"
    },
    {
        "name": "Borovnica",
        "lat": "45.9197",
        "lng": "14.3572",
        "country": "Slovenia"
    },
    {
        "name": "Eydhafushi",
        "lat": "5.1038",
        "lng": "73.0704",
        "country": "Maldives"
    },
    {
        "name": "Triesenberg",
        "lat": "47.1181",
        "lng": "9.5433",
        "country": "Liechtenstein"
    },
    {
        "name": "Vittoriosa",
        "lat": "35.8881",
        "lng": "14.5225",
        "country": "Malta"
    },
    {
        "name": "\u00cdsafj\u00f6r\u00f0ur",
        "lat": "66.0758",
        "lng": "-23.1267",
        "country": "Iceland"
    },
    {
        "name": "Donegal",
        "lat": "54.6540",
        "lng": "-8.1100",
        "country": "Ireland"
    },
    {
        "name": "Sau\u00f0\u00e1rkr\u00f3kur",
        "lat": "65.7461",
        "lng": "-19.6394",
        "country": "Iceland"
    }
]