[
    {
        "name": "Al \u1e28ayy",
        "lat": "32.1667",
        "lng": "46.0500",
        "country": "Iraq"
    },
    {
        "name": "Louga",
        "lat": "15.6167",
        "lng": "-16.2167",
        "country": "Senegal"
    },
    {
        "name": "Ufeyn",
        "lat": "10.6500",
        "lng": "49.7500",
        "country": "Somalia"
    },
    {
        "name": "Wadala Sandhuan",
        "lat": "32.1833",
        "lng": "74.4000",
        "country": "Pakistan"
    },
    {
        "name": "Warwick",
        "lat": "41.7062",
        "lng": "-71.4334",
        "country": "United States"
    },
    {
        "name": "Bayeux",
        "lat": "-7.1333",
        "lng": "-34.9333",
        "country": "Brazil"
    },
    {
        "name": "Stockton-on-Tees",
        "lat": "54.5700",
        "lng": "-1.3200",
        "country": "United Kingdom"
    },
    {
        "name": "Nakatsu",
        "lat": "33.5983",
        "lng": "131.1883",
        "country": "Japan"
    },
    {
        "name": "Brindisi",
        "lat": "40.6333",
        "lng": "17.9333",
        "country": "Italy"
    },
    {
        "name": "Cranston",
        "lat": "41.7658",
        "lng": "-71.4858",
        "country": "United States"
    },
    {
        "name": "Sh\u012brv\u0101n",
        "lat": "37.4006",
        "lng": "57.9278",
        "country": "Iran"
    },
    {
        "name": "Tanjay",
        "lat": "9.5200",
        "lng": "123.1600",
        "country": "Philippines"
    },
    {
        "name": "Chingleput",
        "lat": "12.6918",
        "lng": "79.9766",
        "country": "India"
    },
    {
        "name": "Jacobina",
        "lat": "-11.1808",
        "lng": "-40.5178",
        "country": "Brazil"
    },
    {
        "name": "Mian Channun",
        "lat": "30.4500",
        "lng": "72.3667",
        "country": "Pakistan"
    },
    {
        "name": "Manfal\u016b\u0163",
        "lat": "27.3167",
        "lng": "30.9667",
        "country": "Egypt"
    },
    {
        "name": "Rivadavia",
        "lat": "-31.5303",
        "lng": "-68.5947",
        "country": "Argentina"
    },
    {
        "name": "Cruzeiro",
        "lat": "-22.5772",
        "lng": "-44.9583",
        "country": "Brazil"
    },
    {
        "name": "Chelghoum el A\u00efd",
        "lat": "36.1667",
        "lng": "6.1667",
        "country": "Algeria"
    },
    {
        "name": "Bhalwal",
        "lat": "32.2656",
        "lng": "72.8994",
        "country": "Pakistan"
    },
    {
        "name": "Largo",
        "lat": "27.9088",
        "lng": "-82.7712",
        "country": "United States"
    },
    {
        "name": "Calatrava",
        "lat": "10.6000",
        "lng": "123.4800",
        "country": "Philippines"
    },
    {
        "name": "Pontevedra",
        "lat": "42.4333",
        "lng": "-8.6333",
        "country": "Spain"
    },
    {
        "name": "Wuyi",
        "lat": "37.7965",
        "lng": "115.8920",
        "country": "China"
    },
    {
        "name": "Chulucanas",
        "lat": "-5.0961",
        "lng": "-80.1647",
        "country": "Peru"
    },
    {
        "name": "El Estor",
        "lat": "15.5333",
        "lng": "-89.3500",
        "country": "Guatemala"
    },
    {
        "name": "Velbert",
        "lat": "51.3333",
        "lng": "7.0500",
        "country": "Germany"
    },
    {
        "name": "Cukai",
        "lat": "4.2332",
        "lng": "103.4479",
        "country": "Malaysia"
    },
    {
        "name": "Miami Beach",
        "lat": "25.8171",
        "lng": "-80.1396",
        "country": "United States"
    },
    {
        "name": "Chaykovskiy",
        "lat": "56.7667",
        "lng": "54.1500",
        "country": "Russia"
    },
    {
        "name": "Sabaneta",
        "lat": "6.1500",
        "lng": "-75.6000",
        "country": "Colombia"
    },
    {
        "name": "Oleksandriia",
        "lat": "48.6667",
        "lng": "33.1167",
        "country": "Ukraine"
    },
    {
        "name": "Owariasahi",
        "lat": "35.2165",
        "lng": "137.0354",
        "country": "Japan"
    },
    {
        "name": "Shikokuch\u016b\u014d",
        "lat": "33.9833",
        "lng": "133.5500",
        "country": "Japan"
    },
    {
        "name": "Alhambra",
        "lat": "34.0840",
        "lng": "-118.1355",
        "country": "United States"
    },
    {
        "name": "Kuznetsk",
        "lat": "53.1167",
        "lng": "46.6000",
        "country": "Russia"
    },
    {
        "name": "Deurne",
        "lat": "51.2247",
        "lng": "4.4625",
        "country": "Belgium"
    },
    {
        "name": "\u014cmihachiman",
        "lat": "35.1283",
        "lng": "136.0981",
        "country": "Japan"
    },
    {
        "name": "Johns Creek",
        "lat": "34.0333",
        "lng": "-84.2027",
        "country": "United States"
    },
    {
        "name": "Puerto Iguaz\u00fa",
        "lat": "-25.6000",
        "lng": "-54.5667",
        "country": "Argentina"
    },
    {
        "name": "Nueva Concepci\u00f3n",
        "lat": "14.1997",
        "lng": "-91.2997",
        "country": "Guatemala"
    },
    {
        "name": "Maca\u00edba",
        "lat": "-5.8578",
        "lng": "-35.3539",
        "country": "Brazil"
    },
    {
        "name": "Uman",
        "lat": "48.7500",
        "lng": "30.2167",
        "country": "Ukraine"
    },
    {
        "name": "Saint Albans",
        "lat": "51.7550",
        "lng": "-0.3360",
        "country": "United Kingdom"
    },
    {
        "name": "Mountain View",
        "lat": "37.4001",
        "lng": "-122.0796",
        "country": "United States"
    },
    {
        "name": "Quixeramobim",
        "lat": "-5.2000",
        "lng": "-39.2833",
        "country": "Brazil"
    },
    {
        "name": "Bekobod",
        "lat": "40.2167",
        "lng": "69.2167",
        "country": "Uzbekistan"
    },
    {
        "name": "Tacan\u00e1",
        "lat": "15.2414",
        "lng": "-92.0683",
        "country": "Guatemala"
    },
    {
        "name": "Harlow",
        "lat": "51.7790",
        "lng": "0.1280",
        "country": "United Kingdom"
    },
    {
        "name": "Burnley",
        "lat": "53.7890",
        "lng": "-2.2480",
        "country": "United Kingdom"
    },
    {
        "name": "Ust\u2019-Ilimsk",
        "lat": "58.0000",
        "lng": "102.6667",
        "country": "Russia"
    },
    {
        "name": "Salisbury",
        "lat": "38.3756",
        "lng": "-75.5865",
        "country": "United States"
    },
    {
        "name": "Jepara",
        "lat": "-6.5333",
        "lng": "110.6667",
        "country": "Indonesia"
    },
    {
        "name": "Redditch",
        "lat": "52.3000",
        "lng": "-1.9333",
        "country": "United Kingdom"
    },
    {
        "name": "Saunda",
        "lat": "23.6600",
        "lng": "85.3500",
        "country": "India"
    },
    {
        "name": "Morgantown",
        "lat": "39.6383",
        "lng": "-79.9464",
        "country": "United States"
    },
    {
        "name": "Kongjiazhuangcun",
        "lat": "40.7536",
        "lng": "114.7237",
        "country": "China"
    },
    {
        "name": "Norderstedt",
        "lat": "53.7064",
        "lng": "10.0103",
        "country": "Germany"
    },
    {
        "name": "Ashoknagar",
        "lat": "24.5800",
        "lng": "77.7300",
        "country": "India"
    },
    {
        "name": "Silver Spring",
        "lat": "39.0028",
        "lng": "-77.0207",
        "country": "United States"
    },
    {
        "name": "Ubay",
        "lat": "10.0560",
        "lng": "124.4729",
        "country": "Philippines"
    },
    {
        "name": "Yurga",
        "lat": "55.7231",
        "lng": "84.8861",
        "country": "Russia"
    },
    {
        "name": "Bhaktapur",
        "lat": "27.6722",
        "lng": "85.4278",
        "country": "Nepal"
    },
    {
        "name": "Banco Filipino International Village",
        "lat": "14.4499",
        "lng": "120.9996",
        "country": "Philippines"
    },
    {
        "name": "Layton",
        "lat": "41.0770",
        "lng": "-111.9620",
        "country": "United States"
    },
    {
        "name": "Bilecik",
        "lat": "40.1431",
        "lng": "29.9792",
        "country": "Turkey"
    },
    {
        "name": "Y\u0131ld\u0131z",
        "lat": "41.6344",
        "lng": "32.3375",
        "country": "Turkey"
    },
    {
        "name": "G\u00fcrgenp\u0131nar\u0131",
        "lat": "41.6344",
        "lng": "32.3375",
        "country": "Turkey"
    },
    {
        "name": "Uzung\u00f6z",
        "lat": "41.6344",
        "lng": "32.3375",
        "country": "Turkey"
    },
    {
        "name": "Lucerne",
        "lat": "47.0500",
        "lng": "8.3000",
        "country": "Switzerland"
    },
    {
        "name": "Siasi",
        "lat": "5.5462",
        "lng": "120.8145",
        "country": "Philippines"
    },
    {
        "name": "Conc\u00f3rdia",
        "lat": "-27.2339",
        "lng": "-52.0278",
        "country": "Brazil"
    },
    {
        "name": "Watampone",
        "lat": "-4.5386",
        "lng": "120.3297",
        "country": "Indonesia"
    },
    {
        "name": "K\u0101toya",
        "lat": "23.6500",
        "lng": "88.1300",
        "country": "India"
    },
    {
        "name": "An Kh\u00ea",
        "lat": "13.9531",
        "lng": "108.6569",
        "country": "Vietnam"
    },
    {
        "name": "Paranava\u00ed",
        "lat": "-23.0728",
        "lng": "-52.4650",
        "country": "Brazil"
    },
    {
        "name": "Muroran",
        "lat": "42.3167",
        "lng": "140.9667",
        "country": "Japan"
    },
    {
        "name": "Tim\u00f3teo",
        "lat": "-19.5828",
        "lng": "-42.6439",
        "country": "Brazil"
    },
    {
        "name": "Apizaco",
        "lat": "19.4167",
        "lng": "-98.1333",
        "country": "Mexico"
    },
    {
        "name": "Hukou",
        "lat": "24.9000",
        "lng": "121.0500",
        "country": "Taiwan"
    },
    {
        "name": "S\u00e3o Sebasti\u00e3o",
        "lat": "-23.8078",
        "lng": "-45.4027",
        "country": "Brazil"
    },
    {
        "name": "Courbevoic",
        "lat": "48.8978",
        "lng": "2.2531",
        "country": "France"
    },
    {
        "name": "Purmerend",
        "lat": "52.5000",
        "lng": "4.9500",
        "country": "Netherlands"
    },
    {
        "name": "Dar el Be\u00efda",
        "lat": "36.7142",
        "lng": "3.2125",
        "country": "Algeria"
    },
    {
        "name": "Imam Qasim",
        "lat": "32.3014",
        "lng": "44.6892",
        "country": "Iraq"
    },
    {
        "name": "Kenta\u016b",
        "lat": "43.5167",
        "lng": "68.5167",
        "country": "Kazakhstan"
    },
    {
        "name": "Remedios de Escalada",
        "lat": "-34.7167",
        "lng": "-58.4000",
        "country": "Argentina"
    },
    {
        "name": "Xicotepec de Ju\u00e1rez",
        "lat": "20.3000",
        "lng": "-97.9667",
        "country": "Mexico"
    },
    {
        "name": "Anapa",
        "lat": "44.8944",
        "lng": "37.3167",
        "country": "Russia"
    },
    {
        "name": "Fiumicino",
        "lat": "41.7667",
        "lng": "12.2333",
        "country": "Italy"
    },
    {
        "name": "Af\u015fin",
        "lat": "38.2464",
        "lng": "36.9186",
        "country": "Turkey"
    },
    {
        "name": "Shuibian",
        "lat": "24.1263",
        "lng": "112.7668",
        "country": "China"
    },
    {
        "name": "Kadi",
        "lat": "23.3009",
        "lng": "72.3322",
        "country": "India"
    },
    {
        "name": "Valdemoro",
        "lat": "40.1908",
        "lng": "-3.6742",
        "country": "Spain"
    },
    {
        "name": "Chapadinha",
        "lat": "-3.7419",
        "lng": "-43.3600",
        "country": "Brazil"
    },
    {
        "name": "Xiedian",
        "lat": "35.4190",
        "lng": "110.8281",
        "country": "China"
    },
    {
        "name": "Matalam",
        "lat": "7.0800",
        "lng": "124.9000",
        "country": "Philippines"
    },
    {
        "name": "Kimitsu",
        "lat": "35.3304",
        "lng": "139.9027",
        "country": "Japan"
    },
    {
        "name": "Grosseto",
        "lat": "42.7667",
        "lng": "11.1000",
        "country": "Italy"
    },
    {
        "name": "Buhi",
        "lat": "13.4347",
        "lng": "123.5167",
        "country": "Philippines"
    }
]