[
    {
        "name": "Neno",
        "lat": "-15.3981",
        "lng": "34.6534",
        "country": "Malawi"
    },
    {
        "name": "Chikwawa",
        "lat": "-16.0350",
        "lng": "34.8010",
        "country": "Malawi"
    },
    {
        "name": "Usakos",
        "lat": "-21.9995",
        "lng": "15.5800",
        "country": "Namibia"
    },
    {
        "name": "W\u00e9",
        "lat": "-20.9167",
        "lng": "167.2653",
        "country": "New Caledonia"
    },
    {
        "name": "Abakaliki",
        "lat": "6.3249",
        "lng": "8.1137",
        "country": "Nigeria"
    },
    {
        "name": "Yenagoa",
        "lat": "4.9267",
        "lng": "6.2676",
        "country": "Nigeria"
    },
    {
        "name": "Isemi-Ile",
        "lat": "7.9700",
        "lng": "3.5900",
        "country": "Nigeria"
    },
    {
        "name": "\u015e\u016br",
        "lat": "22.5667",
        "lng": "59.5289",
        "country": "Oman"
    },
    {
        "name": "Haym\u0101\u2019",
        "lat": "19.9569",
        "lng": "56.2758",
        "country": "Oman"
    },
    {
        "name": "\u015eu\u1e29\u0101r",
        "lat": "24.3420",
        "lng": "56.7299",
        "country": "Oman"
    },
    {
        "name": "Uni\u00f3n Choc\u00f3",
        "lat": "8.1021",
        "lng": "-77.6058",
        "country": "Panama"
    },
    {
        "name": "Sieyik",
        "lat": "9.3833",
        "lng": "-82.6522",
        "country": "Panama"
    },
    {
        "name": "Kurumul",
        "lat": "-5.8550",
        "lng": "144.6311",
        "country": "Papua New Guinea"
    },
    {
        "name": "Buka",
        "lat": "-5.4219",
        "lng": "154.6728",
        "country": "Papua New Guinea"
    },
    {
        "name": "Az\u0327 Z\u0327a\u2018\u0101yin",
        "lat": "25.5669",
        "lng": "51.4847",
        "country": "Qatar"
    },
    {
        "name": "Umm \u015eal\u0101l \u2018Al\u012b",
        "lat": "25.4697",
        "lng": "51.3975",
        "country": "Qatar"
    },
    {
        "name": "Mad\u012bnat ash Sham\u0101l",
        "lat": "26.1167",
        "lng": "51.2167",
        "country": "Qatar"
    },
    {
        "name": "Bosilegrad",
        "lat": "42.5005",
        "lng": "22.4728",
        "country": "Serbia"
    },
    {
        "name": "\u017dagubica",
        "lat": "44.1979",
        "lng": "21.7902",
        "country": "Serbia"
    },
    {
        "name": "Doljevac",
        "lat": "43.1968",
        "lng": "21.8334",
        "country": "Serbia"
    },
    {
        "name": "Boljevac",
        "lat": "43.8247",
        "lng": "21.9519",
        "country": "Serbia"
    },
    {
        "name": "Ljubovija",
        "lat": "44.1869",
        "lng": "19.3728",
        "country": "Serbia"
    },
    {
        "name": "Babu\u0161nica",
        "lat": "43.0680",
        "lng": "22.4115",
        "country": "Serbia"
    },
    {
        "name": "Pre\u0161evo",
        "lat": "42.3067",
        "lng": "21.6500",
        "country": "Serbia"
    },
    {
        "name": "Ljig",
        "lat": "44.2213",
        "lng": "20.2375",
        "country": "Serbia"
    },
    {
        "name": "Mali Zvornik",
        "lat": "44.3992",
        "lng": "19.1214",
        "country": "Serbia"
    },
    {
        "name": "Priboj",
        "lat": "43.5836",
        "lng": "19.5258",
        "country": "Serbia"
    },
    {
        "name": "Bojnik",
        "lat": "43.0142",
        "lng": "21.7180",
        "country": "Serbia"
    },
    {
        "name": "Koceljeva",
        "lat": "44.4708",
        "lng": "19.8070",
        "country": "Serbia"
    },
    {
        "name": "\u017dabari",
        "lat": "44.3562",
        "lng": "21.2143",
        "country": "Serbia"
    },
    {
        "name": "Trgovi\u0161te",
        "lat": "42.3514",
        "lng": "22.0921",
        "country": "Serbia"
    },
    {
        "name": "Nordvik",
        "lat": "74.0165",
        "lng": "111.5100",
        "country": "Russia"
    },
    {
        "name": "Logashkino",
        "lat": "70.8500",
        "lng": "153.9167",
        "country": "Russia"
    },
    {
        "name": "Taro",
        "lat": "-6.7111",
        "lng": "156.3972",
        "country": "Solomon Islands"
    },
    {
        "name": "Rabak",
        "lat": "13.1850",
        "lng": "32.7440",
        "country": "Sudan"
    },
    {
        "name": "El Fula",
        "lat": "11.7175",
        "lng": "28.3400",
        "country": "Sudan"
    },
    {
        "name": "Edinburgh of the Seven Seas",
        "lat": "-37.0675",
        "lng": "-12.3105",
        "country": "Saint Helena, Ascension, and Tristan da Cunha"
    },
    {
        "name": "\u017detale",
        "lat": "46.2750",
        "lng": "15.7939",
        "country": "Slovenia"
    },
    {
        "name": "\u0160entilj",
        "lat": "46.6817",
        "lng": "15.6481",
        "country": "Slovenia"
    },
    {
        "name": "\u017du\u017eemberk",
        "lat": "45.8339",
        "lng": "14.9292",
        "country": "Slovenia"
    },
    {
        "name": "Zavr\u010d",
        "lat": "46.3917",
        "lng": "16.0497",
        "country": "Slovenia"
    },
    {
        "name": "Chiesanuova",
        "lat": "43.9061",
        "lng": "12.4214",
        "country": "San Marino"
    },
    {
        "name": "S\u00e9dhiou",
        "lat": "12.7000",
        "lng": "-15.5500",
        "country": "Senegal"
    },
    {
        "name": "Ceerigaabo",
        "lat": "10.6162",
        "lng": "47.3679",
        "country": "Somalia"
    },
    {
        "name": "Laascaanood",
        "lat": "8.4774",
        "lng": "47.3597",
        "country": "Somalia"
    },
    {
        "name": "Boorama",
        "lat": "9.9361",
        "lng": "43.1828",
        "country": "Somalia"
    },
    {
        "name": "Nhlangano",
        "lat": "-27.1167",
        "lng": "31.2000",
        "country": "Eswatini"
    },
    {
        "name": "Pala",
        "lat": "9.3646",
        "lng": "14.9073",
        "country": "Chad"
    },
    {
        "name": "Barda\u00ef",
        "lat": "21.3533",
        "lng": "17.0003",
        "country": "Chad"
    },
    {
        "name": "Kara",
        "lat": "9.5511",
        "lng": "1.1861",
        "country": "Togo"
    },
    {
        "name": "Ban Huai Hin",
        "lat": "12.5697",
        "lng": "99.9443",
        "country": "Thailand"
    },
    {
        "name": "Lospalos",
        "lat": "-8.5167",
        "lng": "127.0333",
        "country": "Timor-Leste"
    },
    {
        "name": "Aileu",
        "lat": "-8.7281",
        "lng": "125.5664",
        "country": "Timor-Leste"
    },
    {
        "name": "Pante Macassar",
        "lat": "-9.2000",
        "lng": "124.3833",
        "country": "Timor-Leste"
    },
    {
        "name": "Suai",
        "lat": "-9.3129",
        "lng": "125.2565",
        "country": "Timor-Leste"
    },
    {
        "name": "Aranguez",
        "lat": "10.6472",
        "lng": "-61.4461",
        "country": "Trinidad and Tobago"
    },
    {
        "name": "Mahonda",
        "lat": "-5.9897",
        "lng": "39.2519",
        "country": "Tanzania"
    },
    {
        "name": "Vwawa",
        "lat": "-9.1081",
        "lng": "32.9347",
        "country": "Tanzania"
    },
    {
        "name": "Koani",
        "lat": "-6.1333",
        "lng": "39.2833",
        "country": "Tanzania"
    },
    {
        "name": "Namutumba",
        "lat": "0.8363",
        "lng": "33.6858",
        "country": "Uganda"
    },
    {
        "name": "Maracha",
        "lat": "3.2883",
        "lng": "30.9408",
        "country": "Uganda"
    },
    {
        "name": "Luuka Town",
        "lat": "0.7642",
        "lng": "33.3319",
        "country": "Uganda"
    },
    {
        "name": "Kasanda",
        "lat": "0.5467",
        "lng": "31.8197",
        "country": "Uganda"
    },
    {
        "name": "Kinoni",
        "lat": "-0.6583",
        "lng": "30.4581",
        "country": "Uganda"
    },
    {
        "name": "Busesa",
        "lat": "0.6263",
        "lng": "33.6003",
        "country": "Uganda"
    },
    {
        "name": "Bulambuli",
        "lat": "1.1600",
        "lng": "34.3967",
        "country": "Uganda"
    },
    {
        "name": "Ntoroko",
        "lat": "1.0500",
        "lng": "30.5350",
        "country": "Uganda"
    },
    {
        "name": "Otuke",
        "lat": "2.4442",
        "lng": "33.5028",
        "country": "Uganda"
    },
    {
        "name": "Bupoto",
        "lat": "0.9061",
        "lng": "34.3578",
        "country": "Uganda"
    },
    {
        "name": "Agago",
        "lat": "2.9847",
        "lng": "33.3306",
        "country": "Uganda"
    },
    {
        "name": "Kitamilo",
        "lat": "0.2367",
        "lng": "33.2700",
        "country": "Uganda"
    },
    {
        "name": "Nsiika",
        "lat": "-0.2958",
        "lng": "30.3433",
        "country": "Uganda"
    },
    {
        "name": "Kalaki",
        "lat": "1.8160",
        "lng": "33.3370",
        "country": "Uganda"
    },
    {
        "name": "Kasaali",
        "lat": "-0.6167",
        "lng": "31.5500",
        "country": "Uganda"
    },
    {
        "name": "Nakapiripirit",
        "lat": "1.9167",
        "lng": "34.7833",
        "country": "Uganda"
    },
    {
        "name": "Pader",
        "lat": "3.0500",
        "lng": "33.2167",
        "country": "Uganda"
    },
    {
        "name": "Kakumiro",
        "lat": "0.7811",
        "lng": "31.3231",
        "country": "Uganda"
    },
    {
        "name": "Mparo",
        "lat": "-1.1844",
        "lng": "30.0544",
        "country": "Uganda"
    },
    {
        "name": "Lamwo",
        "lat": "3.5300",
        "lng": "32.8000",
        "country": "Uganda"
    },
    {
        "name": "Kyankwanzi",
        "lat": "1.2000",
        "lng": "31.8000",
        "country": "Uganda"
    },
    {
        "name": "Ntara",
        "lat": "0.0047",
        "lng": "30.3661",
        "country": "Uganda"
    },
    {
        "name": "Bukwo",
        "lat": "1.2928",
        "lng": "34.7531",
        "country": "Uganda"
    },
    {
        "name": "Butebo",
        "lat": "1.1944",
        "lng": "33.9222",
        "country": "Uganda"
    },
    {
        "name": "Binyin",
        "lat": "1.4175",
        "lng": "34.5344",
        "country": "Uganda"
    },
    {
        "name": "Palenga",
        "lat": "2.5764",
        "lng": "32.3544",
        "country": "Uganda"
    },
    {
        "name": "Kibingo",
        "lat": "-0.5700",
        "lng": "30.4150",
        "country": "Uganda"
    },
    {
        "name": "Kole",
        "lat": "2.4286",
        "lng": "32.8011",
        "country": "Uganda"
    },
    {
        "name": "Nabilatuk",
        "lat": "2.0525",
        "lng": "34.5734",
        "country": "Uganda"
    },
    {
        "name": "Rubanda",
        "lat": "-1.1864",
        "lng": "29.8433",
        "country": "Uganda"
    },
    {
        "name": "Kalungu",
        "lat": "-0.1681",
        "lng": "31.7600",
        "country": "Uganda"
    },
    {
        "name": "Kon Tum",
        "lat": "14.3544",
        "lng": "108.0075",
        "country": "Vietnam"
    },
    {
        "name": "\u0110\u00e0 N\u1eb5ng",
        "lat": "16.0748",
        "lng": "108.2240",
        "country": "Vietnam"
    },
    {
        "name": "Saratamata",
        "lat": "-15.2875",
        "lng": "167.9903",
        "country": "Vanuatu"
    },
    {
        "name": "Safotulafai",
        "lat": "-13.6817",
        "lng": "-172.1850",
        "country": "Samoa"
    },
    {
        "name": "Mulifanua",
        "lat": "-13.8333",
        "lng": "-171.9833",
        "country": "Samoa"
    },
    {
        "name": "Satupa\u2018itea",
        "lat": "-13.7659",
        "lng": "-172.3269",
        "country": "Samoa"
    },
    {
        "name": "Sharan",
        "lat": "33.1757",
        "lng": "68.7304",
        "country": "Afghanistan"
    },
    {
        "name": "N\u012bl\u012b",
        "lat": "33.7218",
        "lng": "66.1302",
        "country": "Afghanistan"
    },
    {
        "name": "D\u0259v\u0259\u00e7i",
        "lat": "41.2012",
        "lng": "48.9871",
        "country": "Azerbaijan"
    },
    {
        "name": "\u015e\u0259rur",
        "lat": "39.5544",
        "lng": "44.9826",
        "country": "Azerbaijan"
    }
]