[
    {
        "name": "Ash Shaykh \u2018Uthm\u0101n",
        "lat": "12.8864",
        "lng": "45.0156",
        "country": "Yemen"
    },
    {
        "name": "Lagarto",
        "lat": "-10.9169",
        "lng": "-37.6500",
        "country": "Brazil"
    },
    {
        "name": "Kongolo",
        "lat": "-5.4000",
        "lng": "27.0000",
        "country": "Congo (Kinshasa)"
    },
    {
        "name": "Mityana",
        "lat": "0.4006",
        "lng": "32.0422",
        "country": "Uganda"
    },
    {
        "name": "Bulan",
        "lat": "12.6697",
        "lng": "123.8758",
        "country": "Philippines"
    },
    {
        "name": "Yozgat",
        "lat": "39.8208",
        "lng": "34.8083",
        "country": "Turkey"
    },
    {
        "name": "Texcoco",
        "lat": "19.5200",
        "lng": "-98.8800",
        "country": "Mexico"
    },
    {
        "name": "Nikopol",
        "lat": "47.5667",
        "lng": "34.4000",
        "country": "Ukraine"
    },
    {
        "name": "Ala\u015fehir",
        "lat": "38.3500",
        "lng": "28.5167",
        "country": "Turkey"
    },
    {
        "name": "Holland",
        "lat": "42.7677",
        "lng": "-86.0984",
        "country": "United States"
    },
    {
        "name": "Sultan Kudarat",
        "lat": "7.2300",
        "lng": "124.2500",
        "country": "Philippines"
    },
    {
        "name": "Maranguape",
        "lat": "-3.8900",
        "lng": "-38.6858",
        "country": "Brazil"
    },
    {
        "name": "Ndjamba",
        "lat": "-14.7000",
        "lng": "16.0667",
        "country": "Angola"
    },
    {
        "name": "Makr\u0101na",
        "lat": "27.0409",
        "lng": "74.7273",
        "country": "India"
    },
    {
        "name": "Al F\u0101w",
        "lat": "29.9758",
        "lng": "48.4722",
        "country": "Iraq"
    },
    {
        "name": "Planaltina",
        "lat": "-15.4528",
        "lng": "-47.6139",
        "country": "Brazil"
    },
    {
        "name": "Sheopur",
        "lat": "25.6700",
        "lng": "76.7000",
        "country": "India"
    },
    {
        "name": "Kandhkot",
        "lat": "28.2440",
        "lng": "69.1810",
        "country": "Pakistan"
    },
    {
        "name": "Pergamino",
        "lat": "-33.8833",
        "lng": "-60.5667",
        "country": "Argentina"
    },
    {
        "name": "Tagbilaran City",
        "lat": "9.6500",
        "lng": "123.8500",
        "country": "Philippines"
    },
    {
        "name": "Los Minas",
        "lat": "18.5000",
        "lng": "-69.9833",
        "country": "Dominican Republic"
    },
    {
        "name": "Parral",
        "lat": "26.9333",
        "lng": "-105.6667",
        "country": "Mexico"
    },
    {
        "name": "Lavras",
        "lat": "-21.2450",
        "lng": "-45.0000",
        "country": "Brazil"
    },
    {
        "name": "Coronel Fabriciano",
        "lat": "-19.5189",
        "lng": "-42.6289",
        "country": "Brazil"
    },
    {
        "name": "Brockton",
        "lat": "42.0821",
        "lng": "-71.0242",
        "country": "United States"
    },
    {
        "name": "W\u0142oc\u0142awek",
        "lat": "52.6592",
        "lng": "19.0681",
        "country": "Poland"
    },
    {
        "name": "Brantford",
        "lat": "43.1667",
        "lng": "-80.2500",
        "country": "Canada"
    },
    {
        "name": "Tenancingo",
        "lat": "18.9608",
        "lng": "-99.5906",
        "country": "Mexico"
    },
    {
        "name": "Presidente Franco",
        "lat": "-25.5333",
        "lng": "-54.6167",
        "country": "Paraguay"
    },
    {
        "name": "Tuy\u00ean Quang",
        "lat": "21.8167",
        "lng": "105.2167",
        "country": "Vietnam"
    },
    {
        "name": "Olanchito",
        "lat": "15.4833",
        "lng": "-86.5833",
        "country": "Honduras"
    },
    {
        "name": "Sergiyev Posad",
        "lat": "56.3150",
        "lng": "38.1367",
        "country": "Russia"
    },
    {
        "name": "Salzgitter",
        "lat": "52.1500",
        "lng": "10.3333",
        "country": "Germany"
    },
    {
        "name": "Masbate",
        "lat": "12.2700",
        "lng": "123.5800",
        "country": "Philippines"
    },
    {
        "name": "G\u00f6d\u00f6ll\u0151",
        "lat": "47.6000",
        "lng": "19.3667",
        "country": "Hungary"
    },
    {
        "name": "Ballia",
        "lat": "25.7604",
        "lng": "84.1471",
        "country": "India"
    },
    {
        "name": "Wa\u0142brzych",
        "lat": "50.7667",
        "lng": "16.2833",
        "country": "Poland"
    },
    {
        "name": "Barika",
        "lat": "35.3972",
        "lng": "5.3658",
        "country": "Algeria"
    },
    {
        "name": "Rio Rancho",
        "lat": "35.2873",
        "lng": "-106.6982",
        "country": "United States"
    },
    {
        "name": "Yelets",
        "lat": "52.6167",
        "lng": "38.4667",
        "country": "Russia"
    },
    {
        "name": "Girona",
        "lat": "41.9844",
        "lng": "2.8211",
        "country": "Spain"
    },
    {
        "name": "Suru\u00e7",
        "lat": "36.9764",
        "lng": "38.4269",
        "country": "Turkey"
    },
    {
        "name": "\u0160iauliai",
        "lat": "55.9333",
        "lng": "23.3167",
        "country": "Lithuania"
    },
    {
        "name": "Nancy",
        "lat": "48.6936",
        "lng": "6.1846",
        "country": "France"
    },
    {
        "name": "Ourense",
        "lat": "42.3364",
        "lng": "-7.8633",
        "country": "Spain"
    },
    {
        "name": "Aquin",
        "lat": "18.2833",
        "lng": "-73.4000",
        "country": "Haiti"
    },
    {
        "name": "Techiman",
        "lat": "7.5772",
        "lng": "-1.9292",
        "country": "Ghana"
    },
    {
        "name": "Chorz\u00f3w",
        "lat": "50.3000",
        "lng": "18.9500",
        "country": "Poland"
    },
    {
        "name": "Tam \u0110i\u1ec7p",
        "lat": "20.1556",
        "lng": "105.9181",
        "country": "Vietnam"
    },
    {
        "name": "Balanga",
        "lat": "14.6800",
        "lng": "120.5300",
        "country": "Philippines"
    },
    {
        "name": "Gillingham",
        "lat": "51.3850",
        "lng": "0.5500",
        "country": "United Kingdom"
    },
    {
        "name": "Kanoya",
        "lat": "31.3831",
        "lng": "130.8519",
        "country": "Japan"
    },
    {
        "name": "Ikeda",
        "lat": "34.8217",
        "lng": "135.4286",
        "country": "Japan"
    },
    {
        "name": "Arzamas",
        "lat": "55.4000",
        "lng": "43.8167",
        "country": "Russia"
    },
    {
        "name": "Muria\u00e9",
        "lat": "-21.1306",
        "lng": "-42.3664",
        "country": "Brazil"
    },
    {
        "name": "T\u0101depalleg\u016bdem",
        "lat": "16.8150",
        "lng": "81.5260",
        "country": "India"
    },
    {
        "name": "Natitingou",
        "lat": "10.3000",
        "lng": "1.3667",
        "country": "Benin"
    },
    {
        "name": "Chatham",
        "lat": "42.4229",
        "lng": "-82.1324",
        "country": "Canada"
    },
    {
        "name": "Ourinhos",
        "lat": "-22.9744",
        "lng": "-49.8719",
        "country": "Brazil"
    },
    {
        "name": "Sindangan",
        "lat": "8.2386",
        "lng": "122.9986",
        "country": "Philippines"
    },
    {
        "name": "Chicoutimi",
        "lat": "48.4333",
        "lng": "-71.0667",
        "country": "Canada"
    },
    {
        "name": "B\u0101nsb\u0101ria",
        "lat": "22.9700",
        "lng": "88.4000",
        "country": "India"
    },
    {
        "name": "Tula de Allende",
        "lat": "20.0500",
        "lng": "-99.3500",
        "country": "Mexico"
    },
    {
        "name": "Lida",
        "lat": "53.8956",
        "lng": "25.2958",
        "country": "Belarus"
    },
    {
        "name": "Toride",
        "lat": "35.9115",
        "lng": "140.0504",
        "country": "Japan"
    },
    {
        "name": "Salford",
        "lat": "53.4830",
        "lng": "-2.2931",
        "country": "United Kingdom"
    },
    {
        "name": "Rialto",
        "lat": "34.1175",
        "lng": "-117.3892",
        "country": "United States"
    },
    {
        "name": "Ilopango",
        "lat": "13.7000",
        "lng": "-89.1167",
        "country": "El Salvador"
    },
    {
        "name": "Masaka",
        "lat": "-0.3411",
        "lng": "31.7361",
        "country": "Uganda"
    },
    {
        "name": "Spokane Valley",
        "lat": "47.6626",
        "lng": "-117.2346",
        "country": "United States"
    },
    {
        "name": "Saij\u014d",
        "lat": "33.9167",
        "lng": "133.1833",
        "country": "Japan"
    },
    {
        "name": "Charlottesville",
        "lat": "38.0375",
        "lng": "-78.4855",
        "country": "United States"
    },
    {
        "name": "Kilinochchi",
        "lat": "9.4004",
        "lng": "80.3999",
        "country": "Sri Lanka"
    },
    {
        "name": "Bacabal",
        "lat": "-4.2250",
        "lng": "-44.7800",
        "country": "Brazil"
    },
    {
        "name": "Menifee",
        "lat": "33.6909",
        "lng": "-117.1849",
        "country": "United States"
    },
    {
        "name": "Orsha",
        "lat": "54.5092",
        "lng": "30.4258",
        "country": "Belarus"
    },
    {
        "name": "Daly City",
        "lat": "37.6862",
        "lng": "-122.4685",
        "country": "United States"
    },
    {
        "name": "Uitenhage",
        "lat": "-33.7667",
        "lng": "25.4000",
        "country": "South Africa"
    },
    {
        "name": "Biak",
        "lat": "-1.1800",
        "lng": "136.0800",
        "country": "Indonesia"
    },
    {
        "name": "Wigan",
        "lat": "53.5448",
        "lng": "-2.6318",
        "country": "United Kingdom"
    },
    {
        "name": "Roncaglia",
        "lat": "45.0478",
        "lng": "9.7006",
        "country": "Italy"
    },
    {
        "name": "Itacoatiara",
        "lat": "-3.1428",
        "lng": "-58.4439",
        "country": "Brazil"
    },
    {
        "name": "Berdsk",
        "lat": "54.7500",
        "lng": "83.1000",
        "country": "Russia"
    },
    {
        "name": "Elista",
        "lat": "46.3167",
        "lng": "44.2667",
        "country": "Russia"
    },
    {
        "name": "Musoma",
        "lat": "-1.5000",
        "lng": "33.8000",
        "country": "Tanzania"
    },
    {
        "name": "Breves",
        "lat": "-1.6819",
        "lng": "-50.4800",
        "country": "Brazil"
    },
    {
        "name": "Buz\u0103u",
        "lat": "45.1531",
        "lng": "26.8208",
        "country": "Romania"
    },
    {
        "name": "Mubende",
        "lat": "0.5575",
        "lng": "31.3950",
        "country": "Uganda"
    },
    {
        "name": "Francistown",
        "lat": "-21.1736",
        "lng": "27.5125",
        "country": "Botswana"
    },
    {
        "name": "Lower Hutt",
        "lat": "-41.2167",
        "lng": "174.9167",
        "country": "New Zealand"
    },
    {
        "name": "Woodbridge",
        "lat": "40.5611",
        "lng": "-74.2943",
        "country": "United States"
    },
    {
        "name": "Tanga",
        "lat": "-5.0742",
        "lng": "39.0992",
        "country": "Tanzania"
    },
    {
        "name": "Ub\u00e1",
        "lat": "-21.1200",
        "lng": "-42.9428",
        "country": "Brazil"
    },
    {
        "name": "Hounslow",
        "lat": "51.4668",
        "lng": "-0.3750",
        "country": "United Kingdom"
    },
    {
        "name": "Bumba",
        "lat": "2.1844",
        "lng": "22.4703",
        "country": "Congo (Kinshasa)"
    },
    {
        "name": "B\u016bndi",
        "lat": "25.4400",
        "lng": "75.6400",
        "country": "India"
    },
    {
        "name": "Bergama",
        "lat": "39.1167",
        "lng": "27.1833",
        "country": "Turkey"
    },
    {
        "name": "Chikushino",
        "lat": "33.5000",
        "lng": "130.5167",
        "country": "Japan"
    },
    {
        "name": "Patos",
        "lat": "-7.0244",
        "lng": "-37.2800",
        "country": "Brazil"
    },
    {
        "name": "Itanha\u00e9m",
        "lat": "-24.1806",
        "lng": "-46.7828",
        "country": "Brazil"
    }
]