[
    {
        "name": "Ji\u0101nganj",
        "lat": "25.8661",
        "lng": "87.2612",
        "country": "India"
    },
    {
        "name": "San Lucas",
        "lat": "13.4167",
        "lng": "-86.6000",
        "country": "Nicaragua"
    },
    {
        "name": "Kanel",
        "lat": "15.4833",
        "lng": "-13.1667",
        "country": "Senegal"
    },
    {
        "name": "Fouriesburg",
        "lat": "-28.6227",
        "lng": "28.2109",
        "country": "South Africa"
    },
    {
        "name": "Pretoria-Noord",
        "lat": "-25.6731",
        "lng": "28.1733",
        "country": "South Africa"
    },
    {
        "name": "Culaba",
        "lat": "11.6578",
        "lng": "124.5425",
        "country": "Philippines"
    },
    {
        "name": "Roding",
        "lat": "49.2000",
        "lng": "12.5167",
        "country": "Germany"
    },
    {
        "name": "Sitalpur",
        "lat": "26.4050",
        "lng": "85.0070",
        "country": "India"
    },
    {
        "name": "Ben",
        "lat": "32.5444",
        "lng": "50.7461",
        "country": "Iran"
    },
    {
        "name": "Turi",
        "lat": "40.9167",
        "lng": "17.0167",
        "country": "Italy"
    },
    {
        "name": "Barwat Pasr\u0101in",
        "lat": "26.7925",
        "lng": "84.5469",
        "country": "India"
    },
    {
        "name": "Phulwaria",
        "lat": "25.9395",
        "lng": "85.0035",
        "country": "India"
    },
    {
        "name": "Bachr\u0101",
        "lat": "23.6886",
        "lng": "85.0703",
        "country": "India"
    },
    {
        "name": "Senmayach\u014d-senmaya",
        "lat": "38.9369",
        "lng": "141.3314",
        "country": "Japan"
    },
    {
        "name": "Larkspur",
        "lat": "37.9393",
        "lng": "-122.5312",
        "country": "United States"
    },
    {
        "name": "An Th\u00e0nh B",
        "lat": "10.1958",
        "lng": "106.3314",
        "country": "Vietnam"
    },
    {
        "name": "Wanderley",
        "lat": "-12.1200",
        "lng": "-43.8878",
        "country": "Brazil"
    },
    {
        "name": "Rovinj",
        "lat": "45.0833",
        "lng": "13.6333",
        "country": "Croatia"
    },
    {
        "name": "Chapantongo",
        "lat": "20.2833",
        "lng": "-99.4000",
        "country": "Mexico"
    },
    {
        "name": "Casinhas",
        "lat": "-7.7408",
        "lng": "-35.7208",
        "country": "Brazil"
    },
    {
        "name": "Wickede",
        "lat": "51.4964",
        "lng": "7.8658",
        "country": "Germany"
    },
    {
        "name": "Lingamparti",
        "lat": "17.2827",
        "lng": "82.1231",
        "country": "India"
    },
    {
        "name": "Itatiaiu\u00e7u",
        "lat": "-20.2000",
        "lng": "-44.4167",
        "country": "Brazil"
    },
    {
        "name": "Abar\u00e1n",
        "lat": "38.2031",
        "lng": "-1.4003",
        "country": "Spain"
    },
    {
        "name": "Upp\u0101da",
        "lat": "17.0833",
        "lng": "82.3333",
        "country": "India"
    },
    {
        "name": "Juan de Herrera",
        "lat": "18.8667",
        "lng": "-71.2333",
        "country": "Dominican Republic"
    },
    {
        "name": "Palangarai",
        "lat": "11.1978",
        "lng": "77.3058",
        "country": "India"
    },
    {
        "name": "Mizil",
        "lat": "45.0000",
        "lng": "26.4406",
        "country": "Romania"
    },
    {
        "name": "Shenley Church End",
        "lat": "52.0220",
        "lng": "-0.7880",
        "country": "United Kingdom"
    },
    {
        "name": "Campo de Criptana",
        "lat": "39.4000",
        "lng": "-3.1167",
        "country": "Spain"
    },
    {
        "name": "Montesarchio",
        "lat": "41.0611",
        "lng": "14.6333",
        "country": "Italy"
    },
    {
        "name": "Cardoso Moreira",
        "lat": "-21.4878",
        "lng": "-41.6158",
        "country": "Brazil"
    },
    {
        "name": "Kingsbury",
        "lat": "43.3440",
        "lng": "-73.5396",
        "country": "United States"
    },
    {
        "name": "Shanyincun",
        "lat": "37.9151",
        "lng": "114.4126",
        "country": "China"
    },
    {
        "name": "Wicklow",
        "lat": "52.9779",
        "lng": "-6.0330",
        "country": "Ireland"
    },
    {
        "name": "K\u016bdangulam",
        "lat": "8.1901",
        "lng": "77.7002",
        "country": "India"
    },
    {
        "name": "Schodack",
        "lat": "42.5297",
        "lng": "-73.6858",
        "country": "United States"
    },
    {
        "name": "Pingtiancun",
        "lat": "25.2225",
        "lng": "114.6252",
        "country": "China"
    },
    {
        "name": "Jhaua",
        "lat": "25.6250",
        "lng": "84.5161",
        "country": "India"
    },
    {
        "name": "Montefiascone",
        "lat": "42.5403",
        "lng": "12.0369",
        "country": "Italy"
    },
    {
        "name": "Pucioasa",
        "lat": "45.0742",
        "lng": "25.4342",
        "country": "Romania"
    },
    {
        "name": "Mogocha",
        "lat": "53.7333",
        "lng": "119.7667",
        "country": "Russia"
    },
    {
        "name": "Saposoa",
        "lat": "-6.9364",
        "lng": "-76.7718",
        "country": "Peru"
    },
    {
        "name": "Mirdaul",
        "lat": "26.2363",
        "lng": "87.0971",
        "country": "India"
    },
    {
        "name": "Boc\u015fa",
        "lat": "45.3747",
        "lng": "21.7106",
        "country": "Romania"
    },
    {
        "name": "Mulakal\u016bru",
        "lat": "16.2776",
        "lng": "80.0672",
        "country": "India"
    },
    {
        "name": "W\u00e4chtersbach",
        "lat": "50.2547",
        "lng": "9.2919",
        "country": "Germany"
    },
    {
        "name": "Vinings",
        "lat": "33.8608",
        "lng": "-84.4686",
        "country": "United States"
    },
    {
        "name": "Jaitpur",
        "lat": "25.9132",
        "lng": "84.5730",
        "country": "India"
    },
    {
        "name": "Solana Beach",
        "lat": "32.9943",
        "lng": "-117.2574",
        "country": "United States"
    },
    {
        "name": "Svirsk",
        "lat": "53.0833",
        "lng": "103.3333",
        "country": "Russia"
    },
    {
        "name": "Tartarugalzinho",
        "lat": "1.5058",
        "lng": "-50.9119",
        "country": "Brazil"
    },
    {
        "name": "Sant Sadurn\u00ed d\u2019Anoia",
        "lat": "41.4261",
        "lng": "1.7850",
        "country": "Spain"
    },
    {
        "name": "Lakkavaram",
        "lat": "17.0628",
        "lng": "81.2919",
        "country": "India"
    },
    {
        "name": "Carpenedolo",
        "lat": "45.3667",
        "lng": "10.4333",
        "country": "Italy"
    },
    {
        "name": "Cherutana Tekku",
        "lat": "9.3230",
        "lng": "76.4382",
        "country": "India"
    },
    {
        "name": "Brej\u00f5es",
        "lat": "-13.1039",
        "lng": "-39.7958",
        "country": "Brazil"
    },
    {
        "name": "Maktar",
        "lat": "35.8606",
        "lng": "9.2058",
        "country": "Tunisia"
    },
    {
        "name": "Shiwan",
        "lat": "37.4786",
        "lng": "109.4230",
        "country": "China"
    },
    {
        "name": "Saint-Andr\u00e9",
        "lat": "50.6608",
        "lng": "3.0450",
        "country": "France"
    },
    {
        "name": "Camponogara",
        "lat": "45.3833",
        "lng": "12.0667",
        "country": "Italy"
    },
    {
        "name": "Elandsdoorn",
        "lat": "-25.2880",
        "lng": "29.1960",
        "country": "South Africa"
    },
    {
        "name": "Bou Fekrane",
        "lat": "33.7667",
        "lng": "-5.4833",
        "country": "Morocco"
    },
    {
        "name": "Nossa Senhora do Livramento",
        "lat": "-15.7750",
        "lng": "-56.3456",
        "country": "Brazil"
    },
    {
        "name": "Gibrale\u00f3n",
        "lat": "37.3753",
        "lng": "-6.9694",
        "country": "Spain"
    },
    {
        "name": "S\u0101khmohan",
        "lat": "25.6325",
        "lng": "85.9859",
        "country": "India"
    },
    {
        "name": "Grantsville",
        "lat": "40.6148",
        "lng": "-112.4777",
        "country": "United States"
    },
    {
        "name": "Japoat\u00e3",
        "lat": "-10.3469",
        "lng": "-36.8008",
        "country": "Brazil"
    },
    {
        "name": "Amboise",
        "lat": "47.4042",
        "lng": "0.9800",
        "country": "France"
    },
    {
        "name": "R\u0101mpur Sh\u0101mchand",
        "lat": "25.5664",
        "lng": "85.3289",
        "country": "India"
    },
    {
        "name": "North Adams",
        "lat": "42.6844",
        "lng": "-73.1166",
        "country": "United States"
    },
    {
        "name": "Matinilla",
        "lat": "9.9246",
        "lng": "-84.0713",
        "country": "Costa Rica"
    },
    {
        "name": "Trebaseleghe",
        "lat": "45.5833",
        "lng": "12.0500",
        "country": "Italy"
    },
    {
        "name": "Gomparou",
        "lat": "11.3000",
        "lng": "2.4489",
        "country": "Benin"
    },
    {
        "name": "Morungaba",
        "lat": "-22.8800",
        "lng": "-46.7917",
        "country": "Brazil"
    },
    {
        "name": "\u2019A\u00efn Tolba",
        "lat": "35.2483",
        "lng": "-1.2489",
        "country": "Algeria"
    },
    {
        "name": "Bni Khloug",
        "lat": "32.6500",
        "lng": "-7.3833",
        "country": "Morocco"
    },
    {
        "name": "Isalo",
        "lat": "-19.7333",
        "lng": "45.4333",
        "country": "Madagascar"
    },
    {
        "name": "Meadville",
        "lat": "41.6476",
        "lng": "-80.1468",
        "country": "United States"
    },
    {
        "name": "Kachavaram",
        "lat": "16.5361",
        "lng": "79.7187",
        "country": "India"
    },
    {
        "name": "Song Phi Nong",
        "lat": "14.2306",
        "lng": "100.0389",
        "country": "Thailand"
    },
    {
        "name": "\u0100tmak\u016bru",
        "lat": "14.6452",
        "lng": "77.3554",
        "country": "India"
    },
    {
        "name": "Qal\u2018at al Ma\u1e11\u012bq",
        "lat": "35.4100",
        "lng": "36.3900",
        "country": "Syria"
    },
    {
        "name": "Lynnfield",
        "lat": "42.5356",
        "lng": "-71.0382",
        "country": "United States"
    },
    {
        "name": "Nova Londrina",
        "lat": "-22.7500",
        "lng": "-53.0000",
        "country": "Brazil"
    },
    {
        "name": "Fengdeng",
        "lat": "38.5514",
        "lng": "106.2464",
        "country": "China"
    },
    {
        "name": "Byram",
        "lat": "32.1890",
        "lng": "-90.2861",
        "country": "United States"
    },
    {
        "name": "D'Iberville",
        "lat": "30.4709",
        "lng": "-88.9011",
        "country": "United States"
    },
    {
        "name": "Paranhos",
        "lat": "-23.8928",
        "lng": "-55.4308",
        "country": "Brazil"
    },
    {
        "name": "Woolton",
        "lat": "53.3740",
        "lng": "-2.8650",
        "country": "United Kingdom"
    },
    {
        "name": "Sint-Gillis-bij-Dendermonde",
        "lat": "51.0189",
        "lng": "4.1058",
        "country": "Belgium"
    },
    {
        "name": "Tarnos",
        "lat": "43.5411",
        "lng": "-1.4600",
        "country": "France"
    },
    {
        "name": "Amarw\u0101 Khurd",
        "lat": "26.8333",
        "lng": "84.2500",
        "country": "India"
    },
    {
        "name": "Tezze sul Brenta",
        "lat": "45.6833",
        "lng": "11.7000",
        "country": "Italy"
    },
    {
        "name": "Chamical",
        "lat": "-30.3667",
        "lng": "-66.3167",
        "country": "Argentina"
    },
    {
        "name": "Holly Hill",
        "lat": "29.2442",
        "lng": "-81.0465",
        "country": "United States"
    },
    {
        "name": "M\u00f6ckern",
        "lat": "52.1406",
        "lng": "11.9525",
        "country": "Germany"
    },
    {
        "name": "Castiglion Fiorentino",
        "lat": "43.3439",
        "lng": "11.9189",
        "country": "Italy"
    },
    {
        "name": "Bujari",
        "lat": "-9.8308",
        "lng": "-67.9519",
        "country": "Brazil"
    },
    {
        "name": "Berja",
        "lat": "36.8453",
        "lng": "-2.9469",
        "country": "Spain"
    }
]