[
    {
        "name": "Montr\u00e9al",
        "lat": "45.5089",
        "lng": "-73.5617",
        "country": "Canada"
    },
    {
        "name": "Baicheng",
        "lat": "23.9030",
        "lng": "106.6190",
        "country": "China"
    },
    {
        "name": "Wuhu",
        "lat": "31.3526",
        "lng": "118.4331",
        "country": "China"
    },
    {
        "name": "Yulinshi",
        "lat": "38.2858",
        "lng": "109.7341",
        "country": "China"
    },
    {
        "name": "Medan",
        "lat": "3.5894",
        "lng": "98.6739",
        "country": "Indonesia"
    },
    {
        "name": "Wenzhou",
        "lat": "27.9938",
        "lng": "120.6993",
        "country": "China"
    },
    {
        "name": "Changzhou",
        "lat": "31.8110",
        "lng": "119.9740",
        "country": "China"
    },
    {
        "name": "Puyang",
        "lat": "35.7627",
        "lng": "115.0292",
        "country": "China"
    },
    {
        "name": "Jiaozuo",
        "lat": "35.2157",
        "lng": "113.2419",
        "country": "China"
    },
    {
        "name": "Nanchang",
        "lat": "28.6830",
        "lng": "115.8580",
        "country": "China"
    },
    {
        "name": "Seattle",
        "lat": "47.6211",
        "lng": "-122.3244",
        "country": "United States"
    },
    {
        "name": "Ibadan",
        "lat": "7.3964",
        "lng": "3.9167",
        "country": "Nigeria"
    },
    {
        "name": "Casablanca",
        "lat": "33.5333",
        "lng": "-7.5833",
        "country": "Morocco"
    },
    {
        "name": "Kumasi",
        "lat": "6.7000",
        "lng": "-1.6250",
        "country": "Ghana"
    },
    {
        "name": "Deyang",
        "lat": "31.1270",
        "lng": "104.3980",
        "country": "China"
    },
    {
        "name": "Busan",
        "lat": "35.1800",
        "lng": "129.0750",
        "country": "Korea, South"
    },
    {
        "name": "Hohhot",
        "lat": "40.8420",
        "lng": "111.7490",
        "country": "China"
    },
    {
        "name": "Hechi",
        "lat": "24.6930",
        "lng": "108.0850",
        "country": "China"
    },
    {
        "name": "Algiers",
        "lat": "36.7539",
        "lng": "3.0589",
        "country": "Algeria"
    },
    {
        "name": "Tangshan",
        "lat": "39.6294",
        "lng": "118.1739",
        "country": "China"
    },
    {
        "name": "Shiyan",
        "lat": "32.6290",
        "lng": "110.7987",
        "country": "China"
    },
    {
        "name": "Lucknow",
        "lat": "26.8500",
        "lng": "80.9500",
        "country": "India"
    },
    {
        "name": "Mashhad",
        "lat": "36.3264",
        "lng": "59.5433",
        "country": "Iran"
    },
    {
        "name": "San Francisco",
        "lat": "37.7558",
        "lng": "-122.4449",
        "country": "United States"
    },
    {
        "name": "Boankra",
        "lat": "6.6944",
        "lng": "-1.4028",
        "country": "Ghana"
    },
    {
        "name": "Dubai",
        "lat": "25.2631",
        "lng": "55.2972",
        "country": "United Arab Emirates"
    },
    {
        "name": "Anshan",
        "lat": "41.1080",
        "lng": "122.9940",
        "country": "China"
    },
    {
        "name": "Baojishi",
        "lat": "34.3630",
        "lng": "107.2380",
        "country": "China"
    },
    {
        "name": "Qinzhou",
        "lat": "21.9810",
        "lng": "108.6540",
        "country": "China"
    },
    {
        "name": "Guiyang",
        "lat": "26.6470",
        "lng": "106.6300",
        "country": "China"
    },
    {
        "name": "Bengbu",
        "lat": "32.9170",
        "lng": "117.3890",
        "country": "China"
    },
    {
        "name": "Bazhou",
        "lat": "31.8680",
        "lng": "106.7480",
        "country": "China"
    },
    {
        "name": "Suining",
        "lat": "30.5330",
        "lng": "105.5930",
        "country": "China"
    },
    {
        "name": "Wuxi",
        "lat": "31.4910",
        "lng": "120.3120",
        "country": "China"
    },
    {
        "name": "Kotla Qasim Khan",
        "lat": "32.5833",
        "lng": "73.7500",
        "country": "Pakistan"
    },
    {
        "name": "Hanzhong",
        "lat": "33.0664",
        "lng": "107.0232",
        "country": "China"
    },
    {
        "name": "Putian",
        "lat": "25.4526",
        "lng": "119.0078",
        "country": "China"
    },
    {
        "name": "Zhenjiang",
        "lat": "32.1880",
        "lng": "119.4240",
        "country": "China"
    },
    {
        "name": "Guang\u2019an",
        "lat": "30.4564",
        "lng": "106.6326",
        "country": "China"
    },
    {
        "name": "Faisalabad",
        "lat": "31.4167",
        "lng": "73.0911",
        "country": "Pakistan"
    },
    {
        "name": "Changzhi",
        "lat": "36.1950",
        "lng": "113.1170",
        "country": "China"
    },
    {
        "name": "Tongren",
        "lat": "27.7316",
        "lng": "109.1895",
        "country": "China"
    },
    {
        "name": "Leshan",
        "lat": "29.5520",
        "lng": "103.7660",
        "country": "China"
    },
    {
        "name": "Santa Cruz de la Sierra",
        "lat": "-17.7892",
        "lng": "-63.1975",
        "country": "Bolivia"
    },
    {
        "name": "Qinhuangdao",
        "lat": "39.8882",
        "lng": "119.5202",
        "country": "China"
    },
    {
        "name": "Jaipur",
        "lat": "26.9000",
        "lng": "75.8000",
        "country": "India"
    },
    {
        "name": "Xinzhou",
        "lat": "38.4160",
        "lng": "112.7340",
        "country": "China"
    },
    {
        "name": "Lanzhou",
        "lat": "36.0606",
        "lng": "103.8268",
        "country": "China"
    },
    {
        "name": "Wuzhou",
        "lat": "23.4767",
        "lng": "111.2790",
        "country": "China"
    },
    {
        "name": "Athens",
        "lat": "37.9842",
        "lng": "23.7281",
        "country": "Greece"
    },
    {
        "name": "San Diego",
        "lat": "32.8313",
        "lng": "-117.1222",
        "country": "United States"
    },
    {
        "name": "Addis Ababa",
        "lat": "9.0300",
        "lng": "38.7400",
        "country": "Ethiopia"
    },
    {
        "name": "Taichung",
        "lat": "24.1439",
        "lng": "120.6794",
        "country": "Taiwan"
    },
    {
        "name": "Huainan",
        "lat": "32.6314",
        "lng": "117.0194",
        "country": "China"
    },
    {
        "name": "Guatemala City",
        "lat": "14.6133",
        "lng": "-90.5353",
        "country": "Guatemala"
    },
    {
        "name": "Kuwait City",
        "lat": "29.3697",
        "lng": "47.9783",
        "country": "Kuwait"
    },
    {
        "name": "Budapest",
        "lat": "47.4925",
        "lng": "19.0514",
        "country": "Hungary"
    },
    {
        "name": "Qincheng",
        "lat": "34.5809",
        "lng": "105.7311",
        "country": "China"
    },
    {
        "name": "Rizhao",
        "lat": "35.4170",
        "lng": "119.5270",
        "country": "China"
    },
    {
        "name": "Quezon City",
        "lat": "14.6500",
        "lng": "121.0475",
        "country": "Philippines"
    },
    {
        "name": "Sanaa",
        "lat": "15.3483",
        "lng": "44.2064",
        "country": "Yemen"
    },
    {
        "name": "Tashkent",
        "lat": "41.3111",
        "lng": "69.2797",
        "country": "Uzbekistan"
    },
    {
        "name": "Kyiv",
        "lat": "50.4500",
        "lng": "30.5233",
        "country": "Ukraine"
    },
    {
        "name": "Meishan",
        "lat": "30.0771",
        "lng": "103.8484",
        "country": "China"
    },
    {
        "name": "Incheon",
        "lat": "37.4833",
        "lng": "126.6333",
        "country": "Korea, South"
    },
    {
        "name": "Birmingham",
        "lat": "52.4800",
        "lng": "-1.9025",
        "country": "United Kingdom"
    },
    {
        "name": "Ningde",
        "lat": "26.6662",
        "lng": "119.5477",
        "country": "China"
    },
    {
        "name": "Zhongshan",
        "lat": "22.5170",
        "lng": "113.3925",
        "country": "China"
    },
    {
        "name": "Weihai",
        "lat": "37.5133",
        "lng": "122.1205",
        "country": "China"
    },
    {
        "name": "Bursa",
        "lat": "40.1833",
        "lng": "29.0500",
        "country": "Turkey"
    },
    {
        "name": "Minneapolis",
        "lat": "44.9635",
        "lng": "-93.2678",
        "country": "United States"
    },
    {
        "name": "Mbuji-Mayi",
        "lat": "-6.1500",
        "lng": "23.6000",
        "country": "Congo (Kinshasa)"
    },
    {
        "name": "Haikou",
        "lat": "20.0186",
        "lng": "110.3488",
        "country": "China"
    },
    {
        "name": "Tongliao",
        "lat": "43.6540",
        "lng": "122.2430",
        "country": "China"
    },
    {
        "name": "Chaoyang",
        "lat": "41.5710",
        "lng": "120.4530",
        "country": "China"
    },
    {
        "name": "La Paz",
        "lat": "-16.4958",
        "lng": "-68.1333",
        "country": "Bolivia"
    },
    {
        "name": "Pyongyang",
        "lat": "39.0167",
        "lng": "125.7475",
        "country": "Korea, North"
    },
    {
        "name": "Tampa",
        "lat": "27.9945",
        "lng": "-82.4447",
        "country": "United States"
    },
    {
        "name": "Shaoguan",
        "lat": "24.8110",
        "lng": "113.5970",
        "country": "China"
    },
    {
        "name": "Heyuan",
        "lat": "23.7443",
        "lng": "114.7002",
        "country": "China"
    },
    {
        "name": "Bras\u00edlia",
        "lat": "-15.7939",
        "lng": "-47.8828",
        "country": "Brazil"
    },
    {
        "name": "Omdurman",
        "lat": "15.6500",
        "lng": "32.4833",
        "country": "Sudan"
    },
    {
        "name": "Malang",
        "lat": "-7.9800",
        "lng": "112.6200",
        "country": "Indonesia"
    },
    {
        "name": "Stuttgart",
        "lat": "48.7775",
        "lng": "9.1800",
        "country": "Germany"
    },
    {
        "name": "Daqing",
        "lat": "46.5890",
        "lng": "125.1040",
        "country": "China"
    },
    {
        "name": "Rome",
        "lat": "41.8933",
        "lng": "12.4828",
        "country": "Italy"
    },
    {
        "name": "Brooklyn",
        "lat": "40.6501",
        "lng": "-73.9496",
        "country": "United States"
    },
    {
        "name": "Kaohsiung",
        "lat": "22.6150",
        "lng": "120.2975",
        "country": "Taiwan"
    },
    {
        "name": "Xiangtan",
        "lat": "27.8313",
        "lng": "112.9454",
        "country": "China"
    },
    {
        "name": "Longyan",
        "lat": "25.0760",
        "lng": "117.0170",
        "country": "China"
    },
    {
        "name": "Baotou",
        "lat": "40.6213",
        "lng": "109.9532",
        "country": "China"
    },
    {
        "name": "Handan",
        "lat": "36.6010",
        "lng": "114.4870",
        "country": "China"
    },
    {
        "name": "Jinzhou",
        "lat": "41.1290",
        "lng": "121.1480",
        "country": "China"
    },
    {
        "name": "Kanpur",
        "lat": "26.4499",
        "lng": "80.3319",
        "country": "India"
    },
    {
        "name": "Denver",
        "lat": "39.7620",
        "lng": "-104.8758",
        "country": "United States"
    },
    {
        "name": "Nanping",
        "lat": "26.6418",
        "lng": "118.1774",
        "country": "China"
    },
    {
        "name": "G\u0101zipura",
        "lat": "23.9889",
        "lng": "90.3750",
        "country": "Bangladesh"
    },
    {
        "name": "Shanwei",
        "lat": "22.7872",
        "lng": "115.3756",
        "country": "China"
    },
    {
        "name": "Chaozhou",
        "lat": "23.6580",
        "lng": "116.6220",
        "country": "China"
    },
    {
        "name": "Guayaquil",
        "lat": "-2.1900",
        "lng": "-79.8875",
        "country": "Ecuador"
    }
]