[
    {
        "name": "Saint-Jean-d\u2019Illac",
        "lat": "44.8106",
        "lng": "-0.7825",
        "country": "France"
    },
    {
        "name": "Huala\u00f1e",
        "lat": "-34.9765",
        "lng": "-71.8048",
        "country": "Chile"
    },
    {
        "name": "Patch\u016br",
        "lat": "12.5949",
        "lng": "78.4622",
        "country": "India"
    },
    {
        "name": "Mariy\u0101dau",
        "lat": "24.2762",
        "lng": "79.6559",
        "country": "India"
    },
    {
        "name": "Satrav\u0101da",
        "lat": "13.3201",
        "lng": "79.5488",
        "country": "India"
    },
    {
        "name": "Qualicum Beach",
        "lat": "49.3500",
        "lng": "-124.4333",
        "country": "Canada"
    },
    {
        "name": "Nieuwleusen",
        "lat": "52.5833",
        "lng": "6.2833",
        "country": "Netherlands"
    },
    {
        "name": "Chechen-Aul",
        "lat": "43.2000",
        "lng": "45.7889",
        "country": "Russia"
    },
    {
        "name": "San Jos\u00e9 Guayabal",
        "lat": "13.8500",
        "lng": "-89.1000",
        "country": "El Salvador"
    },
    {
        "name": "Frodsham",
        "lat": "53.2947",
        "lng": "-2.7289",
        "country": "United Kingdom"
    },
    {
        "name": "Polegate",
        "lat": "50.8216",
        "lng": "0.2442",
        "country": "United Kingdom"
    },
    {
        "name": "Pasr\u0101ha",
        "lat": "25.3973",
        "lng": "86.7034",
        "country": "India"
    },
    {
        "name": "Ilvesheim",
        "lat": "49.4725",
        "lng": "8.5675",
        "country": "Germany"
    },
    {
        "name": "Dr\u0101ksh\u0101r\u0101ma",
        "lat": "16.7928",
        "lng": "82.0635",
        "country": "India"
    },
    {
        "name": "Livron-sur-Dr\u00f4me",
        "lat": "44.7736",
        "lng": "4.8439",
        "country": "France"
    },
    {
        "name": "F\u00e1rsala",
        "lat": "39.3000",
        "lng": "22.3833",
        "country": "Greece"
    },
    {
        "name": "Urang\u0101npatti",
        "lat": "9.9984",
        "lng": "78.4297",
        "country": "India"
    },
    {
        "name": "Gadzhiyevo",
        "lat": "69.2500",
        "lng": "33.4167",
        "country": "Russia"
    },
    {
        "name": "Mumaradikop",
        "lat": "15.9000",
        "lng": "75.5000",
        "country": "India"
    },
    {
        "name": "Barros Cassal",
        "lat": "-29.1000",
        "lng": "-52.5833",
        "country": "Brazil"
    },
    {
        "name": "Honganur",
        "lat": "12.6044",
        "lng": "77.2175",
        "country": "India"
    },
    {
        "name": "Porto de Pedras",
        "lat": "-9.1578",
        "lng": "-35.2950",
        "country": "Brazil"
    },
    {
        "name": "Ros\u00e1rio do Catete",
        "lat": "-10.6958",
        "lng": "-37.0308",
        "country": "Brazil"
    },
    {
        "name": "Le Cr\u00e8s",
        "lat": "43.6481",
        "lng": "3.9397",
        "country": "France"
    },
    {
        "name": "Isua",
        "lat": "25.2330",
        "lng": "85.8430",
        "country": "India"
    },
    {
        "name": "Bo\u2018z",
        "lat": "40.6833",
        "lng": "71.9167",
        "country": "Uzbekistan"
    },
    {
        "name": "Shend\u0113",
        "lat": "10.6333",
        "lng": "36.9333",
        "country": "Ethiopia"
    },
    {
        "name": "Kanajanahalli",
        "lat": "14.1092",
        "lng": "76.8381",
        "country": "India"
    },
    {
        "name": "Khand\u0101ich",
        "lat": "24.8511",
        "lng": "86.2395",
        "country": "India"
    },
    {
        "name": "Ecorse",
        "lat": "42.2489",
        "lng": "-83.1399",
        "country": "United States"
    },
    {
        "name": "Skidaway Island",
        "lat": "31.9372",
        "lng": "-81.0449",
        "country": "United States"
    },
    {
        "name": "Newfane",
        "lat": "43.2818",
        "lng": "-78.6932",
        "country": "United States"
    },
    {
        "name": "Malahide",
        "lat": "42.7928",
        "lng": "-80.9361",
        "country": "Canada"
    },
    {
        "name": "Titu",
        "lat": "44.6622",
        "lng": "25.5736",
        "country": "Romania"
    },
    {
        "name": "Poienile de sub Munte",
        "lat": "47.8167",
        "lng": "24.4333",
        "country": "Romania"
    },
    {
        "name": "Perwez",
        "lat": "50.6167",
        "lng": "4.8167",
        "country": "Belgium"
    },
    {
        "name": "Modav\u0101ndisatyamangalam",
        "lat": "11.2635",
        "lng": "77.7285",
        "country": "India"
    },
    {
        "name": "Kharahara",
        "lat": "24.9142",
        "lng": "87.0006",
        "country": "India"
    },
    {
        "name": "Gassino Torinese",
        "lat": "45.1333",
        "lng": "7.8167",
        "country": "Italy"
    },
    {
        "name": "Ki\u00dflegg",
        "lat": "47.7900",
        "lng": "9.8842",
        "country": "Germany"
    },
    {
        "name": "Ledbury",
        "lat": "52.0339",
        "lng": "-2.4235",
        "country": "United Kingdom"
    },
    {
        "name": "S\u00edndos",
        "lat": "40.6667",
        "lng": "22.8000",
        "country": "Greece"
    },
    {
        "name": "Kruszwica",
        "lat": "52.6772",
        "lng": "18.3292",
        "country": "Poland"
    },
    {
        "name": "Juprelle",
        "lat": "50.7167",
        "lng": "5.5333",
        "country": "Belgium"
    },
    {
        "name": "Tecklenburg",
        "lat": "52.2194",
        "lng": "7.8125",
        "country": "Germany"
    },
    {
        "name": "La Jigua",
        "lat": "15.0400",
        "lng": "-88.8000",
        "country": "Honduras"
    },
    {
        "name": "Dahi",
        "lat": "22.1122",
        "lng": "74.5879",
        "country": "India"
    },
    {
        "name": "M\u012bl\u0101jerd",
        "lat": "34.6214",
        "lng": "49.2081",
        "country": "Iran"
    },
    {
        "name": "St. Francis",
        "lat": "42.9716",
        "lng": "-87.8730",
        "country": "United States"
    },
    {
        "name": "Tysmenytsia",
        "lat": "48.9008",
        "lng": "24.8492",
        "country": "Ukraine"
    },
    {
        "name": "Betania",
        "lat": "5.7500",
        "lng": "-75.9667",
        "country": "Colombia"
    },
    {
        "name": "As\u0101rhi",
        "lat": "25.2892",
        "lng": "85.2189",
        "country": "India"
    },
    {
        "name": "Bernalillo",
        "lat": "35.3127",
        "lng": "-106.5537",
        "country": "United States"
    },
    {
        "name": "Janda\u00edra",
        "lat": "-11.5639",
        "lng": "-37.7839",
        "country": "Brazil"
    },
    {
        "name": "Marano Vicentino",
        "lat": "45.7000",
        "lng": "11.4333",
        "country": "Italy"
    },
    {
        "name": "Ventnor City",
        "lat": "39.3457",
        "lng": "-74.4860",
        "country": "United States"
    },
    {
        "name": "Bad Liebenwerda",
        "lat": "51.5167",
        "lng": "13.4000",
        "country": "Germany"
    },
    {
        "name": "Lagunia Raghukanth",
        "lat": "25.8195",
        "lng": "85.7725",
        "country": "India"
    },
    {
        "name": "Kollankulam",
        "lat": "8.7964",
        "lng": "77.5681",
        "country": "India"
    },
    {
        "name": "Mabeskraal",
        "lat": "-25.1960",
        "lng": "26.8030",
        "country": "South Africa"
    },
    {
        "name": "Analaroa",
        "lat": "-18.4083",
        "lng": "47.7083",
        "country": "Madagascar"
    },
    {
        "name": "Kunnatt\u016br",
        "lat": "11.2727",
        "lng": "77.4107",
        "country": "India"
    },
    {
        "name": "Uppalap\u0101du",
        "lat": "16.3862",
        "lng": "79.9983",
        "country": "India"
    },
    {
        "name": "Ban Bo Phlap",
        "lat": "13.8439",
        "lng": "100.0686",
        "country": "Thailand"
    },
    {
        "name": "San Pancrazio Salentino",
        "lat": "40.4167",
        "lng": "17.8333",
        "country": "Italy"
    },
    {
        "name": "Bethalto",
        "lat": "38.9015",
        "lng": "-90.0466",
        "country": "United States"
    },
    {
        "name": "Frickenhausen",
        "lat": "48.5928",
        "lng": "9.3611",
        "country": "Germany"
    },
    {
        "name": "Bagnara Calabra",
        "lat": "38.2833",
        "lng": "15.8167",
        "country": "Italy"
    },
    {
        "name": "Moldova Nou\u0103",
        "lat": "44.7178",
        "lng": "21.6639",
        "country": "Romania"
    },
    {
        "name": "Nakhon Thai",
        "lat": "17.1011",
        "lng": "100.8296",
        "country": "Thailand"
    },
    {
        "name": "Hercul\u00e2ndia",
        "lat": "-22.0036",
        "lng": "-50.3853",
        "country": "Brazil"
    },
    {
        "name": "Chicholi",
        "lat": "22.0100",
        "lng": "77.6600",
        "country": "India"
    },
    {
        "name": "Punta del Este",
        "lat": "-34.9667",
        "lng": "-54.9500",
        "country": "Uruguay"
    },
    {
        "name": "Pozo Almonte",
        "lat": "-20.2667",
        "lng": "-69.8000",
        "country": "Chile"
    },
    {
        "name": "Laurens",
        "lat": "34.5022",
        "lng": "-82.0207",
        "country": "United States"
    },
    {
        "name": "Elsenfeld",
        "lat": "49.8500",
        "lng": "9.1667",
        "country": "Germany"
    },
    {
        "name": "Catral",
        "lat": "38.1594",
        "lng": "-0.8050",
        "country": "Spain"
    },
    {
        "name": "Majhariy\u0101",
        "lat": "26.8696",
        "lng": "84.8771",
        "country": "India"
    },
    {
        "name": "Bhachhi",
        "lat": "26.3404",
        "lng": "86.0585",
        "country": "India"
    },
    {
        "name": "\u0100lt\u016bn Kawbr\u012b",
        "lat": "35.7533",
        "lng": "44.1436",
        "country": "Iraq"
    },
    {
        "name": "Nakoushi",
        "lat": "26.6825",
        "lng": "127.9728",
        "country": "Japan"
    },
    {
        "name": "Thakurainia",
        "lat": "26.2098",
        "lng": "86.0191",
        "country": "India"
    },
    {
        "name": "Almagro",
        "lat": "11.9108",
        "lng": "124.2852",
        "country": "Philippines"
    },
    {
        "name": "Coleford",
        "lat": "51.7910",
        "lng": "-2.6162",
        "country": "United Kingdom"
    },
    {
        "name": "Leonia",
        "lat": "40.8638",
        "lng": "-73.9900",
        "country": "United States"
    },
    {
        "name": "Mascota",
        "lat": "20.5235",
        "lng": "-104.7886",
        "country": "Mexico"
    },
    {
        "name": "Skwierzyna",
        "lat": "52.6000",
        "lng": "15.5000",
        "country": "Poland"
    },
    {
        "name": "Ab\u016bz\u0304ar-e Ghaff\u0101r\u012b",
        "lat": "32.1806",
        "lng": "48.2778",
        "country": "Iran"
    },
    {
        "name": "Gaggiano",
        "lat": "45.4000",
        "lng": "9.0333",
        "country": "Italy"
    },
    {
        "name": "Nakao",
        "lat": "35.3333",
        "lng": "139.2167",
        "country": "Japan"
    },
    {
        "name": "Mound",
        "lat": "44.9328",
        "lng": "-93.6591",
        "country": "United States"
    },
    {
        "name": "Crigglestone",
        "lat": "53.6440",
        "lng": "-1.5225",
        "country": "United Kingdom"
    },
    {
        "name": "Teplohirsk",
        "lat": "48.5967",
        "lng": "38.5828",
        "country": "Ukraine"
    },
    {
        "name": "\u0100nandpur",
        "lat": "25.6192",
        "lng": "84.8673",
        "country": "India"
    },
    {
        "name": "Gainrha",
        "lat": "25.9916",
        "lng": "87.4648",
        "country": "India"
    },
    {
        "name": "Goldach",
        "lat": "47.4833",
        "lng": "9.4667",
        "country": "Switzerland"
    },
    {
        "name": "Clermont-l\u2019H\u00e9rault",
        "lat": "43.6281",
        "lng": "3.4331",
        "country": "France"
    },
    {
        "name": "Deokali",
        "lat": "25.9068",
        "lng": "86.1111",
        "country": "India"
    },
    {
        "name": "Joght\u0101y",
        "lat": "36.6383",
        "lng": "57.0717",
        "country": "Iran"
    },
    {
        "name": "R\u0101jap\u016bdi",
        "lat": "17.1830",
        "lng": "82.0500",
        "country": "India"
    }
]