[
    {
        "name": "R\u0101jhanpur",
        "lat": "25.7885",
        "lng": "86.4647",
        "country": "India"
    },
    {
        "name": "Cradock",
        "lat": "-32.1650",
        "lng": "25.6175",
        "country": "South Africa"
    },
    {
        "name": "Chop",
        "lat": "48.4333",
        "lng": "22.2000",
        "country": "Ukraine"
    },
    {
        "name": "Le Poir\u00e9-sur-Vie",
        "lat": "46.7682",
        "lng": "-1.5098",
        "country": "France"
    },
    {
        "name": "Sa\u2018\u012bd\u012b",
        "lat": "30.3364",
        "lng": "57.0994",
        "country": "Iran"
    },
    {
        "name": "East Donegal",
        "lat": "40.0823",
        "lng": "-76.5631",
        "country": "United States"
    },
    {
        "name": "Vyetka",
        "lat": "52.5667",
        "lng": "31.1833",
        "country": "Belarus"
    },
    {
        "name": "Midalam",
        "lat": "8.2060",
        "lng": "77.2160",
        "country": "India"
    },
    {
        "name": "Khandauli",
        "lat": "27.3125",
        "lng": "78.0289",
        "country": "India"
    },
    {
        "name": "Shahrak-e P\u0101rs",
        "lat": "35.6081",
        "lng": "51.3808",
        "country": "Iran"
    },
    {
        "name": "Sredets",
        "lat": "42.3500",
        "lng": "27.2000",
        "country": "Bulgaria"
    },
    {
        "name": "Gare\u0161nica",
        "lat": "45.5667",
        "lng": "16.9333",
        "country": "Croatia"
    },
    {
        "name": "Fort Riley",
        "lat": "39.1064",
        "lng": "-96.8117",
        "country": "United States"
    },
    {
        "name": "Ustyuzhna",
        "lat": "58.8333",
        "lng": "36.4333",
        "country": "Russia"
    },
    {
        "name": "Beutelsbach",
        "lat": "48.8000",
        "lng": "9.3833",
        "country": "Germany"
    },
    {
        "name": "Basr\u016br",
        "lat": "13.6308",
        "lng": "74.7377",
        "country": "India"
    },
    {
        "name": "Mannegudam",
        "lat": "17.4601",
        "lng": "79.9177",
        "country": "India"
    },
    {
        "name": "Chettiyapatti",
        "lat": "10.4240",
        "lng": "77.8228",
        "country": "India"
    },
    {
        "name": "Nierstein",
        "lat": "49.8694",
        "lng": "8.3375",
        "country": "Germany"
    },
    {
        "name": "Stansted Mountfitchet",
        "lat": "51.8980",
        "lng": "0.1980",
        "country": "United Kingdom"
    },
    {
        "name": "Hakubach\u014d",
        "lat": "36.6981",
        "lng": "137.8619",
        "country": "Japan"
    },
    {
        "name": "Ouro Verde",
        "lat": "-21.4894",
        "lng": "-51.7003",
        "country": "Brazil"
    },
    {
        "name": "Canford Cliffs",
        "lat": "50.7000",
        "lng": "-1.9300",
        "country": "United Kingdom"
    },
    {
        "name": "Segaon",
        "lat": "21.8585",
        "lng": "75.3293",
        "country": "India"
    },
    {
        "name": "Martano",
        "lat": "40.2000",
        "lng": "18.3000",
        "country": "Italy"
    },
    {
        "name": "Mechanicstown",
        "lat": "41.4472",
        "lng": "-74.3914",
        "country": "United States"
    },
    {
        "name": "Ferreira do Z\u00eazere",
        "lat": "39.6833",
        "lng": "-8.2833",
        "country": "Portugal"
    },
    {
        "name": "T\u0101razu",
        "lat": "34.2714",
        "lng": "74.5009",
        "country": "India"
    },
    {
        "name": "Panjampatti",
        "lat": "10.3178",
        "lng": "77.9263",
        "country": "India"
    },
    {
        "name": "Hathi\u0101k\u0101n",
        "lat": "25.6060",
        "lng": "84.9997",
        "country": "India"
    },
    {
        "name": "Trissino",
        "lat": "45.5667",
        "lng": "11.3667",
        "country": "Italy"
    },
    {
        "name": "Buda-Kashalyova",
        "lat": "52.7167",
        "lng": "30.5667",
        "country": "Belarus"
    },
    {
        "name": "R\u0101iparthi",
        "lat": "17.7042",
        "lng": "79.6081",
        "country": "India"
    },
    {
        "name": "Hire Vadvatti",
        "lat": "15.2235",
        "lng": "75.7831",
        "country": "India"
    },
    {
        "name": "Soverato Marina",
        "lat": "38.6833",
        "lng": "16.5500",
        "country": "Italy"
    },
    {
        "name": "Moribila",
        "lat": "12.6667",
        "lng": "-5.0500",
        "country": "Mali"
    },
    {
        "name": "Tibro",
        "lat": "58.4167",
        "lng": "14.1667",
        "country": "Sweden"
    },
    {
        "name": "M\u0101gam",
        "lat": "34.4595",
        "lng": "74.2306",
        "country": "India"
    },
    {
        "name": "Said\u0101b\u0101d",
        "lat": "25.5489",
        "lng": "85.3087",
        "country": "India"
    },
    {
        "name": "Ch\u0101np",
        "lat": "26.1951",
        "lng": "84.3900",
        "country": "India"
    },
    {
        "name": "Petilia Policastro",
        "lat": "39.1139",
        "lng": "16.7875",
        "country": "Italy"
    },
    {
        "name": "Templeton",
        "lat": "35.5560",
        "lng": "-120.7181",
        "country": "United States"
    },
    {
        "name": "Arealva",
        "lat": "-22.0286",
        "lng": "-48.9111",
        "country": "Brazil"
    },
    {
        "name": "Santa Cruz do Monte Castelo",
        "lat": "-22.9500",
        "lng": "-53.3167",
        "country": "Brazil"
    },
    {
        "name": "Bremgarten",
        "lat": "47.3500",
        "lng": "8.3333",
        "country": "Switzerland"
    },
    {
        "name": "M\u0101npur",
        "lat": "22.4315",
        "lng": "75.6211",
        "country": "India"
    },
    {
        "name": "Pirojgarh",
        "lat": "26.2769",
        "lng": "86.4389",
        "country": "India"
    },
    {
        "name": "Verkhoturye",
        "lat": "58.8667",
        "lng": "60.8000",
        "country": "Russia"
    },
    {
        "name": "Whitwick",
        "lat": "52.7403",
        "lng": "-1.3556",
        "country": "United Kingdom"
    },
    {
        "name": "Piliscsaba",
        "lat": "47.6167",
        "lng": "18.8333",
        "country": "Hungary"
    },
    {
        "name": "Barntrup",
        "lat": "51.9831",
        "lng": "9.1167",
        "country": "Germany"
    },
    {
        "name": "Vostochnyy",
        "lat": "39.9222",
        "lng": "69.6500",
        "country": "Kyrgyzstan"
    },
    {
        "name": "Corbin",
        "lat": "36.9323",
        "lng": "-84.1006",
        "country": "United States"
    },
    {
        "name": "Ammanford",
        "lat": "51.8000",
        "lng": "-3.9930",
        "country": "United Kingdom"
    },
    {
        "name": "New Ross",
        "lat": "52.3960",
        "lng": "-6.9450",
        "country": "Ireland"
    },
    {
        "name": "Antargangi",
        "lat": "17.1700",
        "lng": "75.9600",
        "country": "India"
    },
    {
        "name": "Tombos",
        "lat": "-21.1333",
        "lng": "-42.3667",
        "country": "Brazil"
    },
    {
        "name": "Aurisina",
        "lat": "45.7333",
        "lng": "13.7500",
        "country": "Italy"
    },
    {
        "name": "Kappeln",
        "lat": "54.6614",
        "lng": "9.9311",
        "country": "Germany"
    },
    {
        "name": "Kharod",
        "lat": "21.7500",
        "lng": "82.5700",
        "country": "India"
    },
    {
        "name": "Carneys Point",
        "lat": "39.6967",
        "lng": "-75.4475",
        "country": "United States"
    },
    {
        "name": "Oulad Khallouf",
        "lat": "31.7900",
        "lng": "-7.0700",
        "country": "Morocco"
    },
    {
        "name": "Teghra",
        "lat": "26.4929",
        "lng": "86.3680",
        "country": "India"
    },
    {
        "name": "Laishevo",
        "lat": "55.4000",
        "lng": "49.5667",
        "country": "Russia"
    },
    {
        "name": "Achchampeta",
        "lat": "17.0941",
        "lng": "82.3099",
        "country": "India"
    },
    {
        "name": "Nari\u00f1o",
        "lat": "5.6092",
        "lng": "-75.1764",
        "country": "Colombia"
    },
    {
        "name": "Karkkila",
        "lat": "60.5333",
        "lng": "24.2167",
        "country": "Finland"
    },
    {
        "name": "Khaur",
        "lat": "32.8229",
        "lng": "74.5112",
        "country": "India"
    },
    {
        "name": "Skowhegan",
        "lat": "44.7554",
        "lng": "-69.6657",
        "country": "United States"
    },
    {
        "name": "Amalou",
        "lat": "36.4778",
        "lng": "4.6333",
        "country": "Algeria"
    },
    {
        "name": "Pasaul",
        "lat": "26.2647",
        "lng": "85.6756",
        "country": "India"
    },
    {
        "name": "Jainagar",
        "lat": "24.3756",
        "lng": "85.6443",
        "country": "India"
    },
    {
        "name": "S\u012blaiyampatti",
        "lat": "9.8732",
        "lng": "77.3927",
        "country": "India"
    },
    {
        "name": "Kanav\u0101ypatti",
        "lat": "10.1857",
        "lng": "77.7347",
        "country": "India"
    },
    {
        "name": "Bientina",
        "lat": "43.7167",
        "lng": "10.6167",
        "country": "Italy"
    },
    {
        "name": "Mudichchur",
        "lat": "12.9110",
        "lng": "80.0693",
        "country": "India"
    },
    {
        "name": "Shyamnagar",
        "lat": "22.9700",
        "lng": "88.3800",
        "country": "India"
    },
    {
        "name": "Zaandijk",
        "lat": "52.4667",
        "lng": "4.8000",
        "country": "Netherlands"
    },
    {
        "name": "Nakaseke",
        "lat": "0.7300",
        "lng": "32.4150",
        "country": "Uganda"
    },
    {
        "name": "Schwarzenbruck",
        "lat": "49.3500",
        "lng": "11.2333",
        "country": "Germany"
    },
    {
        "name": "Nefas\u012bt",
        "lat": "15.3333",
        "lng": "39.0619",
        "country": "Eritrea"
    },
    {
        "name": "Chamba",
        "lat": "8.7000",
        "lng": "-0.1333",
        "country": "Ghana"
    },
    {
        "name": "Velim",
        "lat": "15.1644",
        "lng": "73.9759",
        "country": "India"
    },
    {
        "name": "Kennedy",
        "lat": "40.4768",
        "lng": "-80.1028",
        "country": "United States"
    },
    {
        "name": "Citrus Hills",
        "lat": "28.8870",
        "lng": "-82.4312",
        "country": "United States"
    },
    {
        "name": "Ueckerm\u00fcnde",
        "lat": "53.7389",
        "lng": "14.0444",
        "country": "Germany"
    },
    {
        "name": "H\u0101ta",
        "lat": "25.0460",
        "lng": "83.4632",
        "country": "India"
    },
    {
        "name": "Bad Rothenfelde",
        "lat": "52.1117",
        "lng": "8.1606",
        "country": "Germany"
    },
    {
        "name": "Maul\u00e9on",
        "lat": "46.9236",
        "lng": "-0.7483",
        "country": "France"
    },
    {
        "name": "Seffner",
        "lat": "27.9981",
        "lng": "-82.2735",
        "country": "United States"
    },
    {
        "name": "Egg",
        "lat": "47.3000",
        "lng": "8.6903",
        "country": "Switzerland"
    },
    {
        "name": "La Belleza",
        "lat": "5.8614",
        "lng": "-73.9683",
        "country": "Colombia"
    },
    {
        "name": "Peralta",
        "lat": "18.5167",
        "lng": "-70.7833",
        "country": "Dominican Republic"
    },
    {
        "name": "B\u0101lakrishnanpatti",
        "lat": "11.2511",
        "lng": "78.4736",
        "country": "India"
    },
    {
        "name": "Serramanna",
        "lat": "39.4333",
        "lng": "8.9167",
        "country": "Italy"
    },
    {
        "name": "Aibonito",
        "lat": "18.1398",
        "lng": "-66.2659",
        "country": "Puerto Rico"
    },
    {
        "name": "Amingaon",
        "lat": "26.2300",
        "lng": "91.6700",
        "country": "India"
    },
    {
        "name": "Pariy\u0101ri",
        "lat": "25.2128",
        "lng": "84.7829",
        "country": "India"
    },
    {
        "name": "Kozlovka",
        "lat": "55.8500",
        "lng": "48.2500",
        "country": "Russia"
    },
    {
        "name": "Koila",
        "lat": "25.4550",
        "lng": "86.7710",
        "country": "India"
    }
]