[
    {
        "name": "Garland",
        "lat": "32.9100",
        "lng": "-96.6304",
        "country": "United States"
    },
    {
        "name": "Kabinda",
        "lat": "-6.1300",
        "lng": "24.4800",
        "country": "Congo (Kinshasa)"
    },
    {
        "name": "Jessore",
        "lat": "23.1704",
        "lng": "89.2000",
        "country": "Bangladesh"
    },
    {
        "name": "Kesbewa",
        "lat": "6.7953",
        "lng": "79.9386",
        "country": "Sri Lanka"
    },
    {
        "name": "Fuji",
        "lat": "35.1613",
        "lng": "138.6763",
        "country": "Japan"
    },
    {
        "name": "Eindhoven",
        "lat": "51.4333",
        "lng": "5.4833",
        "country": "Netherlands"
    },
    {
        "name": "Sabzev\u0101r",
        "lat": "36.2125",
        "lng": "57.6764",
        "country": "Iran"
    },
    {
        "name": "Dourados",
        "lat": "-22.2208",
        "lng": "-54.8058",
        "country": "Brazil"
    },
    {
        "name": "Bahir Dar",
        "lat": "11.6000",
        "lng": "37.3833",
        "country": "Ethiopia"
    },
    {
        "name": "Yoshiich\u014d-shimobaru",
        "lat": "33.1800",
        "lng": "129.7150",
        "country": "Japan"
    },
    {
        "name": "Myitkyina",
        "lat": "25.3833",
        "lng": "97.4000",
        "country": "Burma"
    },
    {
        "name": "R\u0101mgundam",
        "lat": "18.7639",
        "lng": "79.4750",
        "country": "India"
    },
    {
        "name": "P\u0101lanpur",
        "lat": "24.1722",
        "lng": "72.4333",
        "country": "India"
    },
    {
        "name": "Tuy H\u00f2a",
        "lat": "13.0819",
        "lng": "109.2950",
        "country": "Vietnam"
    },
    {
        "name": "Sasebo",
        "lat": "33.1800",
        "lng": "129.7150",
        "country": "Japan"
    },
    {
        "name": "Sapele",
        "lat": "5.9000",
        "lng": "5.6667",
        "country": "Nigeria"
    },
    {
        "name": "Bir\u0101\u1e6dnagar",
        "lat": "26.4542",
        "lng": "87.2797",
        "country": "Nepal"
    },
    {
        "name": "Pandharpur",
        "lat": "17.6778",
        "lng": "75.3278",
        "country": "India"
    },
    {
        "name": "Qyzylorda",
        "lat": "44.8500",
        "lng": "65.5167",
        "country": "Kazakhstan"
    },
    {
        "name": "St. Catharines",
        "lat": "43.1833",
        "lng": "-79.2333",
        "country": "Canada"
    },
    {
        "name": "Chigasaki",
        "lat": "35.3333",
        "lng": "139.4000",
        "country": "Japan"
    },
    {
        "name": "Araraquara",
        "lat": "-21.7939",
        "lng": "-48.1758",
        "country": "Brazil"
    },
    {
        "name": "Kahama",
        "lat": "-3.8375",
        "lng": "32.6000",
        "country": "Tanzania"
    },
    {
        "name": "Halle",
        "lat": "51.4828",
        "lng": "11.9697",
        "country": "Germany"
    },
    {
        "name": "Americana",
        "lat": "-22.7386",
        "lng": "-47.3311",
        "country": "Brazil"
    },
    {
        "name": "Zhangping",
        "lat": "25.2902",
        "lng": "117.4200",
        "country": "China"
    },
    {
        "name": "Man",
        "lat": "7.4000",
        "lng": "-7.5500",
        "country": "C\u00f4te d\u2019Ivoire"
    },
    {
        "name": "Sete Lagoas",
        "lat": "-19.4658",
        "lng": "-44.2469",
        "country": "Brazil"
    },
    {
        "name": "B\u0101nchp\u0101r",
        "lat": "23.2000",
        "lng": "90.8000",
        "country": "Bangladesh"
    },
    {
        "name": "Haeju",
        "lat": "38.0333",
        "lng": "125.7167",
        "country": "Korea, North"
    },
    {
        "name": "Soyapango",
        "lat": "13.7333",
        "lng": "-89.1500",
        "country": "El Salvador"
    },
    {
        "name": "Masaurhi Buzurg",
        "lat": "25.3500",
        "lng": "85.0200",
        "country": "India"
    },
    {
        "name": "Baruta",
        "lat": "10.4322",
        "lng": "-66.8739",
        "country": "Venezuela"
    },
    {
        "name": "D\u00fczce",
        "lat": "40.8417",
        "lng": "31.1583",
        "country": "Turkey"
    },
    {
        "name": "Mar\u00edlia",
        "lat": "-22.2139",
        "lng": "-49.9458",
        "country": "Brazil"
    },
    {
        "name": "Katih\u0101r",
        "lat": "25.5300",
        "lng": "87.5800",
        "country": "India"
    },
    {
        "name": "Scottsdale",
        "lat": "33.6872",
        "lng": "-111.8651",
        "country": "United States"
    },
    {
        "name": "Tarapoto",
        "lat": "-6.4833",
        "lng": "-76.3667",
        "country": "Peru"
    },
    {
        "name": "Atushi",
        "lat": "39.7162",
        "lng": "76.1684",
        "country": "China"
    },
    {
        "name": "Ab\u012b al Kha\u015f\u012bb",
        "lat": "30.4411",
        "lng": "47.9725",
        "country": "Iraq"
    },
    {
        "name": "Jacare\u00ed",
        "lat": "-23.3053",
        "lng": "-45.9658",
        "country": "Brazil"
    },
    {
        "name": "Anju",
        "lat": "39.6200",
        "lng": "125.6600",
        "country": "Korea, North"
    },
    {
        "name": "Bunky\u014d-ku",
        "lat": "35.7167",
        "lng": "139.7500",
        "country": "Japan"
    },
    {
        "name": "Byatarayanpur",
        "lat": "13.0659",
        "lng": "77.5922",
        "country": "India"
    },
    {
        "name": "Ahor",
        "lat": "25.3670",
        "lng": "72.7830",
        "country": "India"
    },
    {
        "name": "Diaobingshancun",
        "lat": "42.4667",
        "lng": "123.5667",
        "country": "China"
    },
    {
        "name": "Magdeburg",
        "lat": "52.1317",
        "lng": "11.6392",
        "country": "Germany"
    },
    {
        "name": "Yato",
        "lat": "35.4833",
        "lng": "139.4500",
        "country": "Japan"
    },
    {
        "name": "Matsumoto",
        "lat": "36.2380",
        "lng": "137.9720",
        "country": "Japan"
    },
    {
        "name": "Szeged",
        "lat": "46.2550",
        "lng": "20.1450",
        "country": "Hungary"
    },
    {
        "name": "Chimoio",
        "lat": "-19.1167",
        "lng": "33.4500",
        "country": "Mozambique"
    },
    {
        "name": "Kasulu",
        "lat": "-4.5800",
        "lng": "30.1000",
        "country": "Tanzania"
    },
    {
        "name": "Elche",
        "lat": "38.2669",
        "lng": "-0.6983",
        "country": "Spain"
    },
    {
        "name": "Tarsus",
        "lat": "36.9165",
        "lng": "34.8951",
        "country": "Turkey"
    },
    {
        "name": "Ivano-Frankivsk",
        "lat": "48.9228",
        "lng": "24.7106",
        "country": "Ukraine"
    },
    {
        "name": "Ch\u014dfugaoka",
        "lat": "35.6506",
        "lng": "139.5407",
        "country": "Japan"
    },
    {
        "name": "Gonz\u00e1lez Cat\u00e1n",
        "lat": "-34.7667",
        "lng": "-58.6167",
        "country": "Argentina"
    },
    {
        "name": "Ny\u00edregyh\u00e1za",
        "lat": "47.9531",
        "lng": "21.7271",
        "country": "Hungary"
    },
    {
        "name": "Wuyishan",
        "lat": "27.7564",
        "lng": "118.0353",
        "country": "China"
    },
    {
        "name": "Shenmu",
        "lat": "38.8270",
        "lng": "110.4990",
        "country": "China"
    },
    {
        "name": "Tuticorin",
        "lat": "8.7642",
        "lng": "78.1348",
        "country": "India"
    },
    {
        "name": "As S\u012bb",
        "lat": "23.6703",
        "lng": "58.1891",
        "country": "Oman"
    },
    {
        "name": "Gang\u0101nagar",
        "lat": "29.9200",
        "lng": "73.8800",
        "country": "India"
    },
    {
        "name": "Bra\u015fov",
        "lat": "45.6667",
        "lng": "25.6167",
        "country": "Romania"
    },
    {
        "name": "Lafayette",
        "lat": "30.2082",
        "lng": "-92.0325",
        "country": "United States"
    },
    {
        "name": "\u0100mol",
        "lat": "36.4703",
        "lng": "52.3467",
        "country": "Iran"
    },
    {
        "name": "Stavanger",
        "lat": "58.9700",
        "lng": "5.7314",
        "country": "Norway"
    },
    {
        "name": "Sandnes",
        "lat": "58.8517",
        "lng": "5.7361",
        "country": "Norway"
    },
    {
        "name": "Nizhnekamsk",
        "lat": "55.6333",
        "lng": "51.8167",
        "country": "Russia"
    },
    {
        "name": "Monclova",
        "lat": "26.9103",
        "lng": "-101.4222",
        "country": "Mexico"
    },
    {
        "name": "Chishui",
        "lat": "28.5904",
        "lng": "105.6975",
        "country": "China"
    },
    {
        "name": "Djougou",
        "lat": "9.7000",
        "lng": "1.6667",
        "country": "Benin"
    },
    {
        "name": "Norfolk",
        "lat": "36.8945",
        "lng": "-76.2590",
        "country": "United States"
    },
    {
        "name": "Mirpur Khas",
        "lat": "25.5250",
        "lng": "69.0158",
        "country": "Pakistan"
    },
    {
        "name": "Lille",
        "lat": "50.6278",
        "lng": "3.0583",
        "country": "France"
    },
    {
        "name": "P\u2019y\u014fngs\u014fng-si",
        "lat": "39.2605",
        "lng": "125.8618",
        "country": "Korea, North"
    },
    {
        "name": "P\u2019y\u014fng-dong",
        "lat": "39.1919",
        "lng": "125.8178",
        "country": "Korea, North"
    },
    {
        "name": "Centurion",
        "lat": "-25.8603",
        "lng": "28.1894",
        "country": "South Africa"
    },
    {
        "name": "North Hempstead",
        "lat": "40.7912",
        "lng": "-73.6688",
        "country": "United States"
    },
    {
        "name": "Tinkhang",
        "lat": "27.2300",
        "lng": "95.1700",
        "country": "India"
    },
    {
        "name": "Rewa",
        "lat": "24.5300",
        "lng": "81.3000",
        "country": "India"
    },
    {
        "name": "P\u0101kdasht",
        "lat": "35.4850",
        "lng": "51.6794",
        "country": "Iran"
    },
    {
        "name": "Kajang",
        "lat": "2.9931",
        "lng": "101.7889",
        "country": "Malaysia"
    },
    {
        "name": "Peta\u1e96 Tiqwa",
        "lat": "32.0889",
        "lng": "34.8864",
        "country": "Israel"
    },
    {
        "name": "Abh\u0101",
        "lat": "18.2169",
        "lng": "42.5053",
        "country": "Saudi Arabia"
    },
    {
        "name": "Freiburg im Breisgau",
        "lat": "47.9950",
        "lng": "7.8500",
        "country": "Germany"
    },
    {
        "name": "Al Miny\u0101",
        "lat": "28.1194",
        "lng": "30.7444",
        "country": "Egypt"
    },
    {
        "name": "Iseyin",
        "lat": "7.9667",
        "lng": "3.6000",
        "country": "Nigeria"
    },
    {
        "name": "Central District",
        "lat": "22.2867",
        "lng": "114.1550",
        "country": "Hong Kong"
    },
    {
        "name": "Gaborone",
        "lat": "-24.6581",
        "lng": "25.9122",
        "country": "Botswana"
    },
    {
        "name": "Juazeiro",
        "lat": "-9.4306",
        "lng": "-40.5028",
        "country": "Brazil"
    },
    {
        "name": "Zinder",
        "lat": "13.8053",
        "lng": "8.9883",
        "country": "Niger"
    },
    {
        "name": "Bole",
        "lat": "44.8539",
        "lng": "82.0514",
        "country": "China"
    },
    {
        "name": "Shakhty",
        "lat": "47.7000",
        "lng": "40.2333",
        "country": "Russia"
    },
    {
        "name": "Ganda",
        "lat": "-13.0167",
        "lng": "14.6333",
        "country": "Angola"
    },
    {
        "name": "Uluberiya",
        "lat": "22.4700",
        "lng": "88.1100",
        "country": "India"
    },
    {
        "name": "Bulandshahr",
        "lat": "28.4069",
        "lng": "77.8497",
        "country": "India"
    },
    {
        "name": "Banda Aceh",
        "lat": "5.5500",
        "lng": "95.3175",
        "country": "Indonesia"
    },
    {
        "name": "Najaf\u0101b\u0101d",
        "lat": "32.6447",
        "lng": "51.3603",
        "country": "Iran"
    },
    {
        "name": "Shibuya-ku",
        "lat": "35.6594",
        "lng": "139.7006",
        "country": "Japan"
    }
]