[
    {
        "name": "Yulee",
        "lat": "30.6350",
        "lng": "-81.5678",
        "country": "United States"
    },
    {
        "name": "Mad\u0101npur",
        "lat": "25.8670",
        "lng": "86.7875",
        "country": "India"
    },
    {
        "name": "Ampasinambo",
        "lat": "-20.5167",
        "lng": "48.0000",
        "country": "Madagascar"
    },
    {
        "name": "Zhongliao",
        "lat": "23.9039",
        "lng": "120.7819",
        "country": "Taiwan"
    },
    {
        "name": "Ca\u00e7u",
        "lat": "-18.5631",
        "lng": "-51.1247",
        "country": "Brazil"
    },
    {
        "name": "Chaoyangdicun",
        "lat": "42.0221",
        "lng": "118.2178",
        "country": "China"
    },
    {
        "name": "Lomma",
        "lat": "55.6667",
        "lng": "13.0833",
        "country": "Sweden"
    },
    {
        "name": "Guap\u00e9",
        "lat": "-20.7833",
        "lng": "-45.9167",
        "country": "Brazil"
    },
    {
        "name": "Torul",
        "lat": "40.5572",
        "lng": "39.2919",
        "country": "Turkey"
    },
    {
        "name": "Morwell",
        "lat": "-38.2333",
        "lng": "146.4000",
        "country": "Australia"
    },
    {
        "name": "Gr\u00e4felfing",
        "lat": "48.1189",
        "lng": "11.4289",
        "country": "Germany"
    },
    {
        "name": "Varedo",
        "lat": "45.6000",
        "lng": "9.1667",
        "country": "Italy"
    },
    {
        "name": "Arugollu",
        "lat": "16.8253",
        "lng": "81.5775",
        "country": "India"
    },
    {
        "name": "Berceni",
        "lat": "44.3167",
        "lng": "26.1833",
        "country": "Romania"
    },
    {
        "name": "Mari\u00e1nsk\u00e9 L\u00e1zn\u011b",
        "lat": "49.9647",
        "lng": "12.7011",
        "country": "Czechia"
    },
    {
        "name": "Saint-Orens-de-Gameville",
        "lat": "43.5518",
        "lng": "1.5338",
        "country": "France"
    },
    {
        "name": "Gouka",
        "lat": "8.1333",
        "lng": "1.9667",
        "country": "Benin"
    },
    {
        "name": "Feliz",
        "lat": "-29.4508",
        "lng": "-51.3058",
        "country": "Brazil"
    },
    {
        "name": "Leverano",
        "lat": "40.2833",
        "lng": "18.0833",
        "country": "Italy"
    },
    {
        "name": "Snoqualmie",
        "lat": "47.5293",
        "lng": "-121.8412",
        "country": "United States"
    },
    {
        "name": "Tampamol\u00f3n Corona",
        "lat": "21.5667",
        "lng": "-98.8167",
        "country": "Mexico"
    },
    {
        "name": "Taggia",
        "lat": "43.8667",
        "lng": "7.8500",
        "country": "Italy"
    },
    {
        "name": "Kodigenahalli",
        "lat": "13.8608",
        "lng": "77.4792",
        "country": "India"
    },
    {
        "name": "Willow Grove",
        "lat": "40.1469",
        "lng": "-75.1174",
        "country": "United States"
    },
    {
        "name": "Eppstein",
        "lat": "50.1333",
        "lng": "8.4000",
        "country": "Germany"
    },
    {
        "name": "Kashin",
        "lat": "57.3500",
        "lng": "37.6167",
        "country": "Russia"
    },
    {
        "name": "Singal\u0101nd\u0101puram",
        "lat": "11.4166",
        "lng": "78.2224",
        "country": "India"
    },
    {
        "name": "S\u00e3o Pedro do Piau\u00ed",
        "lat": "-5.9333",
        "lng": "-42.7167",
        "country": "Brazil"
    },
    {
        "name": "G\u00fclch\u00f6",
        "lat": "40.3167",
        "lng": "73.4333",
        "country": "Kyrgyzstan"
    },
    {
        "name": "Cayce",
        "lat": "33.9459",
        "lng": "-81.0429",
        "country": "United States"
    },
    {
        "name": "Bandarbeyla",
        "lat": "9.4833",
        "lng": "50.8167",
        "country": "Somalia"
    },
    {
        "name": "Amr\u0101b\u0101d",
        "lat": "16.3833",
        "lng": "78.8333",
        "country": "India"
    },
    {
        "name": "Travagliato",
        "lat": "45.5167",
        "lng": "10.0833",
        "country": "Italy"
    },
    {
        "name": "Lipno",
        "lat": "52.8500",
        "lng": "19.1667",
        "country": "Poland"
    },
    {
        "name": "Nehr\u0259m",
        "lat": "39.1122",
        "lng": "45.4611",
        "country": "Azerbaijan"
    },
    {
        "name": "Chity\u0101l",
        "lat": "17.2333",
        "lng": "79.1333",
        "country": "India"
    },
    {
        "name": "Megarine",
        "lat": "33.1944",
        "lng": "6.0944",
        "country": "Algeria"
    },
    {
        "name": "Orange Walk",
        "lat": "18.0750",
        "lng": "-88.5583",
        "country": "Belize"
    },
    {
        "name": "Holzgerlingen",
        "lat": "48.6392",
        "lng": "9.0108",
        "country": "Germany"
    },
    {
        "name": "Kanniv\u0101di",
        "lat": "10.3794",
        "lng": "77.8303",
        "country": "India"
    },
    {
        "name": "Waianae",
        "lat": "21.4568",
        "lng": "-158.1758",
        "country": "United States"
    },
    {
        "name": "Douar Lehgagcha",
        "lat": "32.5500",
        "lng": "-8.7167",
        "country": "Morocco"
    },
    {
        "name": "Jard\u00edn",
        "lat": "5.5986",
        "lng": "-75.8194",
        "country": "Colombia"
    },
    {
        "name": "Settara",
        "lat": "36.7167",
        "lng": "6.3333",
        "country": "Algeria"
    },
    {
        "name": "Moissac",
        "lat": "44.1056",
        "lng": "1.0861",
        "country": "France"
    },
    {
        "name": "Uruoca",
        "lat": "-3.3139",
        "lng": "-40.5569",
        "country": "Brazil"
    },
    {
        "name": "Rostam\u0101b\u0101d",
        "lat": "36.8994",
        "lng": "49.4931",
        "country": "Iran"
    },
    {
        "name": "Central Elgin",
        "lat": "42.7667",
        "lng": "-81.1000",
        "country": "Canada"
    },
    {
        "name": "Itinga",
        "lat": "-16.6094",
        "lng": "-41.7719",
        "country": "Brazil"
    },
    {
        "name": "Flores de Goi\u00e1s",
        "lat": "-14.4606",
        "lng": "-47.0317",
        "country": "Brazil"
    },
    {
        "name": "Urup\u00eas",
        "lat": "-21.2019",
        "lng": "-49.2900",
        "country": "Brazil"
    },
    {
        "name": "Manav\u0101lakurichi",
        "lat": "8.1478",
        "lng": "77.3055",
        "country": "India"
    },
    {
        "name": "Bargh\u0101t",
        "lat": "22.0306",
        "lng": "79.7328",
        "country": "India"
    },
    {
        "name": "Msata",
        "lat": "-6.3362",
        "lng": "38.3850",
        "country": "Tanzania"
    },
    {
        "name": "Forster",
        "lat": "-32.1806",
        "lng": "152.5117",
        "country": "Australia"
    },
    {
        "name": "Hawick",
        "lat": "55.4220",
        "lng": "-2.7870",
        "country": "United Kingdom"
    },
    {
        "name": "Mata",
        "lat": "14.0436",
        "lng": "21.1611",
        "country": "Chad"
    },
    {
        "name": "Badarw\u0101s",
        "lat": "24.9752",
        "lng": "77.5649",
        "country": "India"
    },
    {
        "name": "Tacaimb\u00f3",
        "lat": "-8.3158",
        "lng": "-36.2928",
        "country": "Brazil"
    },
    {
        "name": "Beverstedt",
        "lat": "53.4333",
        "lng": "8.8167",
        "country": "Germany"
    },
    {
        "name": "Bondeno",
        "lat": "44.8833",
        "lng": "11.4167",
        "country": "Italy"
    },
    {
        "name": "Ephrata",
        "lat": "40.1811",
        "lng": "-76.1812",
        "country": "United States"
    },
    {
        "name": "Zargh\u016bn Shahr",
        "lat": "32.8500",
        "lng": "68.4167",
        "country": "Afghanistan"
    },
    {
        "name": "Sidmouth",
        "lat": "50.6800",
        "lng": "-3.2390",
        "country": "United Kingdom"
    },
    {
        "name": "Ermo\u00fapoli",
        "lat": "37.4333",
        "lng": "24.9167",
        "country": "Greece"
    },
    {
        "name": "Hazel Crest",
        "lat": "41.5732",
        "lng": "-87.6899",
        "country": "United States"
    },
    {
        "name": "Atal\u00e9ia",
        "lat": "-18.0439",
        "lng": "-41.1100",
        "country": "Brazil"
    },
    {
        "name": "Futrono",
        "lat": "-40.1333",
        "lng": "-72.4000",
        "country": "Chile"
    },
    {
        "name": "Lyaskovets",
        "lat": "43.1000",
        "lng": "25.7167",
        "country": "Bulgaria"
    },
    {
        "name": "Guarania\u00e7u",
        "lat": "-25.1000",
        "lng": "-52.8667",
        "country": "Brazil"
    },
    {
        "name": "Priverno",
        "lat": "41.4667",
        "lng": "13.1833",
        "country": "Italy"
    },
    {
        "name": "Enghien",
        "lat": "50.6956",
        "lng": "4.0411",
        "country": "Belgium"
    },
    {
        "name": "Urbino",
        "lat": "43.7167",
        "lng": "12.6333",
        "country": "Italy"
    },
    {
        "name": "Kudachi",
        "lat": "16.4800",
        "lng": "74.7800",
        "country": "India"
    },
    {
        "name": "Palk\u016br",
        "lat": "15.4144",
        "lng": "78.2507",
        "country": "India"
    },
    {
        "name": "Bodagudip\u0101du",
        "lat": "14.7385",
        "lng": "79.8602",
        "country": "India"
    },
    {
        "name": "St. James",
        "lat": "40.8761",
        "lng": "-73.1521",
        "country": "United States"
    },
    {
        "name": "Angical",
        "lat": "-12.0069",
        "lng": "-44.6939",
        "country": "Brazil"
    },
    {
        "name": "Ibateguara",
        "lat": "-8.9728",
        "lng": "-35.9389",
        "country": "Brazil"
    },
    {
        "name": "Taglio",
        "lat": "45.0167",
        "lng": "12.2167",
        "country": "Italy"
    },
    {
        "name": "Darihat",
        "lat": "24.9702",
        "lng": "84.2319",
        "country": "India"
    },
    {
        "name": "Uruana",
        "lat": "-15.4983",
        "lng": "-49.6908",
        "country": "Brazil"
    },
    {
        "name": "Saint-Martin-de-Crau",
        "lat": "43.6408",
        "lng": "4.8133",
        "country": "France"
    },
    {
        "name": "Miami Springs",
        "lat": "25.8195",
        "lng": "-80.2894",
        "country": "United States"
    },
    {
        "name": "Malepur",
        "lat": "24.9740",
        "lng": "86.2555",
        "country": "India"
    },
    {
        "name": "Nova Trento",
        "lat": "-27.2867",
        "lng": "-48.9303",
        "country": "Brazil"
    },
    {
        "name": "S\u00e3o Jo\u00e3o do Triunfo",
        "lat": "-25.6667",
        "lng": "-50.3333",
        "country": "Brazil"
    },
    {
        "name": "Milford Haven",
        "lat": "51.7142",
        "lng": "-5.0427",
        "country": "United Kingdom"
    },
    {
        "name": "Xireg",
        "lat": "36.9250",
        "lng": "98.4780",
        "country": "China"
    },
    {
        "name": "Kidlington",
        "lat": "51.8231",
        "lng": "-1.2903",
        "country": "United Kingdom"
    },
    {
        "name": "Sobr\u0101on",
        "lat": "31.1833",
        "lng": "74.8500",
        "country": "India"
    },
    {
        "name": "Nonoai",
        "lat": "-27.0958",
        "lng": "-52.6178",
        "country": "Brazil"
    },
    {
        "name": "North Fair Oaks",
        "lat": "37.4754",
        "lng": "-122.2034",
        "country": "United States"
    },
    {
        "name": "Mistassini",
        "lat": "48.8229",
        "lng": "-72.2154",
        "country": "Canada"
    },
    {
        "name": "T\u0101maraikkulam",
        "lat": "10.1085",
        "lng": "77.5553",
        "country": "India"
    },
    {
        "name": "Rocky Point",
        "lat": "40.9357",
        "lng": "-72.9364",
        "country": "United States"
    },
    {
        "name": "Wezep",
        "lat": "52.4625",
        "lng": "5.9983",
        "country": "Netherlands"
    },
    {
        "name": "Nova Cana\u00e3",
        "lat": "-14.7939",
        "lng": "-40.1419",
        "country": "Brazil"
    },
    {
        "name": "Lamont",
        "lat": "35.2659",
        "lng": "-118.9159",
        "country": "United States"
    },
    {
        "name": "Saugeen Shores",
        "lat": "44.4333",
        "lng": "-81.3667",
        "country": "Canada"
    }
]