[
    {
        "name": "Rottenburg an der Laaber",
        "lat": "48.7019",
        "lng": "12.0272",
        "country": "Germany"
    },
    {
        "name": "Karupp\u016br",
        "lat": "10.4918",
        "lng": "78.3296",
        "country": "India"
    },
    {
        "name": "Bartica",
        "lat": "6.4000",
        "lng": "-58.6167",
        "country": "Guyana"
    },
    {
        "name": "Dattap\u0101ra",
        "lat": "22.8491",
        "lng": "88.9023",
        "country": "India"
    },
    {
        "name": "Sulakyurt",
        "lat": "40.1575",
        "lng": "33.7175",
        "country": "Turkey"
    },
    {
        "name": "Mangala",
        "lat": "11.9998",
        "lng": "76.9594",
        "country": "India"
    },
    {
        "name": "Poninguinim",
        "lat": "14.9679",
        "lng": "74.0865",
        "country": "India"
    },
    {
        "name": "Bushkill",
        "lat": "40.7976",
        "lng": "-75.3281",
        "country": "United States"
    },
    {
        "name": "Chamusca",
        "lat": "39.3500",
        "lng": "-8.4833",
        "country": "Portugal"
    },
    {
        "name": "Worplesdon",
        "lat": "51.2720",
        "lng": "-0.6120",
        "country": "United Kingdom"
    },
    {
        "name": "Montecito",
        "lat": "34.4384",
        "lng": "-119.6309",
        "country": "United States"
    },
    {
        "name": "Keregodu",
        "lat": "12.6333",
        "lng": "76.9167",
        "country": "India"
    },
    {
        "name": "Hongtuliang",
        "lat": "40.9986",
        "lng": "114.1550",
        "country": "China"
    },
    {
        "name": "Montague",
        "lat": "42.5549",
        "lng": "-72.5177",
        "country": "United States"
    },
    {
        "name": "Se\u010dovce",
        "lat": "48.7025",
        "lng": "21.6567",
        "country": "Slovakia"
    },
    {
        "name": "Nonnweiler",
        "lat": "49.6167",
        "lng": "6.9500",
        "country": "Germany"
    },
    {
        "name": "Penkridge",
        "lat": "52.7252",
        "lng": "-2.1164",
        "country": "United Kingdom"
    },
    {
        "name": "Severance",
        "lat": "40.5265",
        "lng": "-104.8650",
        "country": "United States"
    },
    {
        "name": "Malverne",
        "lat": "40.6746",
        "lng": "-73.6721",
        "country": "United States"
    },
    {
        "name": "Ararica",
        "lat": "-29.6160",
        "lng": "-50.9280",
        "country": "Brazil"
    },
    {
        "name": "Nossa Senhora dos Rem\u00e9dios",
        "lat": "-3.9833",
        "lng": "-42.6667",
        "country": "Brazil"
    },
    {
        "name": "Kas\u0101p",
        "lat": "25.4702",
        "lng": "84.6087",
        "country": "India"
    },
    {
        "name": "Phopn\u0101r Kal\u0101n",
        "lat": "21.2365",
        "lng": "76.3268",
        "country": "India"
    },
    {
        "name": "M\u00f6ckm\u00fchl",
        "lat": "49.3167",
        "lng": "9.3500",
        "country": "Germany"
    },
    {
        "name": "La Salvetat-Saint-Gilles",
        "lat": "43.5769",
        "lng": "1.2722",
        "country": "France"
    },
    {
        "name": "Sallisaw",
        "lat": "35.4606",
        "lng": "-94.8072",
        "country": "United States"
    },
    {
        "name": "Le Mont-sur-Lausanne",
        "lat": "46.5217",
        "lng": "6.6269",
        "country": "Switzerland"
    },
    {
        "name": "Nijgaon Par\u0101npur",
        "lat": "25.1559",
        "lng": "87.9732",
        "country": "India"
    },
    {
        "name": "Kosiv",
        "lat": "48.3150",
        "lng": "25.0953",
        "country": "Ukraine"
    },
    {
        "name": "Clayton le Moors",
        "lat": "53.7750",
        "lng": "-2.3840",
        "country": "United Kingdom"
    },
    {
        "name": "Pokrovka",
        "lat": "42.7500",
        "lng": "71.6000",
        "country": "Kyrgyzstan"
    },
    {
        "name": "Lewistown",
        "lat": "40.5964",
        "lng": "-77.5730",
        "country": "United States"
    },
    {
        "name": "Lanco",
        "lat": "-39.4500",
        "lng": "-72.7833",
        "country": "Chile"
    },
    {
        "name": "Naw\u0101nagar",
        "lat": "25.3861",
        "lng": "84.2069",
        "country": "India"
    },
    {
        "name": "Ra\u2019s al Ma\u2018arrah",
        "lat": "34.0008",
        "lng": "36.5628",
        "country": "Syria"
    },
    {
        "name": "Qorovul",
        "lat": "41.5569",
        "lng": "60.5914",
        "country": "Uzbekistan"
    },
    {
        "name": "Woltersdorf",
        "lat": "52.4478",
        "lng": "13.7572",
        "country": "Germany"
    },
    {
        "name": "Hundested",
        "lat": "55.9667",
        "lng": "11.8500",
        "country": "Denmark"
    },
    {
        "name": "Laitila",
        "lat": "60.8833",
        "lng": "21.7000",
        "country": "Finland"
    },
    {
        "name": "Cam",
        "lat": "51.7011",
        "lng": "-2.3642",
        "country": "United Kingdom"
    },
    {
        "name": "Th\u0101ndew\u0101la",
        "lat": "30.4720",
        "lng": "74.5898",
        "country": "India"
    },
    {
        "name": "Khutha Baijn\u0101th",
        "lat": "26.0268",
        "lng": "87.1170",
        "country": "India"
    },
    {
        "name": "Kandan\u016br",
        "lat": "10.1037",
        "lng": "78.8254",
        "country": "India"
    },
    {
        "name": "Medikunda",
        "lat": "15.9581",
        "lng": "77.6095",
        "country": "India"
    },
    {
        "name": "P\u00e9renchies",
        "lat": "50.6686",
        "lng": "2.9731",
        "country": "France"
    },
    {
        "name": "Andanappettai",
        "lat": "10.7498",
        "lng": "79.8226",
        "country": "India"
    },
    {
        "name": "Delavan",
        "lat": "42.6282",
        "lng": "-88.6323",
        "country": "United States"
    },
    {
        "name": "Olamz\u00e9",
        "lat": "2.2167",
        "lng": "11.0833",
        "country": "Cameroon"
    },
    {
        "name": "Neuenb\u00fcrg",
        "lat": "48.8461",
        "lng": "8.5889",
        "country": "Germany"
    },
    {
        "name": "Kond R\u016bd",
        "lat": "38.0094",
        "lng": "46.4794",
        "country": "Iran"
    },
    {
        "name": "Poniatowa",
        "lat": "51.1928",
        "lng": "22.0647",
        "country": "Poland"
    },
    {
        "name": "Reichelsheim",
        "lat": "49.7167",
        "lng": "8.8500",
        "country": "Germany"
    },
    {
        "name": "M\u00f6ser",
        "lat": "52.2167",
        "lng": "11.8000",
        "country": "Germany"
    },
    {
        "name": "Hanko",
        "lat": "59.8283",
        "lng": "22.9658",
        "country": "Finland"
    },
    {
        "name": "Oakengates",
        "lat": "52.6950",
        "lng": "-2.4510",
        "country": "United Kingdom"
    },
    {
        "name": "Schnaittach",
        "lat": "49.5592",
        "lng": "11.3431",
        "country": "Germany"
    },
    {
        "name": "Perungulam",
        "lat": "8.6413",
        "lng": "77.9985",
        "country": "India"
    },
    {
        "name": "Dodvad",
        "lat": "15.7900",
        "lng": "74.7500",
        "country": "India"
    },
    {
        "name": "Santa Margherita Ligure",
        "lat": "44.3333",
        "lng": "9.2167",
        "country": "Italy"
    },
    {
        "name": "Wierusz\u00f3w",
        "lat": "51.3000",
        "lng": "18.1500",
        "country": "Poland"
    },
    {
        "name": "H\u0101th\u0101pur",
        "lat": "26.5609",
        "lng": "86.0247",
        "country": "India"
    },
    {
        "name": "Lycksele",
        "lat": "64.6000",
        "lng": "18.6667",
        "country": "Sweden"
    },
    {
        "name": "Uedem",
        "lat": "51.6675",
        "lng": "6.2750",
        "country": "Germany"
    },
    {
        "name": "Thaon-les-Vosges",
        "lat": "48.2510",
        "lng": "6.4200",
        "country": "France"
    },
    {
        "name": "Sutherlin",
        "lat": "43.3882",
        "lng": "-123.3242",
        "country": "United States"
    },
    {
        "name": "Richland Hills",
        "lat": "32.8095",
        "lng": "-97.2273",
        "country": "United States"
    },
    {
        "name": "Carbonita",
        "lat": "-17.5269",
        "lng": "-43.0158",
        "country": "Brazil"
    },
    {
        "name": "Sautron",
        "lat": "47.2644",
        "lng": "-1.6667",
        "country": "France"
    },
    {
        "name": "Bedwas",
        "lat": "51.5926",
        "lng": "-3.2061",
        "country": "United Kingdom"
    },
    {
        "name": "S\u0101garpur",
        "lat": "26.2306",
        "lng": "86.0732",
        "country": "India"
    },
    {
        "name": "Darsur",
        "lat": "25.9711",
        "lng": "85.9148",
        "country": "India"
    },
    {
        "name": "Whitehouse",
        "lat": "32.2222",
        "lng": "-95.2210",
        "country": "United States"
    },
    {
        "name": "Hueyotlipan",
        "lat": "18.9000",
        "lng": "-97.8500",
        "country": "Mexico"
    },
    {
        "name": "Takaharu",
        "lat": "31.9283",
        "lng": "131.0078",
        "country": "Japan"
    },
    {
        "name": "Kuchai Kot",
        "lat": "26.5559",
        "lng": "84.3292",
        "country": "India"
    },
    {
        "name": "Boshof",
        "lat": "-28.5500",
        "lng": "25.2333",
        "country": "South Africa"
    },
    {
        "name": "West Auckland",
        "lat": "54.6318",
        "lng": "-1.7210",
        "country": "United Kingdom"
    },
    {
        "name": "Chermen",
        "lat": "43.1486",
        "lng": "44.7069",
        "country": "Russia"
    },
    {
        "name": "El Dovio",
        "lat": "4.5167",
        "lng": "-76.2333",
        "country": "Colombia"
    },
    {
        "name": "Mandalapalle",
        "lat": "14.0209",
        "lng": "77.7511",
        "country": "India"
    },
    {
        "name": "Pachrukhi",
        "lat": "26.1593",
        "lng": "84.4087",
        "country": "India"
    },
    {
        "name": "Repala",
        "lat": "15.0000",
        "lng": "79.7000",
        "country": "India"
    },
    {
        "name": "Tionk Essil",
        "lat": "12.7856",
        "lng": "-16.5217",
        "country": "Senegal"
    },
    {
        "name": "Zhujiagua",
        "lat": "38.2242",
        "lng": "110.4032",
        "country": "China"
    },
    {
        "name": "Liffr\u00e9",
        "lat": "48.2142",
        "lng": "-1.5067",
        "country": "France"
    },
    {
        "name": "Pedda Penki",
        "lat": "18.5853",
        "lng": "83.5069",
        "country": "India"
    },
    {
        "name": "Or\u015fova",
        "lat": "44.7253",
        "lng": "22.3961",
        "country": "Romania"
    },
    {
        "name": "Biloziria",
        "lat": "49.3053",
        "lng": "31.8922",
        "country": "Ukraine"
    },
    {
        "name": "Nottampatti",
        "lat": "9.9772",
        "lng": "77.7177",
        "country": "India"
    },
    {
        "name": "Old Forge",
        "lat": "41.3704",
        "lng": "-75.7409",
        "country": "United States"
    },
    {
        "name": "Lie\u015fti",
        "lat": "45.6193",
        "lng": "27.5416",
        "country": "Romania"
    },
    {
        "name": "Carlton Colville",
        "lat": "52.4540",
        "lng": "1.6910",
        "country": "United Kingdom"
    },
    {
        "name": "Hausj\u00e4rvi",
        "lat": "60.7867",
        "lng": "25.0250",
        "country": "Finland"
    },
    {
        "name": "Kallon\u00ed",
        "lat": "39.2333",
        "lng": "26.2500",
        "country": "Greece"
    },
    {
        "name": "Campogalliano",
        "lat": "44.6833",
        "lng": "10.8500",
        "country": "Italy"
    },
    {
        "name": "Rignano sull\u2019Arno",
        "lat": "43.7237",
        "lng": "11.4507",
        "country": "Italy"
    },
    {
        "name": "West Earl",
        "lat": "40.1260",
        "lng": "-76.1774",
        "country": "United States"
    },
    {
        "name": "Dobanovci",
        "lat": "44.8333",
        "lng": "20.2333",
        "country": "Serbia"
    },
    {
        "name": "Staufen im Breisgau",
        "lat": "47.8814",
        "lng": "7.7314",
        "country": "Germany"
    },
    {
        "name": "Saint-Vallier",
        "lat": "46.6428",
        "lng": "4.3719",
        "country": "France"
    }
]