[
    {
        "name": "La Spezia",
        "lat": "44.1000",
        "lng": "9.8167",
        "country": "Italy"
    },
    {
        "name": "S\u00e3o Roque",
        "lat": "-23.5292",
        "lng": "-47.1353",
        "country": "Brazil"
    },
    {
        "name": "Voskresensk",
        "lat": "55.3167",
        "lng": "38.7000",
        "country": "Russia"
    },
    {
        "name": "Kirkland",
        "lat": "47.6970",
        "lng": "-122.2057",
        "country": "United States"
    },
    {
        "name": "Hoover",
        "lat": "33.3763",
        "lng": "-86.8068",
        "country": "United States"
    },
    {
        "name": "Kot Kap\u016bra",
        "lat": "30.5833",
        "lng": "74.9000",
        "country": "India"
    },
    {
        "name": "\u00dast\u00ed nad Labem",
        "lat": "50.6583",
        "lng": "14.0417",
        "country": "Czechia"
    },
    {
        "name": "Netrakona",
        "lat": "24.8819",
        "lng": "90.7275",
        "country": "Bangladesh"
    },
    {
        "name": "Hove",
        "lat": "50.8352",
        "lng": "-0.1758",
        "country": "United Kingdom"
    },
    {
        "name": "Cruzeiro do Sul",
        "lat": "-7.6308",
        "lng": "-72.6700",
        "country": "Brazil"
    },
    {
        "name": "Satsumasendai",
        "lat": "31.8167",
        "lng": "130.3000",
        "country": "Japan"
    },
    {
        "name": "Shabqadar",
        "lat": "34.2054",
        "lng": "71.5833",
        "country": "Pakistan"
    },
    {
        "name": "Pato Branco",
        "lat": "-26.2167",
        "lng": "-52.6667",
        "country": "Brazil"
    },
    {
        "name": "O'Fallon",
        "lat": "38.7850",
        "lng": "-90.7175",
        "country": "United States"
    },
    {
        "name": "Higashi-Matsuyama",
        "lat": "36.0422",
        "lng": "139.3999",
        "country": "Japan"
    },
    {
        "name": "Tultepec",
        "lat": "19.6850",
        "lng": "-99.1281",
        "country": "Mexico"
    },
    {
        "name": "Kakamega",
        "lat": "0.2822",
        "lng": "34.7540",
        "country": "Kenya"
    },
    {
        "name": "Raub",
        "lat": "3.7952",
        "lng": "101.8560",
        "country": "Malaysia"
    },
    {
        "name": "\u0162urayf",
        "lat": "31.6775",
        "lng": "38.6531",
        "country": "Saudi Arabia"
    },
    {
        "name": "Southport",
        "lat": "53.6475",
        "lng": "-3.0053",
        "country": "United Kingdom"
    },
    {
        "name": "Mijas",
        "lat": "36.6000",
        "lng": "-4.6333",
        "country": "Spain"
    },
    {
        "name": "Ouidah",
        "lat": "6.3667",
        "lng": "2.0833",
        "country": "Benin"
    },
    {
        "name": "Goalundo Gh\u0101t",
        "lat": "23.7333",
        "lng": "89.7617",
        "country": "Bangladesh"
    },
    {
        "name": "Sinend\u00e9",
        "lat": "10.3447",
        "lng": "2.3792",
        "country": "Benin"
    },
    {
        "name": "Linquan",
        "lat": "37.9513",
        "lng": "110.9877",
        "country": "China"
    },
    {
        "name": "Ph\u00fa Th\u1ecd",
        "lat": "21.4003",
        "lng": "105.2225",
        "country": "Vietnam"
    },
    {
        "name": "Maracay",
        "lat": "10.2469",
        "lng": "-67.5961",
        "country": "Venezuela"
    },
    {
        "name": "\u00c7aycuma",
        "lat": "41.4267",
        "lng": "32.0758",
        "country": "Turkey"
    },
    {
        "name": "Niono",
        "lat": "14.2500",
        "lng": "-5.9861",
        "country": "Mali"
    },
    {
        "name": "Grahamstown",
        "lat": "-33.2996",
        "lng": "26.5200",
        "country": "South Africa"
    },
    {
        "name": "Myingyan",
        "lat": "21.4600",
        "lng": "95.3883",
        "country": "Burma"
    },
    {
        "name": "Alafaya",
        "lat": "28.5280",
        "lng": "-81.1868",
        "country": "United States"
    },
    {
        "name": "Brossard",
        "lat": "45.4667",
        "lng": "-73.4500",
        "country": "Canada"
    },
    {
        "name": "Satu Mare",
        "lat": "47.7900",
        "lng": "22.8900",
        "country": "Romania"
    },
    {
        "name": "P\u012br\u0101nshahr",
        "lat": "36.6956",
        "lng": "45.1456",
        "country": "Iran"
    },
    {
        "name": "Sam\u0101l\u016b\u0163",
        "lat": "28.3097",
        "lng": "30.7108",
        "country": "Egypt"
    },
    {
        "name": "K\u0101rw\u0101r",
        "lat": "14.8000",
        "lng": "74.1300",
        "country": "India"
    },
    {
        "name": "M\u012bzan Tefer\u012b",
        "lat": "7.0000",
        "lng": "35.5833",
        "country": "Ethiopia"
    },
    {
        "name": "Arzew",
        "lat": "35.8500",
        "lng": "-0.3167",
        "country": "Algeria"
    },
    {
        "name": "Salaman",
        "lat": "6.6300",
        "lng": "124.0700",
        "country": "Philippines"
    },
    {
        "name": "M\u0101ndvi",
        "lat": "22.8333",
        "lng": "69.3556",
        "country": "India"
    },
    {
        "name": "San Francisco Solano",
        "lat": "-34.7667",
        "lng": "-58.3167",
        "country": "Argentina"
    },
    {
        "name": "Tucuru\u00ed",
        "lat": "-3.7678",
        "lng": "-49.6728",
        "country": "Brazil"
    },
    {
        "name": "Kalamari\u00e1",
        "lat": "40.5833",
        "lng": "22.9500",
        "country": "Greece"
    },
    {
        "name": "Jauharabad",
        "lat": "32.2919",
        "lng": "72.2736",
        "country": "Pakistan"
    },
    {
        "name": "Kendu Bay",
        "lat": "-0.3596",
        "lng": "34.6400",
        "country": "Kenya"
    },
    {
        "name": "Hilversum",
        "lat": "52.2333",
        "lng": "5.1667",
        "country": "Netherlands"
    },
    {
        "name": "R\u0101yachoti",
        "lat": "14.0583",
        "lng": "78.7517",
        "country": "India"
    },
    {
        "name": "Avar\u00e9",
        "lat": "-23.0989",
        "lng": "-48.9258",
        "country": "Brazil"
    },
    {
        "name": "P\u0101loncha",
        "lat": "17.6018",
        "lng": "80.7051",
        "country": "India"
    },
    {
        "name": "Manhua\u00e7u",
        "lat": "-20.2581",
        "lng": "-42.0336",
        "country": "Brazil"
    },
    {
        "name": "Ca\u00e7apava",
        "lat": "-23.1008",
        "lng": "-45.7069",
        "country": "Brazil"
    },
    {
        "name": "Xiancun",
        "lat": "23.2374",
        "lng": "116.3152",
        "country": "China"
    },
    {
        "name": "Palm Coast",
        "lat": "29.5389",
        "lng": "-81.2457",
        "country": "United States"
    },
    {
        "name": "Alessandria",
        "lat": "44.9167",
        "lng": "8.6167",
        "country": "Italy"
    },
    {
        "name": "Ambohimangakely",
        "lat": "-18.9167",
        "lng": "47.6000",
        "country": "Madagascar"
    },
    {
        "name": "Hastings",
        "lat": "50.8500",
        "lng": "0.5700",
        "country": "United Kingdom"
    },
    {
        "name": "Agua Prieta",
        "lat": "31.3258",
        "lng": "-109.5489",
        "country": "Mexico"
    },
    {
        "name": "Lawton",
        "lat": "34.6175",
        "lng": "-98.4202",
        "country": "United States"
    },
    {
        "name": "Chino",
        "lat": "33.9836",
        "lng": "-117.6654",
        "country": "United States"
    },
    {
        "name": "Lachhmangarh S\u012bkar",
        "lat": "27.8225",
        "lng": "75.0253",
        "country": "India"
    },
    {
        "name": "Maple Ridge",
        "lat": "49.2167",
        "lng": "-122.6000",
        "country": "Canada"
    },
    {
        "name": "Miaoli",
        "lat": "24.5700",
        "lng": "120.8200",
        "country": "Taiwan"
    },
    {
        "name": "Mount Pleasant",
        "lat": "32.8537",
        "lng": "-79.8203",
        "country": "United States"
    },
    {
        "name": "Velikiye Luki",
        "lat": "56.3333",
        "lng": "30.5333",
        "country": "Russia"
    },
    {
        "name": "Tonacatepeque",
        "lat": "13.7833",
        "lng": "-89.1167",
        "country": "El Salvador"
    },
    {
        "name": "Grudzi\u0105dz",
        "lat": "53.4875",
        "lng": "18.7550",
        "country": "Poland"
    },
    {
        "name": "Guercif",
        "lat": "34.2333",
        "lng": "-3.3667",
        "country": "Morocco"
    },
    {
        "name": "Solwezi",
        "lat": "-12.1433",
        "lng": "26.3858",
        "country": "Zambia"
    },
    {
        "name": "Cisauk",
        "lat": "-6.3333",
        "lng": "106.6500",
        "country": "Indonesia"
    },
    {
        "name": "Caimbambo",
        "lat": "-12.9000",
        "lng": "14.0833",
        "country": "Angola"
    },
    {
        "name": "Oudtshoorn",
        "lat": "-33.5833",
        "lng": "22.2000",
        "country": "South Africa"
    },
    {
        "name": "Bauan",
        "lat": "13.7917",
        "lng": "121.0085",
        "country": "Philippines"
    },
    {
        "name": "Pantukan",
        "lat": "7.1269",
        "lng": "125.8975",
        "country": "Philippines"
    },
    {
        "name": "Pongotan",
        "lat": "7.1269",
        "lng": "125.8975",
        "country": "Philippines"
    },
    {
        "name": "R\u0101magiri Udayagiri",
        "lat": "19.1619",
        "lng": "84.1440",
        "country": "India"
    },
    {
        "name": "Cambambe",
        "lat": "-9.7586",
        "lng": "14.5122",
        "country": "Angola"
    },
    {
        "name": "Gwadar",
        "lat": "25.1264",
        "lng": "62.3225",
        "country": "Pakistan"
    },
    {
        "name": "Mengdingjie",
        "lat": "23.5568",
        "lng": "99.0817",
        "country": "China"
    },
    {
        "name": "Manteca",
        "lat": "37.7927",
        "lng": "-121.2264",
        "country": "United States"
    },
    {
        "name": "Funza",
        "lat": "4.7167",
        "lng": "-74.2167",
        "country": "Colombia"
    },
    {
        "name": "Zhezqazghan",
        "lat": "47.7833",
        "lng": "67.7000",
        "country": "Kazakhstan"
    },
    {
        "name": "\u00c7anakkale",
        "lat": "40.1519",
        "lng": "26.4056",
        "country": "Turkey"
    },
    {
        "name": "Katiola",
        "lat": "8.1333",
        "lng": "-5.1000",
        "country": "C\u00f4te d\u2019Ivoire"
    },
    {
        "name": "Biga",
        "lat": "40.2281",
        "lng": "27.2422",
        "country": "Turkey"
    },
    {
        "name": "Esl\u0101m\u0101b\u0101d-e Gharb",
        "lat": "34.1103",
        "lng": "46.5275",
        "country": "Iran"
    },
    {
        "name": "Chililabombwe",
        "lat": "-12.3667",
        "lng": "27.8278",
        "country": "Zambia"
    },
    {
        "name": "Vanadzor",
        "lat": "40.8128",
        "lng": "44.4883",
        "country": "Armenia"
    },
    {
        "name": "Fundaci\u00f3n",
        "lat": "10.5214",
        "lng": "-74.1867",
        "country": "Colombia"
    },
    {
        "name": "Ponn\u0101ni",
        "lat": "10.7700",
        "lng": "75.9000",
        "country": "India"
    },
    {
        "name": "Sahag\u00fan",
        "lat": "8.9500",
        "lng": "-75.4500",
        "country": "Colombia"
    },
    {
        "name": "Arsuz",
        "lat": "36.4128",
        "lng": "35.8867",
        "country": "Turkey"
    },
    {
        "name": "J\u0101mt\u0101ra",
        "lat": "23.9633",
        "lng": "86.8014",
        "country": "India"
    },
    {
        "name": "Joplin",
        "lat": "37.0757",
        "lng": "-94.5018",
        "country": "United States"
    },
    {
        "name": "Pinamalayan",
        "lat": "13.0364",
        "lng": "121.4889",
        "country": "Philippines"
    },
    {
        "name": "Avignon",
        "lat": "43.9500",
        "lng": "4.8075",
        "country": "France"
    },
    {
        "name": "Orpington",
        "lat": "51.3741",
        "lng": "0.0986",
        "country": "United Kingdom"
    },
    {
        "name": "Valjevo",
        "lat": "44.2667",
        "lng": "19.8833",
        "country": "Serbia"
    },
    {
        "name": "Julu",
        "lat": "37.2200",
        "lng": "115.0309",
        "country": "China"
    },
    {
        "name": "Pazardzhik",
        "lat": "42.2000",
        "lng": "24.3333",
        "country": "Bulgaria"
    }
]