[
    {
        "name": "Paju",
        "lat": "37.8667",
        "lng": "126.8000",
        "country": "Korea, South"
    },
    {
        "name": "Santa Rosa",
        "lat": "14.3200",
        "lng": "121.1200",
        "country": "Philippines"
    },
    {
        "name": "Bettiah",
        "lat": "26.8014",
        "lng": "84.5028",
        "country": "India"
    },
    {
        "name": "Jhang City",
        "lat": "31.2694",
        "lng": "72.3161",
        "country": "Pakistan"
    },
    {
        "name": "Alt\u0131nda\u011f",
        "lat": "39.9636",
        "lng": "32.9033",
        "country": "Turkey"
    },
    {
        "name": "Tal\u0101",
        "lat": "30.6801",
        "lng": "30.9438",
        "country": "Egypt"
    },
    {
        "name": "Stockton",
        "lat": "37.9765",
        "lng": "-121.3109",
        "country": "United States"
    },
    {
        "name": "\u0162alkh\u0101",
        "lat": "31.0547",
        "lng": "31.3756",
        "country": "Egypt"
    },
    {
        "name": "Boa Vista",
        "lat": "2.8194",
        "lng": "-60.6714",
        "country": "Brazil"
    },
    {
        "name": "Banjul",
        "lat": "13.4531",
        "lng": "-16.5775",
        "country": "Gambia, The"
    },
    {
        "name": "Jayapura",
        "lat": "-2.5330",
        "lng": "140.7170",
        "country": "Indonesia"
    },
    {
        "name": "Toyama",
        "lat": "36.6959",
        "lng": "137.2137",
        "country": "Japan"
    },
    {
        "name": "Sanandaj",
        "lat": "35.3114",
        "lng": "46.9961",
        "country": "Iran"
    },
    {
        "name": "Khon Kaen",
        "lat": "16.4333",
        "lng": "102.8333",
        "country": "Thailand"
    },
    {
        "name": "Fangting",
        "lat": "31.1270",
        "lng": "104.1670",
        "country": "China"
    },
    {
        "name": "Linghai",
        "lat": "41.1667",
        "lng": "121.3500",
        "country": "China"
    },
    {
        "name": "Shor\u0101pur",
        "lat": "16.5200",
        "lng": "76.7600",
        "country": "India"
    },
    {
        "name": "Koumassi",
        "lat": "5.3000",
        "lng": "-3.9500",
        "country": "C\u00f4te d\u2019Ivoire"
    },
    {
        "name": "Betim",
        "lat": "-19.9678",
        "lng": "-44.1978",
        "country": "Brazil"
    },
    {
        "name": "Sochi",
        "lat": "43.5853",
        "lng": "39.7203",
        "country": "Russia"
    },
    {
        "name": "Tinnevelly",
        "lat": "8.7136",
        "lng": "77.7567",
        "country": "India"
    },
    {
        "name": "Pasto",
        "lat": "1.2078",
        "lng": "-77.2772",
        "country": "Colombia"
    },
    {
        "name": "Syracuse",
        "lat": "43.0407",
        "lng": "-76.1437",
        "country": "United States"
    },
    {
        "name": "Bellary",
        "lat": "15.1000",
        "lng": "76.9167",
        "country": "India"
    },
    {
        "name": "Bh\u0101galpur",
        "lat": "25.2500",
        "lng": "87.0000",
        "country": "India"
    },
    {
        "name": "Kisumu",
        "lat": "-0.0833",
        "lng": "34.7667",
        "country": "Kenya"
    },
    {
        "name": "Zhangjiakou Shi Xuanhua Qu",
        "lat": "40.5944",
        "lng": "115.0243",
        "country": "China"
    },
    {
        "name": "Maring\u00e1",
        "lat": "-23.4000",
        "lng": "-51.9167",
        "country": "Brazil"
    },
    {
        "name": "Kocasinan",
        "lat": "38.7333",
        "lng": "35.4833",
        "country": "Turkey"
    },
    {
        "name": "Mataram",
        "lat": "-8.5833",
        "lng": "116.1167",
        "country": "Indonesia"
    },
    {
        "name": "Shashemen\u0113",
        "lat": "7.2000",
        "lng": "38.6000",
        "country": "Ethiopia"
    },
    {
        "name": "Zaria",
        "lat": "11.0667",
        "lng": "7.7000",
        "country": "Nigeria"
    },
    {
        "name": "Kumi",
        "lat": "36.1195",
        "lng": "128.3444",
        "country": "Korea, South"
    },
    {
        "name": "Wanyuan",
        "lat": "31.9833",
        "lng": "107.9667",
        "country": "China"
    },
    {
        "name": "Bi\u00f1an",
        "lat": "14.3300",
        "lng": "121.0800",
        "country": "Philippines"
    },
    {
        "name": "Chattanooga",
        "lat": "35.0660",
        "lng": "-85.2481",
        "country": "United States"
    },
    {
        "name": "Jiexiu",
        "lat": "37.0270",
        "lng": "111.9170",
        "country": "China"
    },
    {
        "name": "Ba\u011flar",
        "lat": "37.9167",
        "lng": "40.1833",
        "country": "Turkey"
    },
    {
        "name": "Padi\u0101la",
        "lat": "30.8020",
        "lng": "76.5930",
        "country": "India"
    },
    {
        "name": "\u0110\u00e0 L\u1ea1t",
        "lat": "11.9417",
        "lng": "108.4383",
        "country": "Vietnam"
    },
    {
        "name": "Sham Shui Po",
        "lat": "22.3307",
        "lng": "114.1622",
        "country": "Hong Kong"
    },
    {
        "name": "Santa Fe",
        "lat": "-31.6333",
        "lng": "-60.7000",
        "country": "Argentina"
    },
    {
        "name": "Delhi Cantonment",
        "lat": "28.6000",
        "lng": "77.1333",
        "country": "India"
    },
    {
        "name": "Cuman\u00e1",
        "lat": "10.4564",
        "lng": "-64.1675",
        "country": "Venezuela"
    },
    {
        "name": "Barura",
        "lat": "23.3750",
        "lng": "91.0583",
        "country": "Bangladesh"
    },
    {
        "name": "Y\u00fcre\u011fir",
        "lat": "36.9981",
        "lng": "35.3439",
        "country": "Turkey"
    },
    {
        "name": "Nagasaki",
        "lat": "32.7447",
        "lng": "129.8736",
        "country": "Japan"
    },
    {
        "name": "Mardan",
        "lat": "34.2012",
        "lng": "72.0258",
        "country": "Pakistan"
    },
    {
        "name": "Hat Yai",
        "lat": "7.0167",
        "lng": "100.4667",
        "country": "Thailand"
    },
    {
        "name": "Qazv\u012bn",
        "lat": "36.2894",
        "lng": "50.0086",
        "country": "Iran"
    },
    {
        "name": "Et\u0101wa",
        "lat": "24.1800",
        "lng": "78.2000",
        "country": "India"
    },
    {
        "name": "Lancaster",
        "lat": "40.0420",
        "lng": "-76.3012",
        "country": "United States"
    },
    {
        "name": "Son\u012bpat",
        "lat": "28.9900",
        "lng": "77.0220",
        "country": "India"
    },
    {
        "name": "Jundia\u00ed",
        "lat": "-23.1858",
        "lng": "-46.8839",
        "country": "Brazil"
    },
    {
        "name": "Ivanovo",
        "lat": "56.9967",
        "lng": "40.9819",
        "country": "Russia"
    },
    {
        "name": "Greenville",
        "lat": "34.8354",
        "lng": "-82.3646",
        "country": "United States"
    },
    {
        "name": "Toyonaka",
        "lat": "34.7833",
        "lng": "135.4667",
        "country": "Japan"
    },
    {
        "name": "Bogra",
        "lat": "24.8500",
        "lng": "89.3667",
        "country": "Bangladesh"
    },
    {
        "name": "\u00d6skemen",
        "lat": "49.9833",
        "lng": "82.6167",
        "country": "Kazakhstan"
    },
    {
        "name": "Gifu",
        "lat": "35.4232",
        "lng": "136.7608",
        "country": "Japan"
    },
    {
        "name": "Maungdaw",
        "lat": "20.8167",
        "lng": "92.3667",
        "country": "Burma"
    },
    {
        "name": "Jiangjiafan",
        "lat": "31.0238",
        "lng": "111.9709",
        "country": "China"
    },
    {
        "name": "Durham",
        "lat": "35.9792",
        "lng": "-78.9022",
        "country": "United States"
    },
    {
        "name": "Bryansk",
        "lat": "53.2333",
        "lng": "34.3667",
        "country": "Russia"
    },
    {
        "name": "Dera Ghazi Khan",
        "lat": "30.0331",
        "lng": "70.6400",
        "country": "Pakistan"
    },
    {
        "name": "An\u00e1polis",
        "lat": "-16.3339",
        "lng": "-48.9519",
        "country": "Brazil"
    },
    {
        "name": "Pensacola",
        "lat": "30.4413",
        "lng": "-87.1911",
        "country": "United States"
    },
    {
        "name": "Miyazaki",
        "lat": "31.9078",
        "lng": "131.4203",
        "country": "Japan"
    },
    {
        "name": "Quilon",
        "lat": "8.8932",
        "lng": "76.6141",
        "country": "India"
    },
    {
        "name": "Mulangodi",
        "lat": "9.0000",
        "lng": "76.6167",
        "country": "India"
    },
    {
        "name": "Munro Turuttu",
        "lat": "9.0000",
        "lng": "76.6167",
        "country": "India"
    },
    {
        "name": "Hirakata",
        "lat": "34.8167",
        "lng": "135.6500",
        "country": "Japan"
    },
    {
        "name": "Sandakan",
        "lat": "5.8333",
        "lng": "118.1167",
        "country": "Malaysia"
    },
    {
        "name": "Szczecin",
        "lat": "53.4325",
        "lng": "14.5481",
        "country": "Poland"
    },
    {
        "name": "Brno",
        "lat": "49.1925",
        "lng": "16.6083",
        "country": "Czechia"
    },
    {
        "name": "Surgut",
        "lat": "61.2500",
        "lng": "73.4333",
        "country": "Russia"
    },
    {
        "name": "Hejin",
        "lat": "35.5960",
        "lng": "110.7120",
        "country": "China"
    },
    {
        "name": "Fayetteville",
        "lat": "36.0714",
        "lng": "-94.1661",
        "country": "United States"
    },
    {
        "name": "Betsiboka",
        "lat": "-16.9500",
        "lng": "46.8300",
        "country": "Madagascar"
    },
    {
        "name": "Thi\u00e8s",
        "lat": "14.7833",
        "lng": "-16.9167",
        "country": "Senegal"
    },
    {
        "name": "Arlington",
        "lat": "32.6998",
        "lng": "-97.1250",
        "country": "United States"
    },
    {
        "name": "Al Jahr\u0101\u2019",
        "lat": "29.3500",
        "lng": "47.6833",
        "country": "Kuwait"
    },
    {
        "name": "Kaunas",
        "lat": "54.8972",
        "lng": "23.8861",
        "country": "Lithuania"
    },
    {
        "name": "Thanh H\u00f3a",
        "lat": "19.8075",
        "lng": "105.7764",
        "country": "Vietnam"
    },
    {
        "name": "Diadema",
        "lat": "-23.6861",
        "lng": "-46.6106",
        "country": "Brazil"
    },
    {
        "name": "Lobito",
        "lat": "-12.3667",
        "lng": "13.5333",
        "country": "Angola"
    },
    {
        "name": "Saurimo",
        "lat": "-9.6500",
        "lng": "20.4000",
        "country": "Angola"
    },
    {
        "name": "Yola",
        "lat": "9.2300",
        "lng": "12.4600",
        "country": "Nigeria"
    },
    {
        "name": "Zhugang",
        "lat": "28.1358",
        "lng": "121.2264",
        "country": "China"
    },
    {
        "name": "T\u0101ng\u0101il",
        "lat": "24.2644",
        "lng": "89.9181",
        "country": "Bangladesh"
    },
    {
        "name": "Nha Trang",
        "lat": "12.2450",
        "lng": "109.1917",
        "country": "Vietnam"
    },
    {
        "name": "Khayelitsha",
        "lat": "-34.0403",
        "lng": "18.6778",
        "country": "South Africa"
    },
    {
        "name": "Ad D\u012bw\u0101n\u012byah",
        "lat": "31.9892",
        "lng": "44.9247",
        "country": "Iraq"
    },
    {
        "name": "Nnewi",
        "lat": "6.0167",
        "lng": "6.9167",
        "country": "Nigeria"
    },
    {
        "name": "Hancheng",
        "lat": "35.4667",
        "lng": "110.4333",
        "country": "China"
    },
    {
        "name": "San-P\u00e9dro",
        "lat": "4.7500",
        "lng": "-6.6333",
        "country": "C\u00f4te d\u2019Ivoire"
    },
    {
        "name": "Gujrat",
        "lat": "32.5739",
        "lng": "74.0789",
        "country": "Pakistan"
    },
    {
        "name": "Yokosuka",
        "lat": "35.2813",
        "lng": "139.6721",
        "country": "Japan"
    },
    {
        "name": "Tieli",
        "lat": "46.9500",
        "lng": "128.0500",
        "country": "China"
    },
    {
        "name": "Asy\u016b\u0163",
        "lat": "27.1833",
        "lng": "31.1667",
        "country": "Egypt"
    }
]