[
    {
        "name": "Petersfield",
        "lat": "51.0038",
        "lng": "-0.9374",
        "country": "United Kingdom"
    },
    {
        "name": "Casalmaggiore",
        "lat": "44.9833",
        "lng": "10.4167",
        "country": "Italy"
    },
    {
        "name": "Cand\u00f3i",
        "lat": "-25.7167",
        "lng": "-52.1833",
        "country": "Brazil"
    },
    {
        "name": "T\u00e1vros",
        "lat": "37.9667",
        "lng": "23.6950",
        "country": "Greece"
    },
    {
        "name": "Chirpan",
        "lat": "42.1998",
        "lng": "25.3244",
        "country": "Bulgaria"
    },
    {
        "name": "Porcia",
        "lat": "45.9667",
        "lng": "12.6167",
        "country": "Italy"
    },
    {
        "name": "Castelnuovo Rangone",
        "lat": "44.5500",
        "lng": "10.9333",
        "country": "Italy"
    },
    {
        "name": "Laurinburg",
        "lat": "34.7602",
        "lng": "-79.4773",
        "country": "United States"
    },
    {
        "name": "Chryso\u00fapoli",
        "lat": "40.9833",
        "lng": "24.7000",
        "country": "Greece"
    },
    {
        "name": "Avanos",
        "lat": "38.7150",
        "lng": "34.8467",
        "country": "Turkey"
    },
    {
        "name": "Mastic",
        "lat": "40.8096",
        "lng": "-72.8479",
        "country": "United States"
    },
    {
        "name": "Kenora",
        "lat": "49.7667",
        "lng": "-94.4833",
        "country": "Canada"
    },
    {
        "name": "Kenley",
        "lat": "51.3242",
        "lng": "-0.0969",
        "country": "United Kingdom"
    },
    {
        "name": "Douar Souk L\u2018qolla",
        "lat": "35.0718",
        "lng": "-5.5702",
        "country": "Morocco"
    },
    {
        "name": "Santa Br\u00edgida",
        "lat": "-9.7333",
        "lng": "-38.1333",
        "country": "Brazil"
    },
    {
        "name": "El Hadjira",
        "lat": "32.6167",
        "lng": "5.5167",
        "country": "Algeria"
    },
    {
        "name": "Tabant",
        "lat": "31.6581",
        "lng": "-6.4200",
        "country": "Morocco"
    },
    {
        "name": "Paral\u00edmni",
        "lat": "35.0333",
        "lng": "33.9833",
        "country": "Cyprus"
    },
    {
        "name": "Saint-Servan-sur-Mer",
        "lat": "48.6361",
        "lng": "-2.0147",
        "country": "France"
    },
    {
        "name": "West University Place",
        "lat": "29.7157",
        "lng": "-95.4321",
        "country": "United States"
    },
    {
        "name": "Baucau",
        "lat": "-8.4667",
        "lng": "126.4500",
        "country": "Timor-Leste"
    },
    {
        "name": "Cold Lake",
        "lat": "54.4642",
        "lng": "-110.1825",
        "country": "Canada"
    },
    {
        "name": "\u2019Tlat Bni Oukil",
        "lat": "32.5770",
        "lng": "-6.8400",
        "country": "Morocco"
    },
    {
        "name": "Veliki Preslav",
        "lat": "43.1667",
        "lng": "26.8170",
        "country": "Bulgaria"
    },
    {
        "name": "Goluw\u0101li",
        "lat": "29.6300",
        "lng": "74.0600",
        "country": "India"
    },
    {
        "name": "Lakeland North",
        "lat": "47.3374",
        "lng": "-122.2812",
        "country": "United States"
    },
    {
        "name": "Weigelstown",
        "lat": "39.9852",
        "lng": "-76.8306",
        "country": "United States"
    },
    {
        "name": "Metuchen",
        "lat": "40.5424",
        "lng": "-74.3628",
        "country": "United States"
    },
    {
        "name": "Bludenz",
        "lat": "47.1333",
        "lng": "9.8167",
        "country": "Austria"
    },
    {
        "name": "Vian\u00f3polis",
        "lat": "-16.7500",
        "lng": "-48.5111",
        "country": "Brazil"
    },
    {
        "name": "\u0100dra",
        "lat": "23.5000",
        "lng": "86.6700",
        "country": "India"
    },
    {
        "name": "Monkey Bay",
        "lat": "-14.0833",
        "lng": "34.9167",
        "country": "Malawi"
    },
    {
        "name": "Sidi Zouine",
        "lat": "31.6706",
        "lng": "-8.3508",
        "country": "Morocco"
    },
    {
        "name": "\u00c7atalp\u0131nar",
        "lat": "40.8789",
        "lng": "37.4531",
        "country": "Turkey"
    },
    {
        "name": "Dolo",
        "lat": "45.4269",
        "lng": "12.0753",
        "country": "Italy"
    },
    {
        "name": "Coconuco",
        "lat": "2.2500",
        "lng": "-76.4167",
        "country": "Colombia"
    },
    {
        "name": "Finale Emilia",
        "lat": "44.8333",
        "lng": "11.2833",
        "country": "Italy"
    },
    {
        "name": "Wyke",
        "lat": "53.7333",
        "lng": "-1.7667",
        "country": "United Kingdom"
    },
    {
        "name": "Ramonville-Saint-Agne",
        "lat": "43.5434",
        "lng": "1.4787",
        "country": "France"
    },
    {
        "name": "Lambidou",
        "lat": "14.3136",
        "lng": "-9.5515",
        "country": "Mali"
    },
    {
        "name": "Vall\u016br",
        "lat": "13.2560",
        "lng": "80.2818",
        "country": "India"
    },
    {
        "name": "Mitane",
        "lat": "40.1017",
        "lng": "140.0050",
        "country": "Japan"
    },
    {
        "name": "Mendrisio",
        "lat": "45.8667",
        "lng": "8.9833",
        "country": "Switzerland"
    },
    {
        "name": "Bissendorf",
        "lat": "52.2333",
        "lng": "8.1667",
        "country": "Germany"
    },
    {
        "name": "Baiersbronn",
        "lat": "48.5058",
        "lng": "8.3711",
        "country": "Germany"
    },
    {
        "name": "Joa\u00edma",
        "lat": "-16.6500",
        "lng": "-41.0333",
        "country": "Brazil"
    },
    {
        "name": "Serhetabat",
        "lat": "35.2833",
        "lng": "62.3500",
        "country": "Turkmenistan"
    },
    {
        "name": "Grande Saline",
        "lat": "19.2500",
        "lng": "-72.7833",
        "country": "Haiti"
    },
    {
        "name": "Restinga S\u00eaca",
        "lat": "-29.8167",
        "lng": "-53.3833",
        "country": "Brazil"
    },
    {
        "name": "Majholi",
        "lat": "23.5011",
        "lng": "79.9240",
        "country": "India"
    },
    {
        "name": "Newtown",
        "lat": "39.9920",
        "lng": "-75.4106",
        "country": "United States"
    },
    {
        "name": "Avrill\u00e9",
        "lat": "47.5078",
        "lng": "-0.5878",
        "country": "France"
    },
    {
        "name": "Ganj\u0101m",
        "lat": "19.3870",
        "lng": "85.0508",
        "country": "India"
    },
    {
        "name": "\u015awidwin",
        "lat": "53.7833",
        "lng": "15.7667",
        "country": "Poland"
    },
    {
        "name": "Kimyogarlar",
        "lat": "39.6672",
        "lng": "66.8461",
        "country": "Uzbekistan"
    },
    {
        "name": "La Fl\u00e8che",
        "lat": "47.6959",
        "lng": "-0.0747",
        "country": "France"
    },
    {
        "name": "Oued Jdida",
        "lat": "33.9333",
        "lng": "-5.3667",
        "country": "Morocco"
    },
    {
        "name": "Schiffdorf",
        "lat": "53.5358",
        "lng": "8.6589",
        "country": "Germany"
    },
    {
        "name": "Calkin\u00ed",
        "lat": "20.3667",
        "lng": "-90.0500",
        "country": "Mexico"
    },
    {
        "name": "Ch\u0101ndi",
        "lat": "25.7296",
        "lng": "87.5195",
        "country": "India"
    },
    {
        "name": "Riverdale",
        "lat": "33.5639",
        "lng": "-84.4103",
        "country": "United States"
    },
    {
        "name": "I\u1e6dahar\u0101",
        "lat": "26.5500",
        "lng": "87.6200",
        "country": "Nepal"
    },
    {
        "name": "Jisr ez Zarq\u0101",
        "lat": "32.5381",
        "lng": "34.9122",
        "country": "Israel"
    },
    {
        "name": "Malsch",
        "lat": "48.8808",
        "lng": "8.3342",
        "country": "Germany"
    },
    {
        "name": "Ahigb\u00e9 Koffikro",
        "lat": "5.4000",
        "lng": "-3.3833",
        "country": "C\u00f4te d\u2019Ivoire"
    },
    {
        "name": "Beckingen",
        "lat": "49.3928",
        "lng": "6.7008",
        "country": "Germany"
    },
    {
        "name": "Chemmanam",
        "lat": "9.8072",
        "lng": "76.2774",
        "country": "India"
    },
    {
        "name": "Gourrama",
        "lat": "32.3333",
        "lng": "-4.0833",
        "country": "Morocco"
    },
    {
        "name": "Nalerigu",
        "lat": "10.5333",
        "lng": "-0.3667",
        "country": "Ghana"
    },
    {
        "name": "Usingen",
        "lat": "50.3344",
        "lng": "8.5375",
        "country": "Germany"
    },
    {
        "name": "East Rancho Dominguez",
        "lat": "33.8949",
        "lng": "-118.1956",
        "country": "United States"
    },
    {
        "name": "Brooks",
        "lat": "50.5642",
        "lng": "-111.8989",
        "country": "Canada"
    },
    {
        "name": "Yell\u0101reddi",
        "lat": "18.1859",
        "lng": "78.0212",
        "country": "India"
    },
    {
        "name": "L\u0101nj\u012b",
        "lat": "21.5018",
        "lng": "80.5406",
        "country": "India"
    },
    {
        "name": "Sembedu",
        "lat": "13.1298",
        "lng": "79.5634",
        "country": "India"
    },
    {
        "name": "Lakkundi",
        "lat": "15.3897",
        "lng": "75.7183",
        "country": "India"
    },
    {
        "name": "Tecuala",
        "lat": "22.4004",
        "lng": "-105.4600",
        "country": "Mexico"
    },
    {
        "name": "Casta\u00f1uelas",
        "lat": "19.7000",
        "lng": "-71.5000",
        "country": "Dominican Republic"
    },
    {
        "name": "Nerchinsk",
        "lat": "51.9944",
        "lng": "116.5556",
        "country": "Russia"
    },
    {
        "name": "Pursa",
        "lat": "26.3019",
        "lng": "86.4778",
        "country": "India"
    },
    {
        "name": "Kunnum\u0113l",
        "lat": "9.3500",
        "lng": "76.4000",
        "country": "India"
    },
    {
        "name": "Krasnohorivka",
        "lat": "48.0067",
        "lng": "37.5128",
        "country": "Ukraine"
    },
    {
        "name": "Escaldes-Engordany",
        "lat": "42.5089",
        "lng": "1.5408",
        "country": "Andorra"
    },
    {
        "name": "Lolotique",
        "lat": "13.5500",
        "lng": "-88.3500",
        "country": "El Salvador"
    },
    {
        "name": "L\u0101lej\u012bn",
        "lat": "34.9742",
        "lng": "48.4756",
        "country": "Iran"
    },
    {
        "name": "Kew Green",
        "lat": "51.5308",
        "lng": "-0.2248",
        "country": "United Kingdom"
    },
    {
        "name": "Hickory Hills",
        "lat": "41.7248",
        "lng": "-87.8280",
        "country": "United States"
    },
    {
        "name": "Lagangilang",
        "lat": "17.6100",
        "lng": "120.7300",
        "country": "Philippines"
    },
    {
        "name": "Barra do Sul",
        "lat": "-26.4572",
        "lng": "-48.6114",
        "country": "Brazil"
    },
    {
        "name": "Sardinal",
        "lat": "10.5343",
        "lng": "-85.6955",
        "country": "Costa Rica"
    },
    {
        "name": "Badarpur",
        "lat": "24.8685",
        "lng": "92.5961",
        "country": "India"
    },
    {
        "name": "Kela Khera",
        "lat": "29.0900",
        "lng": "79.1900",
        "country": "India"
    },
    {
        "name": "Amm\u016br",
        "lat": "12.9750",
        "lng": "79.3628",
        "country": "India"
    },
    {
        "name": "Aghbal",
        "lat": "34.9394",
        "lng": "-2.1272",
        "country": "Morocco"
    },
    {
        "name": "Vinanivao",
        "lat": "-15.8833",
        "lng": "50.2667",
        "country": "Madagascar"
    },
    {
        "name": "Sindhn\u016br",
        "lat": "15.7700",
        "lng": "76.7556",
        "country": "India"
    },
    {
        "name": "Aizubange",
        "lat": "37.5615",
        "lng": "139.8216",
        "country": "Japan"
    },
    {
        "name": "Kentville",
        "lat": "45.0775",
        "lng": "-64.4958",
        "country": "Canada"
    },
    {
        "name": "Castanet-Tolosan",
        "lat": "43.5164",
        "lng": "1.4989",
        "country": "France"
    },
    {
        "name": "Morlaix",
        "lat": "48.5783",
        "lng": "-3.8267",
        "country": "France"
    }
]