[
    {
        "name": "Sampona",
        "lat": "-25.1500",
        "lng": "46.3167",
        "country": "Madagascar"
    },
    {
        "name": "Marolinta",
        "lat": "-25.1000",
        "lng": "44.6167",
        "country": "Madagascar"
    },
    {
        "name": "Andranomeva",
        "lat": "-15.8000",
        "lng": "47.7667",
        "country": "Madagascar"
    },
    {
        "name": "Ambodimanary",
        "lat": "-15.2167",
        "lng": "48.0833",
        "country": "Madagascar"
    },
    {
        "name": "Maroamalona",
        "lat": "-15.3000",
        "lng": "48.6667",
        "country": "Madagascar"
    },
    {
        "name": "Marovantaza",
        "lat": "-15.3833",
        "lng": "47.6667",
        "country": "Madagascar"
    },
    {
        "name": "Marotandrano",
        "lat": "-16.1667",
        "lng": "48.8333",
        "country": "Madagascar"
    },
    {
        "name": "Efatsy-Anandroza",
        "lat": "-23.1167",
        "lng": "47.6000",
        "country": "Madagascar"
    },
    {
        "name": "Manandroy",
        "lat": "-21.1333",
        "lng": "47.2667",
        "country": "Madagascar"
    },
    {
        "name": "Tranomaro",
        "lat": "-24.6000",
        "lng": "46.4667",
        "country": "Madagascar"
    },
    {
        "name": "Vinaninkarena",
        "lat": "-19.9500",
        "lng": "47.0500",
        "country": "Madagascar"
    },
    {
        "name": "Soaserana",
        "lat": "-21.1167",
        "lng": "44.2167",
        "country": "Madagascar"
    },
    {
        "name": "Soamanova",
        "lat": "-23.2833",
        "lng": "47.6000",
        "country": "Madagascar"
    },
    {
        "name": "Loikaw",
        "lat": "19.6742",
        "lng": "97.2092",
        "country": "Burma"
    },
    {
        "name": "Side",
        "lat": "36.7667",
        "lng": "31.3889",
        "country": "Turkey"
    },
    {
        "name": "Cerro Cor\u00e1",
        "lat": "-6.0458",
        "lng": "-36.3458",
        "country": "Brazil"
    },
    {
        "name": "Zhamog",
        "lat": "29.8595",
        "lng": "95.7681",
        "country": "China"
    },
    {
        "name": "Pingcha",
        "lat": "26.3490",
        "lng": "109.3791",
        "country": "China"
    },
    {
        "name": "Al \u2018Am\u0101d\u012byah",
        "lat": "37.0925",
        "lng": "43.4872",
        "country": "Iraq"
    },
    {
        "name": "Santa Flavia",
        "lat": "38.0833",
        "lng": "13.5333",
        "country": "Italy"
    },
    {
        "name": "Karabash",
        "lat": "55.4833",
        "lng": "60.2167",
        "country": "Russia"
    },
    {
        "name": "Itiru\u00e7u",
        "lat": "-13.5167",
        "lng": "-40.1500",
        "country": "Brazil"
    },
    {
        "name": "Saint-Martin-Boulogne",
        "lat": "50.7267",
        "lng": "1.6328",
        "country": "France"
    },
    {
        "name": "Byelaazyorsk",
        "lat": "52.4500",
        "lng": "25.1667",
        "country": "Belarus"
    },
    {
        "name": "Lyndon",
        "lat": "38.2645",
        "lng": "-85.5891",
        "country": "United States"
    },
    {
        "name": "Edlap\u0101du",
        "lat": "16.1007",
        "lng": "80.1339",
        "country": "India"
    },
    {
        "name": "B\u0101gn\u0101n",
        "lat": "22.4700",
        "lng": "87.9700",
        "country": "India"
    },
    {
        "name": "Jagann\u0101thpur",
        "lat": "25.6573",
        "lng": "87.5886",
        "country": "India"
    },
    {
        "name": "Shagonar",
        "lat": "51.5500",
        "lng": "92.7667",
        "country": "Russia"
    },
    {
        "name": "Agua de Dios",
        "lat": "4.3781",
        "lng": "-74.6739",
        "country": "Colombia"
    },
    {
        "name": "Patori",
        "lat": "25.9665",
        "lng": "86.5471",
        "country": "India"
    },
    {
        "name": "Vengapalli",
        "lat": "11.6333",
        "lng": "76.0167",
        "country": "India"
    },
    {
        "name": "Farkh\u00e2na",
        "lat": "35.2833",
        "lng": "-3.0167",
        "country": "Morocco"
    },
    {
        "name": "Llandybie",
        "lat": "51.8200",
        "lng": "-4.0010",
        "country": "United Kingdom"
    },
    {
        "name": "Matino",
        "lat": "40.0333",
        "lng": "18.1333",
        "country": "Italy"
    },
    {
        "name": "Issoudun",
        "lat": "46.9608",
        "lng": "1.9944",
        "country": "France"
    },
    {
        "name": "Westview",
        "lat": "25.8825",
        "lng": "-80.2415",
        "country": "United States"
    },
    {
        "name": "Dhilw\u0101n Kal\u0101n",
        "lat": "30.5718",
        "lng": "74.8655",
        "country": "India"
    },
    {
        "name": "Meaford",
        "lat": "44.5800",
        "lng": "-80.7300",
        "country": "Canada"
    },
    {
        "name": "Komorniki",
        "lat": "52.3361",
        "lng": "16.8069",
        "country": "Poland"
    },
    {
        "name": "Churchdown",
        "lat": "51.8800",
        "lng": "-2.1700",
        "country": "United Kingdom"
    },
    {
        "name": "Guspini",
        "lat": "39.5333",
        "lng": "8.6333",
        "country": "Italy"
    },
    {
        "name": "Ribeir\u00e3o Bonito",
        "lat": "-22.0667",
        "lng": "-48.1761",
        "country": "Brazil"
    },
    {
        "name": "Schkopau",
        "lat": "51.3833",
        "lng": "11.9667",
        "country": "Germany"
    },
    {
        "name": "Ma\u2019ai",
        "lat": "34.5937",
        "lng": "102.4814",
        "country": "China"
    },
    {
        "name": "Bardipuram",
        "lat": "18.6431",
        "lng": "78.1584",
        "country": "India"
    },
    {
        "name": "M\u0101nsinghpur Bijrauli",
        "lat": "25.7552",
        "lng": "85.5099",
        "country": "India"
    },
    {
        "name": "Myjava",
        "lat": "48.7492",
        "lng": "17.5644",
        "country": "Slovakia"
    },
    {
        "name": "Akyaka",
        "lat": "40.7444",
        "lng": "43.6250",
        "country": "Turkey"
    },
    {
        "name": "Dayr \u2018A\u0163\u012byah",
        "lat": "34.0833",
        "lng": "36.7667",
        "country": "Syria"
    },
    {
        "name": "Sabalito",
        "lat": "8.8828",
        "lng": "-82.8314",
        "country": "Costa Rica"
    },
    {
        "name": "Wildau",
        "lat": "52.3167",
        "lng": "13.6333",
        "country": "Germany"
    },
    {
        "name": "Nagar Nahusa",
        "lat": "25.3959",
        "lng": "85.3431",
        "country": "India"
    },
    {
        "name": "Argost\u00f3li",
        "lat": "38.1733",
        "lng": "20.4908",
        "country": "Greece"
    },
    {
        "name": "Colwyn Bay",
        "lat": "53.2900",
        "lng": "-3.7000",
        "country": "United Kingdom"
    },
    {
        "name": "Santa Cruz Balany\u00e1",
        "lat": "14.6833",
        "lng": "-90.9167",
        "country": "Guatemala"
    },
    {
        "name": "Honw\u0101da",
        "lat": "16.8111",
        "lng": "77.9199",
        "country": "India"
    },
    {
        "name": "North Logan",
        "lat": "41.7759",
        "lng": "-111.8066",
        "country": "United States"
    },
    {
        "name": "Belousovo",
        "lat": "55.0833",
        "lng": "36.6667",
        "country": "Russia"
    },
    {
        "name": "Para\u00fana",
        "lat": "-16.9511",
        "lng": "-50.4103",
        "country": "Brazil"
    },
    {
        "name": "Duas Barras",
        "lat": "-22.0508",
        "lng": "-42.5219",
        "country": "Brazil"
    },
    {
        "name": "Santa Croce Camerina",
        "lat": "36.8333",
        "lng": "14.5167",
        "country": "Italy"
    },
    {
        "name": "Burkburnett",
        "lat": "34.0746",
        "lng": "-98.5672",
        "country": "United States"
    },
    {
        "name": "Citrus",
        "lat": "34.1160",
        "lng": "-117.8891",
        "country": "United States"
    },
    {
        "name": "Fao Rai",
        "lat": "18.0175",
        "lng": "103.3057",
        "country": "Thailand"
    },
    {
        "name": "Pingtouchuanxiang",
        "lat": "35.8763",
        "lng": "105.3241",
        "country": "China"
    },
    {
        "name": "Bargas",
        "lat": "39.9400",
        "lng": "-4.0194",
        "country": "Spain"
    },
    {
        "name": "Paura Madan Singh",
        "lat": "25.7917",
        "lng": "85.2333",
        "country": "India"
    },
    {
        "name": "Warden",
        "lat": "-27.8539",
        "lng": "28.9667",
        "country": "South Africa"
    },
    {
        "name": "Cudworth",
        "lat": "53.5784",
        "lng": "-1.4149",
        "country": "United Kingdom"
    },
    {
        "name": "Singoli",
        "lat": "24.9667",
        "lng": "75.3000",
        "country": "India"
    },
    {
        "name": "Pebble Creek",
        "lat": "28.1583",
        "lng": "-82.3411",
        "country": "United States"
    },
    {
        "name": "Chicureo Abajo",
        "lat": "-33.2833",
        "lng": "-70.6333",
        "country": "Chile"
    },
    {
        "name": "Oakham",
        "lat": "52.6705",
        "lng": "-0.7333",
        "country": "United Kingdom"
    },
    {
        "name": "Yelpur",
        "lat": "18.7651",
        "lng": "78.3953",
        "country": "India"
    },
    {
        "name": "Sesto Calende",
        "lat": "45.7333",
        "lng": "8.6333",
        "country": "Italy"
    },
    {
        "name": "Totowa",
        "lat": "40.9039",
        "lng": "-74.2214",
        "country": "United States"
    },
    {
        "name": "Easttown",
        "lat": "40.0281",
        "lng": "-75.4403",
        "country": "United States"
    },
    {
        "name": "Adjala-Tosorontio",
        "lat": "44.1333",
        "lng": "-79.9333",
        "country": "Canada"
    },
    {
        "name": "Koronowo",
        "lat": "53.3167",
        "lng": "17.9333",
        "country": "Poland"
    },
    {
        "name": "\u018fhm\u0259dli",
        "lat": "40.3781",
        "lng": "49.9619",
        "country": "Azerbaijan"
    },
    {
        "name": "Pira\u00ed do Norte",
        "lat": "-13.7500",
        "lng": "-39.3667",
        "country": "Brazil"
    },
    {
        "name": "Xintianfeng",
        "lat": "24.4575",
        "lng": "115.5205",
        "country": "China"
    },
    {
        "name": "Mana\u00edra",
        "lat": "-7.7000",
        "lng": "-38.1667",
        "country": "Brazil"
    },
    {
        "name": "Staryya Darohi",
        "lat": "53.0394",
        "lng": "28.2650",
        "country": "Belarus"
    },
    {
        "name": "Rekovac",
        "lat": "43.8667",
        "lng": "21.1333",
        "country": "Serbia"
    },
    {
        "name": "Punjai Turaiy\u0101mp\u0101laiyam",
        "lat": "11.5142",
        "lng": "77.4234",
        "country": "India"
    },
    {
        "name": "C\u00e1chira",
        "lat": "7.7500",
        "lng": "-73.1667",
        "country": "Colombia"
    },
    {
        "name": "A\u015f \u015eabb\u016brah",
        "lat": "33.5151",
        "lng": "36.1259",
        "country": "Syria"
    },
    {
        "name": "Mallagunta",
        "lat": "12.6343",
        "lng": "78.5194",
        "country": "India"
    },
    {
        "name": "Satosh\u014d",
        "lat": "34.5139",
        "lng": "133.5569",
        "country": "Japan"
    },
    {
        "name": "Takad Sahel",
        "lat": "30.2500",
        "lng": "-9.5500",
        "country": "Morocco"
    },
    {
        "name": "Tixkokob",
        "lat": "21.0022",
        "lng": "-89.3936",
        "country": "Mexico"
    },
    {
        "name": "Acanceh",
        "lat": "20.8133",
        "lng": "-89.4524",
        "country": "Mexico"
    },
    {
        "name": "Haigerloch",
        "lat": "48.3647",
        "lng": "8.8050",
        "country": "Germany"
    },
    {
        "name": "Cabanillas del Campo",
        "lat": "40.6383",
        "lng": "-3.2353",
        "country": "Spain"
    },
    {
        "name": "B\u0101w\u0101li",
        "lat": "22.4041",
        "lng": "88.1852",
        "country": "India"
    },
    {
        "name": "North Branch",
        "lat": "45.5137",
        "lng": "-92.9601",
        "country": "United States"
    },
    {
        "name": "Champua",
        "lat": "22.0667",
        "lng": "85.6658",
        "country": "India"
    },
    {
        "name": "Vocha\u00efk\u00f3",
        "lat": "37.9333",
        "lng": "22.8000",
        "country": "Greece"
    }
]