[
    {
        "name": "Anakaputtur",
        "lat": "12.9823",
        "lng": "80.1282",
        "country": "India"
    },
    {
        "name": "Diyadin",
        "lat": "39.5400",
        "lng": "43.6772",
        "country": "Turkey"
    },
    {
        "name": "Cortlandt",
        "lat": "41.2552",
        "lng": "-73.9018",
        "country": "United States"
    },
    {
        "name": "Dild\u0101rnagar",
        "lat": "25.4309",
        "lng": "83.6665",
        "country": "India"
    },
    {
        "name": "Jinotepe",
        "lat": "11.8500",
        "lng": "-86.2000",
        "country": "Nicaragua"
    },
    {
        "name": "Pard\u00e9s H\u0331anna Karkur",
        "lat": "32.4711",
        "lng": "34.9675",
        "country": "Israel"
    },
    {
        "name": "K\u0101lol",
        "lat": "22.6060",
        "lng": "73.4630",
        "country": "India"
    },
    {
        "name": "Monchegorsk",
        "lat": "67.9333",
        "lng": "32.9167",
        "country": "Russia"
    },
    {
        "name": "Hollister",
        "lat": "36.8555",
        "lng": "-121.3986",
        "country": "United States"
    },
    {
        "name": "Villa Bison\u00f3",
        "lat": "19.5600",
        "lng": "-70.8700",
        "country": "Dominican Republic"
    },
    {
        "name": "Sbiba",
        "lat": "35.5467",
        "lng": "9.0736",
        "country": "Tunisia"
    },
    {
        "name": "Bensheim",
        "lat": "49.6667",
        "lng": "8.6167",
        "country": "Germany"
    },
    {
        "name": "Prat\u0101pgarh",
        "lat": "24.0300",
        "lng": "74.7800",
        "country": "India"
    },
    {
        "name": "Bokhtar",
        "lat": "37.8364",
        "lng": "68.7803",
        "country": "Tajikistan"
    },
    {
        "name": "Coyuca de Catal\u00e1n",
        "lat": "18.3256",
        "lng": "-100.6992",
        "country": "Mexico"
    },
    {
        "name": "Puerto Real",
        "lat": "36.5292",
        "lng": "-6.1919",
        "country": "Spain"
    },
    {
        "name": "Para\u00edba do Sul",
        "lat": "-22.1619",
        "lng": "-43.2928",
        "country": "Brazil"
    },
    {
        "name": "Guaratuba",
        "lat": "-25.9000",
        "lng": "-48.5667",
        "country": "Brazil"
    },
    {
        "name": "Quesada",
        "lat": "10.3441",
        "lng": "-84.4199",
        "country": "Costa Rica"
    },
    {
        "name": "Imperia",
        "lat": "43.8833",
        "lng": "8.0333",
        "country": "Italy"
    },
    {
        "name": "Soran",
        "lat": "49.7833",
        "lng": "72.8500",
        "country": "Kazakhstan"
    },
    {
        "name": "Sar\u0101b",
        "lat": "37.9414",
        "lng": "47.5367",
        "country": "Iran"
    },
    {
        "name": "Guaraciaba do Norte",
        "lat": "-4.1667",
        "lng": "-40.7667",
        "country": "Brazil"
    },
    {
        "name": "Zhovti Vody",
        "lat": "48.3500",
        "lng": "33.5000",
        "country": "Ukraine"
    },
    {
        "name": "Siegburg",
        "lat": "50.8014",
        "lng": "7.2044",
        "country": "Germany"
    },
    {
        "name": "Tineghir",
        "lat": "31.5147",
        "lng": "-5.5328",
        "country": "Morocco"
    },
    {
        "name": "Madridejos",
        "lat": "11.2700",
        "lng": "123.7300",
        "country": "Philippines"
    },
    {
        "name": "Mampong",
        "lat": "7.0667",
        "lng": "-1.4000",
        "country": "Ghana"
    },
    {
        "name": "San Jos\u00e9 de Bocay",
        "lat": "13.5333",
        "lng": "-85.5333",
        "country": "Nicaragua"
    },
    {
        "name": "Miercurea-Ciuc",
        "lat": "46.3594",
        "lng": "25.8017",
        "country": "Romania"
    },
    {
        "name": "Holly Springs",
        "lat": "35.6526",
        "lng": "-78.8399",
        "country": "United States"
    },
    {
        "name": "Wangyuanqiao",
        "lat": "38.3849",
        "lng": "106.2664",
        "country": "China"
    },
    {
        "name": "Korenovsk",
        "lat": "45.4686",
        "lng": "39.4519",
        "country": "Russia"
    },
    {
        "name": "N\u0101thdw\u0101ra",
        "lat": "24.9300",
        "lng": "73.8200",
        "country": "India"
    },
    {
        "name": "Dronten",
        "lat": "52.5167",
        "lng": "5.7167",
        "country": "Netherlands"
    },
    {
        "name": "P\u0101\u0303chkh\u0101l",
        "lat": "27.6500",
        "lng": "85.6167",
        "country": "Nepal"
    },
    {
        "name": "Ti\u0307\u0304npiple",
        "lat": "27.6500",
        "lng": "85.6167",
        "country": "Nepal"
    },
    {
        "name": "Santa Rosa del Sur",
        "lat": "7.9667",
        "lng": "-74.0500",
        "country": "Colombia"
    },
    {
        "name": "\u0160tip",
        "lat": "41.7358",
        "lng": "22.1914",
        "country": "North Macedonia"
    },
    {
        "name": "Myedu",
        "lat": "23.1833",
        "lng": "95.4000",
        "country": "Burma"
    },
    {
        "name": "Songhuajiangcun",
        "lat": "44.7158",
        "lng": "125.9544",
        "country": "China"
    },
    {
        "name": "Qiryat Mo\u1e95qin",
        "lat": "32.8333",
        "lng": "35.0833",
        "country": "Israel"
    },
    {
        "name": "Lingquan",
        "lat": "36.9985",
        "lng": "110.8417",
        "country": "China"
    },
    {
        "name": "Muttayy\u0101puram",
        "lat": "8.7498",
        "lng": "78.1311",
        "country": "India"
    },
    {
        "name": "Vawkavysk",
        "lat": "53.1667",
        "lng": "24.4667",
        "country": "Belarus"
    },
    {
        "name": "Greenock",
        "lat": "55.9500",
        "lng": "-4.7650",
        "country": "United Kingdom"
    },
    {
        "name": "Matnog",
        "lat": "12.5856",
        "lng": "124.0856",
        "country": "Philippines"
    },
    {
        "name": "S\u00e3o Louren\u00e7o do Sul",
        "lat": "-31.3653",
        "lng": "-51.9783",
        "country": "Brazil"
    },
    {
        "name": "N\u0101ikankudi",
        "lat": "9.8430",
        "lng": "77.1519",
        "country": "India"
    },
    {
        "name": "Puerto Galera",
        "lat": "13.5000",
        "lng": "120.9542",
        "country": "Philippines"
    },
    {
        "name": "Zhujiacun",
        "lat": "26.3164",
        "lng": "104.3893",
        "country": "China"
    },
    {
        "name": "Yangcunzai",
        "lat": "23.4338",
        "lng": "114.4664",
        "country": "China"
    },
    {
        "name": "Yagoua",
        "lat": "10.3428",
        "lng": "15.2406",
        "country": "Cameroon"
    },
    {
        "name": "Nuevo San Carlos",
        "lat": "14.6000",
        "lng": "-91.7000",
        "country": "Guatemala"
    },
    {
        "name": "Kolchugino",
        "lat": "56.3167",
        "lng": "39.3667",
        "country": "Russia"
    },
    {
        "name": "H\u00f3dmez\u0151v\u00e1s\u00e1rhely",
        "lat": "46.4304",
        "lng": "20.3188",
        "country": "Hungary"
    },
    {
        "name": "Tactic",
        "lat": "15.3167",
        "lng": "-90.3511",
        "country": "Guatemala"
    },
    {
        "name": "Delaware",
        "lat": "40.2851",
        "lng": "-83.0741",
        "country": "United States"
    },
    {
        "name": "H\u1ed1 Nai",
        "lat": "10.9725",
        "lng": "106.8789",
        "country": "Vietnam"
    },
    {
        "name": "Santa Mar\u00eda Atzompa",
        "lat": "17.1014",
        "lng": "-96.7778",
        "country": "Mexico"
    },
    {
        "name": "Tiel",
        "lat": "51.8833",
        "lng": "5.4333",
        "country": "Netherlands"
    },
    {
        "name": "\u014cizumi",
        "lat": "36.2478",
        "lng": "139.4049",
        "country": "Japan"
    },
    {
        "name": "Kirchheim unter Teck",
        "lat": "48.6483",
        "lng": "9.4511",
        "country": "Germany"
    },
    {
        "name": "Tororo",
        "lat": "0.6928",
        "lng": "34.1811",
        "country": "Uganda"
    },
    {
        "name": "Minamishimabara",
        "lat": "32.6667",
        "lng": "130.3000",
        "country": "Japan"
    },
    {
        "name": "Amadeo",
        "lat": "14.1728",
        "lng": "120.9277",
        "country": "Philippines"
    },
    {
        "name": "Qiryat Ono",
        "lat": "32.0636",
        "lng": "34.8553",
        "country": "Israel"
    },
    {
        "name": "Schw\u00e4bisch Hall",
        "lat": "49.1122",
        "lng": "9.7375",
        "country": "Germany"
    },
    {
        "name": "Kibawe",
        "lat": "7.5678",
        "lng": "124.9903",
        "country": "Philippines"
    },
    {
        "name": "Ban Wat Lak Hok",
        "lat": "13.5633",
        "lng": "100.0564",
        "country": "Thailand"
    },
    {
        "name": "Larantuka",
        "lat": "-8.3133",
        "lng": "123.0042",
        "country": "Indonesia"
    },
    {
        "name": "Barauli",
        "lat": "26.3815",
        "lng": "84.5872",
        "country": "India"
    },
    {
        "name": "Duna\u00fajv\u00e1ros",
        "lat": "46.9806",
        "lng": "18.9127",
        "country": "Hungary"
    },
    {
        "name": "Beverwijk",
        "lat": "52.4833",
        "lng": "4.6500",
        "country": "Netherlands"
    },
    {
        "name": "Maca\u00fabas",
        "lat": "-13.0189",
        "lng": "-42.6989",
        "country": "Brazil"
    },
    {
        "name": "Kalmar",
        "lat": "56.6614",
        "lng": "16.3628",
        "country": "Sweden"
    },
    {
        "name": "Marialva",
        "lat": "-23.4667",
        "lng": "-51.7000",
        "country": "Brazil"
    },
    {
        "name": "Coburg",
        "lat": "50.2667",
        "lng": "10.9667",
        "country": "Germany"
    },
    {
        "name": "Yinggen",
        "lat": "19.0372",
        "lng": "109.8283",
        "country": "China"
    },
    {
        "name": "Tadjenanet",
        "lat": "36.1167",
        "lng": "5.9833",
        "country": "Algeria"
    },
    {
        "name": "El A\u00efoun",
        "lat": "34.5852",
        "lng": "-2.5056",
        "country": "Morocco"
    },
    {
        "name": "Urmston",
        "lat": "53.4487",
        "lng": "-2.3747",
        "country": "United Kingdom"
    },
    {
        "name": "Coyotepec",
        "lat": "19.7500",
        "lng": "-99.1711",
        "country": "Mexico"
    },
    {
        "name": "Miura",
        "lat": "35.1500",
        "lng": "139.6167",
        "country": "Japan"
    },
    {
        "name": "Rancho Palos Verdes",
        "lat": "33.7554",
        "lng": "-118.3634",
        "country": "United States"
    },
    {
        "name": "Diamond Harbour",
        "lat": "22.1910",
        "lng": "88.1905",
        "country": "India"
    },
    {
        "name": "Waxahachie",
        "lat": "32.4035",
        "lng": "-96.8446",
        "country": "United States"
    },
    {
        "name": "Jardin\u00f3polis",
        "lat": "-21.0178",
        "lng": "-47.7639",
        "country": "Brazil"
    },
    {
        "name": "Satka",
        "lat": "55.0500",
        "lng": "59.0333",
        "country": "Russia"
    },
    {
        "name": "Civitanova Marche",
        "lat": "43.3000",
        "lng": "13.7333",
        "country": "Italy"
    },
    {
        "name": "T\u0101dif",
        "lat": "36.3481",
        "lng": "37.5308",
        "country": "Syria"
    },
    {
        "name": "K\u00f6niz",
        "lat": "46.9333",
        "lng": "7.4000",
        "country": "Switzerland"
    },
    {
        "name": "Uden",
        "lat": "51.6500",
        "lng": "5.6167",
        "country": "Netherlands"
    },
    {
        "name": "S\u016brampatti",
        "lat": "11.3411",
        "lng": "77.6956",
        "country": "India"
    },
    {
        "name": "Velasco Ibarra",
        "lat": "-1.0439",
        "lng": "-79.6383",
        "country": "Ecuador"
    },
    {
        "name": "Kasibu",
        "lat": "16.3181",
        "lng": "121.2958",
        "country": "Philippines"
    },
    {
        "name": "Pai\u00e7andu",
        "lat": "-23.4556",
        "lng": "-52.0417",
        "country": "Brazil"
    },
    {
        "name": "Krasnoznamensk",
        "lat": "55.6008",
        "lng": "37.0358",
        "country": "Russia"
    },
    {
        "name": "Beitbridge",
        "lat": "-22.2167",
        "lng": "30.0000",
        "country": "Zimbabwe"
    },
    {
        "name": "Dacun",
        "lat": "34.7201",
        "lng": "109.0549",
        "country": "China"
    }
]