[
    {
        "name": "Qiushanxiang",
        "lat": "34.3562",
        "lng": "104.8983",
        "country": "China"
    },
    {
        "name": "Auhar Sheikh",
        "lat": "26.7216",
        "lng": "84.5993",
        "country": "India"
    },
    {
        "name": "Motibennur",
        "lat": "14.7150",
        "lng": "75.4800",
        "country": "India"
    },
    {
        "name": "Riol\u00e2ndia",
        "lat": "-19.9900",
        "lng": "-49.6808",
        "country": "Brazil"
    },
    {
        "name": "Rodelas",
        "lat": "-8.8333",
        "lng": "-38.7667",
        "country": "Brazil"
    },
    {
        "name": "Kur\u015funlu",
        "lat": "40.8500",
        "lng": "33.2500",
        "country": "Turkey"
    },
    {
        "name": "Buriti do Tocantins",
        "lat": "-5.3158",
        "lng": "-48.2289",
        "country": "Brazil"
    },
    {
        "name": "Khiram",
        "lat": "33.7320",
        "lng": "75.1600",
        "country": "India"
    },
    {
        "name": "South Huntington",
        "lat": "40.8225",
        "lng": "-73.3921",
        "country": "United States"
    },
    {
        "name": "Waynesville",
        "lat": "35.4854",
        "lng": "-82.9996",
        "country": "United States"
    },
    {
        "name": "Jaqma",
        "lat": "33.2920",
        "lng": "-7.4400",
        "country": "Morocco"
    },
    {
        "name": "Gro\u00dfburgwedel",
        "lat": "52.4933",
        "lng": "9.8586",
        "country": "Germany"
    },
    {
        "name": "Moldava nad Bodvou",
        "lat": "48.6064",
        "lng": "21.0003",
        "country": "Slovakia"
    },
    {
        "name": "Mwaya",
        "lat": "-9.4917",
        "lng": "34.0333",
        "country": "Tanzania"
    },
    {
        "name": "Mauril\u00e2ndia",
        "lat": "-17.9714",
        "lng": "-50.3328",
        "country": "Brazil"
    },
    {
        "name": "Jord\u00e2nia",
        "lat": "-15.9000",
        "lng": "-40.1833",
        "country": "Brazil"
    },
    {
        "name": "Qanliko\u2018l",
        "lat": "42.8333",
        "lng": "59.0000",
        "country": "Uzbekistan"
    },
    {
        "name": "Pyetrykaw",
        "lat": "52.1333",
        "lng": "28.5000",
        "country": "Belarus"
    },
    {
        "name": "Broadstone",
        "lat": "50.7605",
        "lng": "-1.9950",
        "country": "United Kingdom"
    },
    {
        "name": "Lakkireddipalle",
        "lat": "14.1667",
        "lng": "78.7000",
        "country": "India"
    },
    {
        "name": "Trajano de Morais",
        "lat": "-22.0633",
        "lng": "-42.0664",
        "country": "Brazil"
    },
    {
        "name": "Merzenich",
        "lat": "50.8333",
        "lng": "6.5333",
        "country": "Germany"
    },
    {
        "name": "Limoux",
        "lat": "43.0569",
        "lng": "2.2186",
        "country": "France"
    },
    {
        "name": "Knezha",
        "lat": "43.5000",
        "lng": "24.0833",
        "country": "Bulgaria"
    },
    {
        "name": "Baran",
        "lat": "54.4833",
        "lng": "30.3333",
        "country": "Belarus"
    },
    {
        "name": "Caparrap\u00ed",
        "lat": "5.3442",
        "lng": "-74.4917",
        "country": "Colombia"
    },
    {
        "name": "Bel Imour",
        "lat": "35.9806",
        "lng": "4.8797",
        "country": "Algeria"
    },
    {
        "name": "Sabana Grande",
        "lat": "18.0832",
        "lng": "-66.9645",
        "country": "Puerto Rico"
    },
    {
        "name": "Raymondville",
        "lat": "26.4759",
        "lng": "-97.7769",
        "country": "United States"
    },
    {
        "name": "\u00d6rkelljunga",
        "lat": "56.2833",
        "lng": "13.2833",
        "country": "Sweden"
    },
    {
        "name": "Kangning",
        "lat": "38.0176",
        "lng": "102.3520",
        "country": "China"
    },
    {
        "name": "Birsfelden",
        "lat": "47.5533",
        "lng": "7.6233",
        "country": "Switzerland"
    },
    {
        "name": "Rancho Arriba",
        "lat": "18.7147",
        "lng": "-70.4618",
        "country": "Dominican Republic"
    },
    {
        "name": "Kalam\u016bla",
        "lat": "11.1417",
        "lng": "76.3417",
        "country": "India"
    },
    {
        "name": "Bolde\u015fti-Sc\u0103eni",
        "lat": "45.0300",
        "lng": "26.0300",
        "country": "Romania"
    },
    {
        "name": "Alto Para\u00edso de Goi\u00e1s",
        "lat": "-14.1333",
        "lng": "-47.5167",
        "country": "Brazil"
    },
    {
        "name": "Rubim",
        "lat": "-16.3750",
        "lng": "-40.5378",
        "country": "Brazil"
    },
    {
        "name": "N\u0101na",
        "lat": "24.9160",
        "lng": "73.1330",
        "country": "India"
    },
    {
        "name": "Shahar Telpa",
        "lat": "25.1330",
        "lng": "84.6533",
        "country": "India"
    },
    {
        "name": "Bad Lauterberg",
        "lat": "51.6317",
        "lng": "10.4706",
        "country": "Germany"
    },
    {
        "name": "Locate di Triulzi",
        "lat": "45.3500",
        "lng": "9.2167",
        "country": "Italy"
    },
    {
        "name": "Murrells Inlet",
        "lat": "33.5560",
        "lng": "-79.0594",
        "country": "United States"
    },
    {
        "name": "Arman\u0101z",
        "lat": "36.0833",
        "lng": "36.5000",
        "country": "Syria"
    },
    {
        "name": "Bonfin\u00f3polis",
        "lat": "-16.6172",
        "lng": "-48.9600",
        "country": "Brazil"
    },
    {
        "name": "Bordj Zemoura",
        "lat": "36.2667",
        "lng": "4.8500",
        "country": "Algeria"
    },
    {
        "name": "Lyuboml\u2019",
        "lat": "51.2236",
        "lng": "24.0328",
        "country": "Ukraine"
    },
    {
        "name": "Kirchlinteln",
        "lat": "52.9428",
        "lng": "9.3183",
        "country": "Germany"
    },
    {
        "name": "Castelli Calepio",
        "lat": "45.6333",
        "lng": "9.9000",
        "country": "Italy"
    },
    {
        "name": "Ouroeste",
        "lat": "-20.0008",
        "lng": "-50.3719",
        "country": "Brazil"
    },
    {
        "name": "Ratauli",
        "lat": "26.1861",
        "lng": "86.7104",
        "country": "India"
    },
    {
        "name": "Castelnovo ne\u2019 Monti",
        "lat": "44.4333",
        "lng": "10.4000",
        "country": "Italy"
    },
    {
        "name": "Argayash",
        "lat": "55.4889",
        "lng": "60.8758",
        "country": "Russia"
    },
    {
        "name": "Morsbach",
        "lat": "50.8667",
        "lng": "7.7167",
        "country": "Germany"
    },
    {
        "name": "Balaungi",
        "lat": "30.7306",
        "lng": "76.6937",
        "country": "India"
    },
    {
        "name": "Z\u0101wal",
        "lat": "24.9833",
        "lng": "72.7333",
        "country": "India"
    },
    {
        "name": "Fort Madison",
        "lat": "40.6207",
        "lng": "-91.3509",
        "country": "United States"
    },
    {
        "name": "Dalg\u0101n",
        "lat": "27.4825",
        "lng": "59.4464",
        "country": "Iran"
    },
    {
        "name": "Vilkavi\u0161kis",
        "lat": "54.6500",
        "lng": "23.0333",
        "country": "Lithuania"
    },
    {
        "name": "Jordbro",
        "lat": "59.1500",
        "lng": "18.1333",
        "country": "Sweden"
    },
    {
        "name": "Serid\u00f3",
        "lat": "-6.8500",
        "lng": "-36.4167",
        "country": "Brazil"
    },
    {
        "name": "Lenoir City",
        "lat": "35.8111",
        "lng": "-84.2818",
        "country": "United States"
    },
    {
        "name": "Ma\u2018rab\u0101",
        "lat": "33.5775",
        "lng": "36.2969",
        "country": "Syria"
    },
    {
        "name": "Ekin\u00f6z\u00fc",
        "lat": "38.0617",
        "lng": "37.1928",
        "country": "Turkey"
    },
    {
        "name": "Billdal",
        "lat": "57.5833",
        "lng": "11.9333",
        "country": "Sweden"
    },
    {
        "name": "Lutry",
        "lat": "46.5000",
        "lng": "6.6833",
        "country": "Switzerland"
    },
    {
        "name": "Mi\u0119dzych\u00f3d",
        "lat": "52.6000",
        "lng": "15.8833",
        "country": "Poland"
    },
    {
        "name": "Sr\u012bsailain",
        "lat": "16.0833",
        "lng": "78.8667",
        "country": "India"
    },
    {
        "name": "Simarw\u0101ra Durg\u0101pur",
        "lat": "25.8520",
        "lng": "85.4944",
        "country": "India"
    },
    {
        "name": "Arraias",
        "lat": "-12.9308",
        "lng": "-46.9378",
        "country": "Brazil"
    },
    {
        "name": "Lishuping",
        "lat": "33.1832",
        "lng": "104.8881",
        "country": "China"
    },
    {
        "name": "Zaoz\u00ebrnyy",
        "lat": "55.9667",
        "lng": "94.7000",
        "country": "Russia"
    },
    {
        "name": "Terra de Areia",
        "lat": "-29.5833",
        "lng": "-50.0667",
        "country": "Brazil"
    },
    {
        "name": "\u2019A\u00efn Tellout",
        "lat": "34.9167",
        "lng": "-0.9667",
        "country": "Algeria"
    },
    {
        "name": "Spitalfields",
        "lat": "51.5166",
        "lng": "-0.0750",
        "country": "United Kingdom"
    },
    {
        "name": "R\u0101yen",
        "lat": "29.5981",
        "lng": "57.4383",
        "country": "Iran"
    },
    {
        "name": "Hecelchak\u00e1n",
        "lat": "20.1667",
        "lng": "-90.1333",
        "country": "Mexico"
    },
    {
        "name": "Irine\u00f3polis",
        "lat": "-26.2386",
        "lng": "-50.7997",
        "country": "Brazil"
    },
    {
        "name": "Cheam",
        "lat": "51.3600",
        "lng": "-0.2100",
        "country": "United Kingdom"
    },
    {
        "name": "Arl\u00f6v",
        "lat": "55.6333",
        "lng": "13.0833",
        "country": "Sweden"
    },
    {
        "name": "Schalksm\u00fchle",
        "lat": "51.2167",
        "lng": "7.5167",
        "country": "Germany"
    },
    {
        "name": "Jankampet",
        "lat": "18.7067",
        "lng": "78.0233",
        "country": "India"
    },
    {
        "name": "Tangerm\u00fcnde",
        "lat": "52.5408",
        "lng": "11.9689",
        "country": "Germany"
    },
    {
        "name": "Kandr\u0101w\u0101n",
        "lat": "25.8882",
        "lng": "81.2618",
        "country": "India"
    },
    {
        "name": "Bandrele",
        "lat": "-12.9092",
        "lng": "45.1944",
        "country": "Mayotte"
    },
    {
        "name": "Sidi Bou Ali",
        "lat": "35.9561",
        "lng": "10.4722",
        "country": "Tunisia"
    },
    {
        "name": "San Jos\u00e9 de Feliciano",
        "lat": "-30.3833",
        "lng": "-58.7500",
        "country": "Argentina"
    },
    {
        "name": "S\u00e3o Geraldo",
        "lat": "-20.9228",
        "lng": "-42.8339",
        "country": "Brazil"
    },
    {
        "name": "Sant\u2019Agata de\u2019 Goti",
        "lat": "41.0833",
        "lng": "14.5000",
        "country": "Italy"
    },
    {
        "name": "Sidi Embarek",
        "lat": "36.1039",
        "lng": "4.9119",
        "country": "Algeria"
    },
    {
        "name": "Ganvi\u00e9",
        "lat": "6.4667",
        "lng": "2.4167",
        "country": "Benin"
    },
    {
        "name": "Venecia",
        "lat": "5.9167",
        "lng": "-75.7500",
        "country": "Colombia"
    },
    {
        "name": "Shirako",
        "lat": "35.4500",
        "lng": "140.3667",
        "country": "Japan"
    },
    {
        "name": "Itapitanga",
        "lat": "-14.4228",
        "lng": "-39.5650",
        "country": "Brazil"
    },
    {
        "name": "B\u0101gh-e Bah\u0101dor\u0101n",
        "lat": "32.3756",
        "lng": "51.1881",
        "country": "Iran"
    },
    {
        "name": "Oppeano",
        "lat": "45.3000",
        "lng": "11.1833",
        "country": "Italy"
    },
    {
        "name": "Ban Wisit",
        "lat": "18.3480",
        "lng": "103.6308",
        "country": "Thailand"
    },
    {
        "name": "Bogen",
        "lat": "48.9167",
        "lng": "12.6833",
        "country": "Germany"
    },
    {
        "name": "San Maurizio Canavese",
        "lat": "45.2167",
        "lng": "7.6333",
        "country": "Italy"
    },
    {
        "name": "Selkirk",
        "lat": "50.1436",
        "lng": "-96.8839",
        "country": "Canada"
    },
    {
        "name": "Saint-F\u00e9licien",
        "lat": "48.6500",
        "lng": "-72.4500",
        "country": "Canada"
    }
]