[
    {
        "name": "Olot",
        "lat": "42.1833",
        "lng": "2.4833",
        "country": "Spain"
    },
    {
        "name": "Yamen",
        "lat": "22.2999",
        "lng": "113.0585",
        "country": "China"
    },
    {
        "name": "Adelanto",
        "lat": "34.5814",
        "lng": "-117.4397",
        "country": "United States"
    },
    {
        "name": "Backnang",
        "lat": "48.9464",
        "lng": "9.4306",
        "country": "Germany"
    },
    {
        "name": "Princeton",
        "lat": "25.5396",
        "lng": "-80.3971",
        "country": "United States"
    },
    {
        "name": "San Juan Cancuc",
        "lat": "16.9333",
        "lng": "-92.3833",
        "country": "Mexico"
    },
    {
        "name": "Qaratog",
        "lat": "38.5500",
        "lng": "68.2833",
        "country": "Tajikistan"
    },
    {
        "name": "Northglenn",
        "lat": "39.9108",
        "lng": "-104.9783",
        "country": "United States"
    },
    {
        "name": "Goribidn\u016br",
        "lat": "13.6111",
        "lng": "77.5167",
        "country": "India"
    },
    {
        "name": "K\u00e9ni\u00e9ran",
        "lat": "11.1167",
        "lng": "-8.9333",
        "country": "Guinea"
    },
    {
        "name": "Ali Sabieh",
        "lat": "11.1500",
        "lng": "42.7167",
        "country": "Djibouti"
    },
    {
        "name": "Tupelo",
        "lat": "34.2692",
        "lng": "-88.7318",
        "country": "United States"
    },
    {
        "name": "Haj\u012bn",
        "lat": "34.6894",
        "lng": "40.8308",
        "country": "Syria"
    },
    {
        "name": "Biougra",
        "lat": "30.2144",
        "lng": "-9.3708",
        "country": "Morocco"
    },
    {
        "name": "La Quinta",
        "lat": "33.6536",
        "lng": "-116.2785",
        "country": "United States"
    },
    {
        "name": "Ure\u00f1a",
        "lat": "7.9183",
        "lng": "-72.4467",
        "country": "Venezuela"
    },
    {
        "name": "Sampu\u00e9s",
        "lat": "9.1833",
        "lng": "-75.3833",
        "country": "Colombia"
    },
    {
        "name": "San Adri\u00e1n de Bes\u00f3s",
        "lat": "41.4285",
        "lng": "2.2230",
        "country": "Spain"
    },
    {
        "name": "Annemasse",
        "lat": "46.1958",
        "lng": "6.2364",
        "country": "France"
    },
    {
        "name": "Raalte",
        "lat": "52.3833",
        "lng": "6.2667",
        "country": "Netherlands"
    },
    {
        "name": "Rusape",
        "lat": "-18.5367",
        "lng": "32.1247",
        "country": "Zimbabwe"
    },
    {
        "name": "Shakht\u012bnsk",
        "lat": "49.7100",
        "lng": "72.5872",
        "country": "Kazakhstan"
    },
    {
        "name": "Pedro II",
        "lat": "-4.4167",
        "lng": "-41.4667",
        "country": "Brazil"
    },
    {
        "name": "Bitterfeld",
        "lat": "51.6167",
        "lng": "12.3167",
        "country": "Germany"
    },
    {
        "name": "Dhanera",
        "lat": "24.5200",
        "lng": "72.0200",
        "country": "India"
    },
    {
        "name": "Guayacanes",
        "lat": "18.4533",
        "lng": "-69.4500",
        "country": "Dominican Republic"
    },
    {
        "name": "Obala",
        "lat": "4.1667",
        "lng": "11.5333",
        "country": "Cameroon"
    },
    {
        "name": "Andkh\u014dy",
        "lat": "36.9500",
        "lng": "65.1167",
        "country": "Afghanistan"
    },
    {
        "name": "\u015awidnik",
        "lat": "51.2167",
        "lng": "22.7000",
        "country": "Poland"
    },
    {
        "name": "Giyon",
        "lat": "8.5333",
        "lng": "37.9667",
        "country": "Ethiopia"
    },
    {
        "name": "Luuk",
        "lat": "5.9676",
        "lng": "121.3133",
        "country": "Philippines"
    },
    {
        "name": "Celje",
        "lat": "46.2358",
        "lng": "15.2675",
        "country": "Slovenia"
    },
    {
        "name": "Gampola",
        "lat": "7.1647",
        "lng": "80.5767",
        "country": "Sri Lanka"
    },
    {
        "name": "Ameca",
        "lat": "20.5486",
        "lng": "-104.0431",
        "country": "Mexico"
    },
    {
        "name": "Namlea",
        "lat": "-3.2500",
        "lng": "127.0833",
        "country": "Indonesia"
    },
    {
        "name": "Elmont",
        "lat": "40.7033",
        "lng": "-73.7078",
        "country": "United States"
    },
    {
        "name": "Tlalixcoyan",
        "lat": "18.8031",
        "lng": "-96.0611",
        "country": "Mexico"
    },
    {
        "name": "Cerveteri",
        "lat": "42.0075",
        "lng": "12.1050",
        "country": "Italy"
    },
    {
        "name": "Dibulla",
        "lat": "11.2667",
        "lng": "-73.3000",
        "country": "Colombia"
    },
    {
        "name": "Mission Bend",
        "lat": "29.6948",
        "lng": "-95.6658",
        "country": "United States"
    },
    {
        "name": "Tumba",
        "lat": "59.2000",
        "lng": "17.8167",
        "country": "Sweden"
    },
    {
        "name": "Gaspar Hern\u00e1ndez",
        "lat": "19.6200",
        "lng": "-70.2800",
        "country": "Dominican Republic"
    },
    {
        "name": "Pen",
        "lat": "18.7500",
        "lng": "73.0800",
        "country": "India"
    },
    {
        "name": "Bangkinang",
        "lat": "0.3500",
        "lng": "101.0333",
        "country": "Indonesia"
    },
    {
        "name": "Izobil\u2019nyy",
        "lat": "45.3667",
        "lng": "41.7167",
        "country": "Russia"
    },
    {
        "name": "Mateus Leme",
        "lat": "-19.9858",
        "lng": "-44.4278",
        "country": "Brazil"
    },
    {
        "name": "G\u00fcira de Melena",
        "lat": "22.8019",
        "lng": "-82.5047",
        "country": "Cuba"
    },
    {
        "name": "La Puente",
        "lat": "34.0323",
        "lng": "-117.9533",
        "country": "United States"
    },
    {
        "name": "Santaluz",
        "lat": "-11.2558",
        "lng": "-39.3750",
        "country": "Brazil"
    },
    {
        "name": "Carpentersville",
        "lat": "42.1227",
        "lng": "-88.2896",
        "country": "United States"
    },
    {
        "name": "Koboko",
        "lat": "3.4100",
        "lng": "30.9600",
        "country": "Uganda"
    },
    {
        "name": "Al Qaryatayn",
        "lat": "34.2283",
        "lng": "37.2406",
        "country": "Syria"
    },
    {
        "name": "Emirda\u011f",
        "lat": "39.0167",
        "lng": "31.1500",
        "country": "Turkey"
    },
    {
        "name": "Santa Pola",
        "lat": "38.1897",
        "lng": "-0.5556",
        "country": "Spain"
    },
    {
        "name": "Pentecoste",
        "lat": "-3.8000",
        "lng": "-39.2833",
        "country": "Brazil"
    },
    {
        "name": "Oleiros",
        "lat": "43.3333",
        "lng": "-8.3166",
        "country": "Spain"
    },
    {
        "name": "Cheyy\u0101r",
        "lat": "12.6620",
        "lng": "79.5435",
        "country": "India"
    },
    {
        "name": "Pathan\u0101mthitta",
        "lat": "9.2648",
        "lng": "76.7870",
        "country": "India"
    },
    {
        "name": "Mahanoro",
        "lat": "-19.9000",
        "lng": "48.8000",
        "country": "Madagascar"
    },
    {
        "name": "Ka\u0161tel Stari",
        "lat": "43.5500",
        "lng": "16.3500",
        "country": "Croatia"
    },
    {
        "name": "Teijlingen",
        "lat": "52.2167",
        "lng": "4.4833",
        "country": "Netherlands"
    },
    {
        "name": "Nov\u00e9 Z\u00e1mky",
        "lat": "47.9856",
        "lng": "18.1578",
        "country": "Slovakia"
    },
    {
        "name": "Tudela",
        "lat": "42.0653",
        "lng": "-1.6067",
        "country": "Spain"
    },
    {
        "name": "Ohangaron",
        "lat": "40.9061",
        "lng": "69.6444",
        "country": "Uzbekistan"
    },
    {
        "name": "Pat\u00eda",
        "lat": "2.1667",
        "lng": "-77.0833",
        "country": "Colombia"
    },
    {
        "name": "Sillanwali",
        "lat": "31.8250",
        "lng": "72.5389",
        "country": "Pakistan"
    },
    {
        "name": "San Antonio de Padua",
        "lat": "-34.6667",
        "lng": "-58.7000",
        "country": "Argentina"
    },
    {
        "name": "Charaut",
        "lat": "26.5322",
        "lng": "85.7942",
        "country": "India"
    },
    {
        "name": "San Sebasti\u00e1n de Mariquita",
        "lat": "5.2500",
        "lng": "-74.9167",
        "country": "Colombia"
    },
    {
        "name": "Kwidzyn",
        "lat": "53.7358",
        "lng": "18.9308",
        "country": "Poland"
    },
    {
        "name": "Arnold",
        "lat": "53.0050",
        "lng": "-1.1270",
        "country": "United Kingdom"
    },
    {
        "name": "Afu\u00e1",
        "lat": "-0.1569",
        "lng": "-50.3869",
        "country": "Brazil"
    },
    {
        "name": "Marantao",
        "lat": "7.9500",
        "lng": "124.2330",
        "country": "Philippines"
    },
    {
        "name": "R\u0101ni",
        "lat": "25.5564",
        "lng": "85.9021",
        "country": "India"
    },
    {
        "name": "Long Eaton",
        "lat": "52.8980",
        "lng": "-1.2710",
        "country": "United Kingdom"
    },
    {
        "name": "Prince Albert",
        "lat": "53.2000",
        "lng": "-105.7500",
        "country": "Canada"
    },
    {
        "name": "G\u00fczelbah\u00e7e",
        "lat": "38.3356",
        "lng": "26.8911",
        "country": "Turkey"
    },
    {
        "name": "Calpulalpan",
        "lat": "19.5869",
        "lng": "-98.5683",
        "country": "Mexico"
    },
    {
        "name": "Karuhatan",
        "lat": "14.6883",
        "lng": "120.9761",
        "country": "Philippines"
    },
    {
        "name": "Manali",
        "lat": "13.1667",
        "lng": "80.2667",
        "country": "India"
    },
    {
        "name": "Sun City",
        "lat": "33.6165",
        "lng": "-112.2819",
        "country": "United States"
    },
    {
        "name": "Mixquiahuala de Juarez",
        "lat": "20.2311",
        "lng": "-99.2131",
        "country": "Mexico"
    },
    {
        "name": "Mamun",
        "lat": "32.2824",
        "lng": "75.6983",
        "country": "India"
    },
    {
        "name": "Haedo",
        "lat": "-34.6500",
        "lng": "-58.6000",
        "country": "Argentina"
    },
    {
        "name": "Coondapoor",
        "lat": "13.6313",
        "lng": "74.6902",
        "country": "India"
    },
    {
        "name": "Hanum\u0101nnagar",
        "lat": "26.5406",
        "lng": "86.7486",
        "country": "Nepal"
    },
    {
        "name": "Momba\u00e7a",
        "lat": "-5.7428",
        "lng": "-39.6278",
        "country": "Brazil"
    },
    {
        "name": "Gomoh",
        "lat": "23.8735",
        "lng": "86.1516",
        "country": "India"
    },
    {
        "name": "S\u00e3o Francisco do Conde",
        "lat": "-12.6500",
        "lng": "-38.6833",
        "country": "Brazil"
    },
    {
        "name": "Yuzhnouralsk",
        "lat": "54.4500",
        "lng": "61.2500",
        "country": "Russia"
    },
    {
        "name": "Matina",
        "lat": "10.0099",
        "lng": "-83.3096",
        "country": "Costa Rica"
    },
    {
        "name": "San Marcelino",
        "lat": "14.9742",
        "lng": "120.1573",
        "country": "Philippines"
    },
    {
        "name": "Aklera",
        "lat": "24.4200",
        "lng": "76.5700",
        "country": "India"
    },
    {
        "name": "Umi",
        "lat": "33.5667",
        "lng": "130.5167",
        "country": "Japan"
    },
    {
        "name": "Uchaly",
        "lat": "54.3167",
        "lng": "59.3833",
        "country": "Russia"
    },
    {
        "name": "Apia",
        "lat": "-13.8333",
        "lng": "-171.7500",
        "country": "Samoa"
    },
    {
        "name": "Hilton Head Island",
        "lat": "32.1896",
        "lng": "-80.7499",
        "country": "United States"
    },
    {
        "name": "Jacund\u00e1",
        "lat": "-4.4508",
        "lng": "-49.1158",
        "country": "Brazil"
    },
    {
        "name": "Melchor Ocampo",
        "lat": "19.7083",
        "lng": "-99.1444",
        "country": "Mexico"
    },
    {
        "name": "Yol\u00f6ten",
        "lat": "37.3000",
        "lng": "62.3500",
        "country": "Turkmenistan"
    }
]