[
    {
        "name": "Mabuhay",
        "lat": "7.4176",
        "lng": "122.8370",
        "country": "Philippines"
    },
    {
        "name": "Sel\u00e7uk",
        "lat": "37.9500",
        "lng": "27.3667",
        "country": "Turkey"
    },
    {
        "name": "Jaito",
        "lat": "30.4509",
        "lng": "74.8829",
        "country": "India"
    },
    {
        "name": "Argun",
        "lat": "43.2944",
        "lng": "45.8839",
        "country": "Russia"
    },
    {
        "name": "Savigny-sur-Orge",
        "lat": "48.6797",
        "lng": "2.3457",
        "country": "France"
    },
    {
        "name": "Phulb\u0101ni",
        "lat": "20.4700",
        "lng": "84.2300",
        "country": "India"
    },
    {
        "name": "Progreso",
        "lat": "21.2828",
        "lng": "-89.6636",
        "country": "Mexico"
    },
    {
        "name": "Bayur",
        "lat": "-0.2610",
        "lng": "100.2220",
        "country": "Indonesia"
    },
    {
        "name": "Tozeur",
        "lat": "33.9167",
        "lng": "8.1333",
        "country": "Tunisia"
    },
    {
        "name": "Conchagua",
        "lat": "13.3000",
        "lng": "-87.8667",
        "country": "El Salvador"
    },
    {
        "name": "Grimbergen",
        "lat": "50.9333",
        "lng": "4.3833",
        "country": "Belgium"
    },
    {
        "name": "Be\u010dej",
        "lat": "45.6167",
        "lng": "20.0333",
        "country": "Serbia"
    },
    {
        "name": "Villa Gonz\u00e1lez",
        "lat": "19.5333",
        "lng": "-70.7833",
        "country": "Dominican Republic"
    },
    {
        "name": "Eboli",
        "lat": "40.6169",
        "lng": "15.0564",
        "country": "Italy"
    },
    {
        "name": "Mullaittivu",
        "lat": "9.2833",
        "lng": "80.8000",
        "country": "Sri Lanka"
    },
    {
        "name": "Blyth",
        "lat": "55.1260",
        "lng": "-1.5140",
        "country": "United Kingdom"
    },
    {
        "name": "Fengguangcun",
        "lat": "23.9062",
        "lng": "116.6984",
        "country": "China"
    },
    {
        "name": "Beckum",
        "lat": "51.7550",
        "lng": "8.0403",
        "country": "Germany"
    },
    {
        "name": "Besni",
        "lat": "37.6942",
        "lng": "37.8614",
        "country": "Turkey"
    },
    {
        "name": "Sitangkai",
        "lat": "4.6615",
        "lng": "119.3919",
        "country": "Philippines"
    },
    {
        "name": "Luna",
        "lat": "16.8500",
        "lng": "120.3800",
        "country": "Philippines"
    },
    {
        "name": "Ataq",
        "lat": "14.5364",
        "lng": "46.8331",
        "country": "Yemen"
    },
    {
        "name": "Bartlesville",
        "lat": "36.7365",
        "lng": "-95.9456",
        "country": "United States"
    },
    {
        "name": "Al H\u0101shim\u012byah",
        "lat": "32.3664",
        "lng": "44.6581",
        "country": "Iraq"
    },
    {
        "name": "Sanankoroba",
        "lat": "12.3986",
        "lng": "-7.9378",
        "country": "Mali"
    },
    {
        "name": "Lah\u0101r",
        "lat": "26.1940",
        "lng": "78.9414",
        "country": "India"
    },
    {
        "name": "Falun",
        "lat": "60.6072",
        "lng": "15.6311",
        "country": "Sweden"
    },
    {
        "name": "Dajiecun",
        "lat": "36.2965",
        "lng": "115.2071",
        "country": "China"
    },
    {
        "name": "S\u00e3o Manuel",
        "lat": "-22.7308",
        "lng": "-48.5708",
        "country": "Brazil"
    },
    {
        "name": "Pilibangan",
        "lat": "29.4888",
        "lng": "74.0748",
        "country": "India"
    },
    {
        "name": "Tib\u00fa",
        "lat": "8.6500",
        "lng": "-72.7333",
        "country": "Colombia"
    },
    {
        "name": "Mariano Escobedo",
        "lat": "18.9167",
        "lng": "-97.1333",
        "country": "Mexico"
    },
    {
        "name": "G\u00f6yg\u00f6l",
        "lat": "40.5869",
        "lng": "46.3158",
        "country": "Azerbaijan"
    },
    {
        "name": "Port Talbot",
        "lat": "51.5906",
        "lng": "-3.7986",
        "country": "United Kingdom"
    },
    {
        "name": "Rock Island",
        "lat": "41.4699",
        "lng": "-90.5827",
        "country": "United States"
    },
    {
        "name": "Landgraaf",
        "lat": "50.9000",
        "lng": "6.0167",
        "country": "Netherlands"
    },
    {
        "name": "\u010cesk\u00e1 L\u00edpa",
        "lat": "50.6886",
        "lng": "14.5386",
        "country": "Czechia"
    },
    {
        "name": "Lydenburg",
        "lat": "-25.0960",
        "lng": "30.4460",
        "country": "South Africa"
    },
    {
        "name": "Gajendragarh",
        "lat": "15.7363",
        "lng": "75.9698",
        "country": "India"
    },
    {
        "name": "J\u0101le",
        "lat": "26.3800",
        "lng": "85.7200",
        "country": "India"
    },
    {
        "name": "Yamoussoukro",
        "lat": "6.8161",
        "lng": "-5.2742",
        "country": "C\u00f4te d\u2019Ivoire"
    },
    {
        "name": "Parav\u016br Tekkumbh\u0101gam",
        "lat": "8.8110",
        "lng": "76.6690",
        "country": "India"
    },
    {
        "name": "Bouznika",
        "lat": "33.7897",
        "lng": "-7.1575",
        "country": "Morocco"
    },
    {
        "name": "Jelily\u00fczi",
        "lat": "43.9749",
        "lng": "81.5328",
        "country": "China"
    },
    {
        "name": "Mankayan",
        "lat": "16.8567",
        "lng": "120.7933",
        "country": "Philippines"
    },
    {
        "name": "M\u00f6lndal",
        "lat": "57.6500",
        "lng": "12.0167",
        "country": "Sweden"
    },
    {
        "name": "Andilamena",
        "lat": "-17.0167",
        "lng": "48.5833",
        "country": "Madagascar"
    },
    {
        "name": "Katsuragi",
        "lat": "34.4833",
        "lng": "135.7333",
        "country": "Japan"
    },
    {
        "name": "Melgar",
        "lat": "4.2039",
        "lng": "-74.6428",
        "country": "Colombia"
    },
    {
        "name": "Kaman",
        "lat": "39.3575",
        "lng": "33.7239",
        "country": "Turkey"
    },
    {
        "name": "Hanover Park",
        "lat": "41.9818",
        "lng": "-88.1446",
        "country": "United States"
    },
    {
        "name": "Alapayevsk",
        "lat": "57.8500",
        "lng": "61.7000",
        "country": "Russia"
    },
    {
        "name": "Vett\u016br",
        "lat": "8.7178",
        "lng": "76.7444",
        "country": "India"
    },
    {
        "name": "Comapa",
        "lat": "14.1167",
        "lng": "-89.9167",
        "country": "Guatemala"
    },
    {
        "name": "Salvatierra",
        "lat": "20.2156",
        "lng": "-100.8961",
        "country": "Mexico"
    },
    {
        "name": "Rukungiri",
        "lat": "-0.7900",
        "lng": "29.9250",
        "country": "Uganda"
    },
    {
        "name": "Leavenworth",
        "lat": "39.3239",
        "lng": "-94.9240",
        "country": "United States"
    },
    {
        "name": "Mangai",
        "lat": "-4.0499",
        "lng": "19.5333",
        "country": "Congo (Kinshasa)"
    },
    {
        "name": "Moerdijk",
        "lat": "51.6500",
        "lng": "4.6000",
        "country": "Netherlands"
    },
    {
        "name": "Chun\u0101r",
        "lat": "25.1300",
        "lng": "82.9000",
        "country": "India"
    },
    {
        "name": "Wangsicun",
        "lat": "37.9975",
        "lng": "116.9238",
        "country": "China"
    },
    {
        "name": "Tunzi",
        "lat": "35.5782",
        "lng": "107.3699",
        "country": "China"
    },
    {
        "name": "Laindon",
        "lat": "51.5740",
        "lng": "0.4181",
        "country": "United Kingdom"
    },
    {
        "name": "Kizilyurt",
        "lat": "43.2167",
        "lng": "46.8667",
        "country": "Russia"
    },
    {
        "name": "Rezh",
        "lat": "57.3667",
        "lng": "61.3667",
        "country": "Russia"
    },
    {
        "name": "Ratia",
        "lat": "29.6833",
        "lng": "75.5750",
        "country": "India"
    },
    {
        "name": "Kadiyam",
        "lat": "16.9167",
        "lng": "81.8333",
        "country": "India"
    },
    {
        "name": "Ciudad Manuel Doblado",
        "lat": "20.7303",
        "lng": "-101.9533",
        "country": "Mexico"
    },
    {
        "name": "Minami-B\u014ds\u014d",
        "lat": "35.0432",
        "lng": "139.8400",
        "country": "Japan"
    },
    {
        "name": "Formia",
        "lat": "41.2667",
        "lng": "13.6167",
        "country": "Italy"
    },
    {
        "name": "Silves",
        "lat": "37.1869",
        "lng": "-8.4389",
        "country": "Portugal"
    },
    {
        "name": "Bantay",
        "lat": "17.5839",
        "lng": "120.3908",
        "country": "Philippines"
    },
    {
        "name": "Bah\u0101durganj",
        "lat": "26.2617",
        "lng": "87.8244",
        "country": "India"
    },
    {
        "name": "Imbatug",
        "lat": "8.3128",
        "lng": "124.6873",
        "country": "Philippines"
    },
    {
        "name": "Ma\u015fy\u0101f",
        "lat": "35.0653",
        "lng": "36.3422",
        "country": "Syria"
    },
    {
        "name": "Obburdon",
        "lat": "40.4278",
        "lng": "69.3047",
        "country": "Tajikistan"
    },
    {
        "name": "Qulsary",
        "lat": "46.9833",
        "lng": "54.0167",
        "country": "Kazakhstan"
    },
    {
        "name": "Adjumani",
        "lat": "3.3772",
        "lng": "31.7906",
        "country": "Uganda"
    },
    {
        "name": "Qo\u2018ng\u2018irot Shahri",
        "lat": "43.0497",
        "lng": "58.8542",
        "country": "Uzbekistan"
    },
    {
        "name": "Bin\u0259q\u0259di",
        "lat": "40.4661",
        "lng": "49.8278",
        "country": "Azerbaijan"
    },
    {
        "name": "Languyan",
        "lat": "5.2667",
        "lng": "120.0833",
        "country": "Philippines"
    },
    {
        "name": "Boryslav",
        "lat": "49.2892",
        "lng": "23.4189",
        "country": "Ukraine"
    },
    {
        "name": "Martinez",
        "lat": "37.9985",
        "lng": "-122.1161",
        "country": "United States"
    },
    {
        "name": "Amarante do Maranh\u00e3o",
        "lat": "-5.6000",
        "lng": "-46.7500",
        "country": "Brazil"
    },
    {
        "name": "Sittard",
        "lat": "51.0000",
        "lng": "5.8667",
        "country": "Netherlands"
    },
    {
        "name": "Long Lama",
        "lat": "3.7644",
        "lng": "114.4039",
        "country": "Malaysia"
    },
    {
        "name": "Kalutara",
        "lat": "6.5869",
        "lng": "79.9603",
        "country": "Sri Lanka"
    },
    {
        "name": "Redcar",
        "lat": "54.6180",
        "lng": "-1.0690",
        "country": "United Kingdom"
    },
    {
        "name": "Jagd\u012bspur",
        "lat": "25.4674",
        "lng": "84.4204",
        "country": "India"
    },
    {
        "name": "Siribala",
        "lat": "14.0419",
        "lng": "-6.0617",
        "country": "Mali"
    },
    {
        "name": "Chork\u016dh",
        "lat": "39.9739",
        "lng": "70.5822",
        "country": "Tajikistan"
    },
    {
        "name": "Prijepolje",
        "lat": "43.3833",
        "lng": "19.6333",
        "country": "Serbia"
    },
    {
        "name": "Porsgrunn",
        "lat": "59.1156",
        "lng": "9.7100",
        "country": "Norway"
    },
    {
        "name": "Cloppenburg",
        "lat": "52.8500",
        "lng": "8.0500",
        "country": "Germany"
    },
    {
        "name": "Sitalkuchi",
        "lat": "26.1697",
        "lng": "89.1914",
        "country": "India"
    },
    {
        "name": "Tok\u0101r",
        "lat": "18.4253",
        "lng": "37.7292",
        "country": "Sudan"
    },
    {
        "name": "Kalinkavichy",
        "lat": "52.1250",
        "lng": "29.3333",
        "country": "Belarus"
    },
    {
        "name": "Llanelli",
        "lat": "51.6840",
        "lng": "-4.1630",
        "country": "United Kingdom"
    },
    {
        "name": "Pujali",
        "lat": "22.4679",
        "lng": "88.1452",
        "country": "India"
    },
    {
        "name": "K\u0101lih\u0101ti",
        "lat": "24.3833",
        "lng": "89.9833",
        "country": "Bangladesh"
    }
]