[
    {
        "name": "Kiyose",
        "lat": "35.7857",
        "lng": "139.5265",
        "country": "Japan"
    },
    {
        "name": "Xinglong",
        "lat": "40.4146",
        "lng": "117.4930",
        "country": "China"
    },
    {
        "name": "Bhadarw\u0101h",
        "lat": "32.9800",
        "lng": "75.7137",
        "country": "India"
    },
    {
        "name": "R\u0101n\u0101gh\u0101t",
        "lat": "23.1800",
        "lng": "88.5800",
        "country": "India"
    },
    {
        "name": "Shadrinsk",
        "lat": "56.1333",
        "lng": "63.6500",
        "country": "Russia"
    },
    {
        "name": "Cheria",
        "lat": "35.2667",
        "lng": "7.7500",
        "country": "Algeria"
    },
    {
        "name": "South Shields",
        "lat": "54.9950",
        "lng": "-1.4300",
        "country": "United Kingdom"
    },
    {
        "name": "Kai",
        "lat": "35.6608",
        "lng": "138.5158",
        "country": "Japan"
    },
    {
        "name": "Bon\u0101b",
        "lat": "37.3428",
        "lng": "46.0617",
        "country": "Iran"
    },
    {
        "name": "Villa Carlos Paz",
        "lat": "-31.4000",
        "lng": "-64.5167",
        "country": "Argentina"
    },
    {
        "name": "Ciudad Real",
        "lat": "38.9833",
        "lng": "-3.9167",
        "country": "Spain"
    },
    {
        "name": "Ardak\u0101n",
        "lat": "32.3061",
        "lng": "54.0081",
        "country": "Iran"
    },
    {
        "name": "C\u1eeda L\u00f4",
        "lat": "18.8167",
        "lng": "105.7167",
        "country": "Vietnam"
    },
    {
        "name": "Acac\u00edas",
        "lat": "3.9878",
        "lng": "-73.7597",
        "country": "Colombia"
    },
    {
        "name": "Frontera",
        "lat": "26.9260",
        "lng": "-101.4490",
        "country": "Mexico"
    },
    {
        "name": "Itapira",
        "lat": "-22.4361",
        "lng": "-46.8217",
        "country": "Brazil"
    },
    {
        "name": "Tissemsilt",
        "lat": "35.6078",
        "lng": "1.8111",
        "country": "Algeria"
    },
    {
        "name": "Pawtucket",
        "lat": "41.8744",
        "lng": "-71.3743",
        "country": "United States"
    },
    {
        "name": "Lagoa Santa",
        "lat": "-19.6269",
        "lng": "-43.8900",
        "country": "Brazil"
    },
    {
        "name": "Dhr\u0101ngadhra",
        "lat": "22.9800",
        "lng": "71.4700",
        "country": "India"
    },
    {
        "name": "Kunitachi",
        "lat": "35.6839",
        "lng": "139.4414",
        "country": "Japan"
    },
    {
        "name": "Dayr al Bala\u1e29",
        "lat": "31.4189",
        "lng": "34.3517",
        "country": "Gaza Strip"
    },
    {
        "name": "Pinamungahan",
        "lat": "10.2700",
        "lng": "123.5800",
        "country": "Philippines"
    },
    {
        "name": "Antibes",
        "lat": "43.5808",
        "lng": "7.1239",
        "country": "France"
    },
    {
        "name": "East Kilbride",
        "lat": "55.7644",
        "lng": "-4.1769",
        "country": "United Kingdom"
    },
    {
        "name": "Teyateyaneng",
        "lat": "-29.1511",
        "lng": "27.7425",
        "country": "Lesotho"
    },
    {
        "name": "Aracati",
        "lat": "-4.5619",
        "lng": "-37.7700",
        "country": "Brazil"
    },
    {
        "name": "Detmold",
        "lat": "51.9378",
        "lng": "8.8833",
        "country": "Germany"
    },
    {
        "name": "Newcastle under Lyme",
        "lat": "53.0109",
        "lng": "-2.2278",
        "country": "United Kingdom"
    },
    {
        "name": "Mawatagama",
        "lat": "7.4245",
        "lng": "80.4399",
        "country": "Sri Lanka"
    },
    {
        "name": "Burton upon Trent",
        "lat": "52.8019",
        "lng": "-1.6367",
        "country": "United Kingdom"
    },
    {
        "name": "Libon",
        "lat": "13.3000",
        "lng": "123.4333",
        "country": "Philippines"
    },
    {
        "name": "Chernogorsk",
        "lat": "53.8167",
        "lng": "91.3000",
        "country": "Russia"
    },
    {
        "name": "Belleville",
        "lat": "44.1667",
        "lng": "-77.3833",
        "country": "Canada"
    },
    {
        "name": "Tel\u00eamaco Borba",
        "lat": "-24.3500",
        "lng": "-50.6167",
        "country": "Brazil"
    },
    {
        "name": "St. Joseph",
        "lat": "39.7598",
        "lng": "-94.8210",
        "country": "United States"
    },
    {
        "name": "Gangammapeta",
        "lat": "18.4980",
        "lng": "83.9642",
        "country": "India"
    },
    {
        "name": "Puqiancun",
        "lat": "23.5723",
        "lng": "114.6122",
        "country": "China"
    },
    {
        "name": "Dubna",
        "lat": "56.7333",
        "lng": "37.1667",
        "country": "Russia"
    },
    {
        "name": "Iju",
        "lat": "6.6107",
        "lng": "3.0857",
        "country": "Nigeria"
    },
    {
        "name": "Wisil",
        "lat": "5.4333",
        "lng": "48.1167",
        "country": "Somalia"
    },
    {
        "name": "Al Mu\u1e29arraq",
        "lat": "26.2500",
        "lng": "50.6167",
        "country": "Bahrain"
    },
    {
        "name": "Khejroli",
        "lat": "27.3700",
        "lng": "75.5700",
        "country": "India"
    },
    {
        "name": "Tirumangalam",
        "lat": "9.8216",
        "lng": "77.9891",
        "country": "India"
    },
    {
        "name": "Pardig\u016bda",
        "lat": "17.3974",
        "lng": "78.5783",
        "country": "India"
    },
    {
        "name": "Warabi",
        "lat": "35.8256",
        "lng": "139.6797",
        "country": "Japan"
    },
    {
        "name": "Bugallon",
        "lat": "15.9200",
        "lng": "120.1800",
        "country": "Philippines"
    },
    {
        "name": "Tocumen",
        "lat": "9.0800",
        "lng": "-79.3800",
        "country": "Panama"
    },
    {
        "name": "Cherry Hill",
        "lat": "39.9034",
        "lng": "-74.9947",
        "country": "United States"
    },
    {
        "name": "Panggezhuang",
        "lat": "39.6336",
        "lng": "116.3178",
        "country": "China"
    },
    {
        "name": "Jaor\u0101",
        "lat": "23.6300",
        "lng": "75.1300",
        "country": "India"
    },
    {
        "name": "Doral",
        "lat": "25.8152",
        "lng": "-80.3565",
        "country": "United States"
    },
    {
        "name": "G\u00f6nen",
        "lat": "40.1014",
        "lng": "27.6514",
        "country": "Turkey"
    },
    {
        "name": "Fouchana",
        "lat": "36.7000",
        "lng": "10.1667",
        "country": "Tunisia"
    },
    {
        "name": "Amakusa",
        "lat": "32.4667",
        "lng": "130.2000",
        "country": "Japan"
    },
    {
        "name": "Tura",
        "lat": "25.5200",
        "lng": "90.2200",
        "country": "India"
    },
    {
        "name": "Amb\u0101jog\u0101i",
        "lat": "18.7300",
        "lng": "76.3800",
        "country": "India"
    },
    {
        "name": "Juchit\u00e1n de Zaragoza",
        "lat": "16.4333",
        "lng": "-95.0167",
        "country": "Mexico"
    },
    {
        "name": "Dabra",
        "lat": "25.8857",
        "lng": "78.3322",
        "country": "India"
    },
    {
        "name": "Ubud",
        "lat": "-8.5069",
        "lng": "115.2624",
        "country": "Indonesia"
    },
    {
        "name": "Sasagawa",
        "lat": "37.2865",
        "lng": "140.3727",
        "country": "Japan"
    },
    {
        "name": "Darhan",
        "lat": "49.4689",
        "lng": "105.9575",
        "country": "Mongolia"
    },
    {
        "name": "Pozorrubio",
        "lat": "16.1200",
        "lng": "120.5500",
        "country": "Philippines"
    },
    {
        "name": "Toffo",
        "lat": "6.8500",
        "lng": "2.0833",
        "country": "Benin"
    },
    {
        "name": "Tiznit",
        "lat": "29.7167",
        "lng": "-9.7167",
        "country": "Morocco"
    },
    {
        "name": "Esperanza",
        "lat": "6.7167",
        "lng": "124.5167",
        "country": "Philippines"
    },
    {
        "name": "Tangui\u00e9ta",
        "lat": "10.6167",
        "lng": "1.2667",
        "country": "Benin"
    },
    {
        "name": "Tosu",
        "lat": "33.3833",
        "lng": "130.5000",
        "country": "Japan"
    },
    {
        "name": "Moulay Abdallah",
        "lat": "33.1978",
        "lng": "-8.5883",
        "country": "Morocco"
    },
    {
        "name": "Cotorro",
        "lat": "23.0261",
        "lng": "-82.2475",
        "country": "Cuba"
    },
    {
        "name": "Drohobych",
        "lat": "49.3500",
        "lng": "23.5000",
        "country": "Ukraine"
    },
    {
        "name": "Dalaguete",
        "lat": "9.7612",
        "lng": "123.5349",
        "country": "Philippines"
    },
    {
        "name": "Pira\u00e7ununga",
        "lat": "-21.9961",
        "lng": "-47.4258",
        "country": "Brazil"
    },
    {
        "name": "Ouro Pr\u00eato",
        "lat": "-20.3853",
        "lng": "-43.5036",
        "country": "Brazil"
    },
    {
        "name": "Cinisello Balsamo",
        "lat": "45.5500",
        "lng": "9.2167",
        "country": "Italy"
    },
    {
        "name": "Missouri City",
        "lat": "29.5630",
        "lng": "-95.5365",
        "country": "United States"
    },
    {
        "name": "Dayong",
        "lat": "22.4653",
        "lng": "113.3004",
        "country": "China"
    },
    {
        "name": "Bayreuth",
        "lat": "49.9481",
        "lng": "11.5783",
        "country": "Germany"
    },
    {
        "name": "\u012a\u1e6dahari\u0307\u0304",
        "lat": "26.6631",
        "lng": "87.2744",
        "country": "Nepal"
    },
    {
        "name": "P\u00e9da-Hou\u00e9yogb\u00e9",
        "lat": "6.4500",
        "lng": "1.9333",
        "country": "Benin"
    },
    {
        "name": "Katori",
        "lat": "35.6833",
        "lng": "140.0333",
        "country": "Japan"
    },
    {
        "name": "Kandori",
        "lat": "35.6796",
        "lng": "139.9062",
        "country": "Japan"
    },
    {
        "name": "Shancheng",
        "lat": "34.7904",
        "lng": "116.0800",
        "country": "China"
    },
    {
        "name": "Boz\u00fcy\u00fck",
        "lat": "39.9078",
        "lng": "30.0367",
        "country": "Turkey"
    },
    {
        "name": "San Antonio de Los Altos",
        "lat": "10.3744",
        "lng": "-66.9669",
        "country": "Venezuela"
    },
    {
        "name": "Assab",
        "lat": "13.0167",
        "lng": "42.7333",
        "country": "Eritrea"
    },
    {
        "name": "Gbawe",
        "lat": "5.5767",
        "lng": "-0.3108",
        "country": "Ghana"
    },
    {
        "name": "Skellefte\u00e5",
        "lat": "64.7500",
        "lng": "20.9500",
        "country": "Sweden"
    },
    {
        "name": "Balingasag",
        "lat": "8.7500",
        "lng": "124.7800",
        "country": "Philippines"
    },
    {
        "name": "Saratoga Springs",
        "lat": "43.0674",
        "lng": "-73.7775",
        "country": "United States"
    },
    {
        "name": "Arnsberg",
        "lat": "51.3833",
        "lng": "8.0833",
        "country": "Germany"
    },
    {
        "name": "Wandiw\u0101sh",
        "lat": "12.5000",
        "lng": "79.6200",
        "country": "India"
    },
    {
        "name": "Ouak\u00e9",
        "lat": "9.6617",
        "lng": "1.3847",
        "country": "Benin"
    },
    {
        "name": "R\u0101mhormoz",
        "lat": "31.2753",
        "lng": "49.6044",
        "country": "Iran"
    },
    {
        "name": "Pocatello",
        "lat": "42.8724",
        "lng": "-112.4647",
        "country": "United States"
    },
    {
        "name": "Bongouanou",
        "lat": "6.6500",
        "lng": "-4.2000",
        "country": "C\u00f4te d\u2019Ivoire"
    },
    {
        "name": "San Juan Opico",
        "lat": "13.8833",
        "lng": "-89.3500",
        "country": "El Salvador"
    },
    {
        "name": "Miki",
        "lat": "34.7936",
        "lng": "134.9931",
        "country": "Japan"
    },
    {
        "name": "Oshkosh",
        "lat": "44.0227",
        "lng": "-88.5619",
        "country": "United States"
    },
    {
        "name": "Uspant\u00e1n",
        "lat": "15.3458",
        "lng": "-90.8694",
        "country": "Guatemala"
    }
]