[
    {
        "name": "Lunsar",
        "lat": "8.6833",
        "lng": "-12.5333",
        "country": "Sierra Leone"
    },
    {
        "name": "Creil",
        "lat": "49.2583",
        "lng": "2.4833",
        "country": "France"
    },
    {
        "name": "Hilliard",
        "lat": "40.0353",
        "lng": "-83.1578",
        "country": "United States"
    },
    {
        "name": "Girau do Ponciano",
        "lat": "-9.8839",
        "lng": "-36.8289",
        "country": "Brazil"
    },
    {
        "name": "Ch\u00e2telet",
        "lat": "50.4000",
        "lng": "4.5167",
        "country": "Belgium"
    },
    {
        "name": "Al Jab\u0101yish",
        "lat": "30.9549",
        "lng": "46.9751",
        "country": "Iraq"
    },
    {
        "name": "Frankston",
        "lat": "-38.1333",
        "lng": "145.1167",
        "country": "Australia"
    },
    {
        "name": "Apodi",
        "lat": "-5.6639",
        "lng": "-37.7989",
        "country": "Brazil"
    },
    {
        "name": "Gutalac",
        "lat": "7.9800",
        "lng": "122.4000",
        "country": "Philippines"
    },
    {
        "name": "Castricum",
        "lat": "52.5500",
        "lng": "4.6667",
        "country": "Netherlands"
    },
    {
        "name": "Kamenic\u00eb",
        "lat": "42.5839",
        "lng": "21.5750",
        "country": "Kosovo"
    },
    {
        "name": "Berrioz\u00e1bal",
        "lat": "16.8003",
        "lng": "-93.2733",
        "country": "Mexico"
    },
    {
        "name": "Sunbury",
        "lat": "-37.5811",
        "lng": "144.7139",
        "country": "Australia"
    },
    {
        "name": "El Plan",
        "lat": "37.6405",
        "lng": "-1.0085",
        "country": "Spain"
    },
    {
        "name": "East Kelowna",
        "lat": "49.8625",
        "lng": "-119.5833",
        "country": "Canada"
    },
    {
        "name": "Kanada",
        "lat": "33.7758",
        "lng": "130.9806",
        "country": "Japan"
    },
    {
        "name": "Moorpark",
        "lat": "34.2861",
        "lng": "-118.8768",
        "country": "United States"
    },
    {
        "name": "Sokol",
        "lat": "59.4667",
        "lng": "40.1167",
        "country": "Russia"
    },
    {
        "name": "Maspalomas",
        "lat": "27.7667",
        "lng": "-15.5833",
        "country": "Spain"
    },
    {
        "name": "Piu\u00ed",
        "lat": "-20.4650",
        "lng": "-45.9578",
        "country": "Brazil"
    },
    {
        "name": "Pioltello",
        "lat": "45.5000",
        "lng": "9.3333",
        "country": "Italy"
    },
    {
        "name": "Limburg",
        "lat": "50.3833",
        "lng": "8.0667",
        "country": "Germany"
    },
    {
        "name": "Sibuco",
        "lat": "7.2928",
        "lng": "122.0669",
        "country": "Philippines"
    },
    {
        "name": "Hiller\u00f8d",
        "lat": "55.9333",
        "lng": "12.3167",
        "country": "Denmark"
    },
    {
        "name": "Tamamura",
        "lat": "36.3044",
        "lng": "139.1149",
        "country": "Japan"
    },
    {
        "name": "Matanog",
        "lat": "7.4700",
        "lng": "124.2500",
        "country": "Philippines"
    },
    {
        "name": "Masasi",
        "lat": "-10.7296",
        "lng": "38.7999",
        "country": "Tanzania"
    },
    {
        "name": "Vempalle",
        "lat": "14.3667",
        "lng": "78.4667",
        "country": "India"
    },
    {
        "name": "Wai",
        "lat": "17.9500",
        "lng": "73.8900",
        "country": "India"
    },
    {
        "name": "Vir\u00fa",
        "lat": "-8.4143",
        "lng": "-78.7524",
        "country": "Peru"
    },
    {
        "name": "Bombardopolis",
        "lat": "19.7000",
        "lng": "-73.3333",
        "country": "Haiti"
    },
    {
        "name": "M\u0101lpura",
        "lat": "26.2800",
        "lng": "75.3800",
        "country": "India"
    },
    {
        "name": "Saparua",
        "lat": "-3.5749",
        "lng": "128.6470",
        "country": "Indonesia"
    },
    {
        "name": "Pih\u0101n\u012b",
        "lat": "27.6199",
        "lng": "80.2034",
        "country": "India"
    },
    {
        "name": "Guayaramer\u00edn",
        "lat": "-10.8000",
        "lng": "-65.3833",
        "country": "Bolivia"
    },
    {
        "name": "Bel-Air",
        "lat": "14.5639",
        "lng": "121.0263",
        "country": "Philippines"
    },
    {
        "name": "\u017bary",
        "lat": "51.6333",
        "lng": "15.1333",
        "country": "Poland"
    },
    {
        "name": "Shirdi",
        "lat": "19.7700",
        "lng": "74.4800",
        "country": "India"
    },
    {
        "name": "Ingelheim",
        "lat": "49.9747",
        "lng": "8.0564",
        "country": "Germany"
    },
    {
        "name": "San Carlos Sija",
        "lat": "14.9833",
        "lng": "-91.5500",
        "country": "Guatemala"
    },
    {
        "name": "Vohipeno",
        "lat": "-17.1667",
        "lng": "49.3000",
        "country": "Madagascar"
    },
    {
        "name": "Ampasina-Maningory",
        "lat": "-17.2167",
        "lng": "49.4167",
        "country": "Madagascar"
    },
    {
        "name": "Mugumu",
        "lat": "-1.8333",
        "lng": "34.6667",
        "country": "Tanzania"
    },
    {
        "name": "Bugiri",
        "lat": "0.5694",
        "lng": "33.7486",
        "country": "Uganda"
    },
    {
        "name": "Farafenni",
        "lat": "13.5667",
        "lng": "-15.6000",
        "country": "Gambia, The"
    },
    {
        "name": "N\u012bm ka Th\u0101na",
        "lat": "27.7350",
        "lng": "75.7797",
        "country": "India"
    },
    {
        "name": "Taloda",
        "lat": "21.5607",
        "lng": "74.2200",
        "country": "India"
    },
    {
        "name": "Egypt Lake-Leto",
        "lat": "28.0177",
        "lng": "-82.5062",
        "country": "United States"
    },
    {
        "name": "R\u0101msar",
        "lat": "36.9225",
        "lng": "50.6431",
        "country": "Iran"
    },
    {
        "name": "Naduvattam",
        "lat": "11.0583",
        "lng": "75.8569",
        "country": "India"
    },
    {
        "name": "Chekkal",
        "lat": "8.3653",
        "lng": "77.1075",
        "country": "India"
    },
    {
        "name": "Krong Kep",
        "lat": "10.4875",
        "lng": "104.3208",
        "country": "Cambodia"
    },
    {
        "name": "Farmers Branch",
        "lat": "32.9272",
        "lng": "-96.8804",
        "country": "United States"
    },
    {
        "name": "Tlokweng",
        "lat": "-24.6667",
        "lng": "25.9667",
        "country": "Botswana"
    },
    {
        "name": "Arroyomolinos",
        "lat": "40.2667",
        "lng": "-3.9000",
        "country": "Spain"
    },
    {
        "name": "Boyarka",
        "lat": "70.7670",
        "lng": "97.5000",
        "country": "Russia"
    },
    {
        "name": "Pandan",
        "lat": "11.7206",
        "lng": "122.0961",
        "country": "Philippines"
    },
    {
        "name": "Sar\u0131g\u00f6l",
        "lat": "38.2381",
        "lng": "28.6961",
        "country": "Turkey"
    },
    {
        "name": "Seika",
        "lat": "34.7608",
        "lng": "135.7858",
        "country": "Japan"
    },
    {
        "name": "Saint-Rapha\u00ebl",
        "lat": "43.4252",
        "lng": "6.7684",
        "country": "France"
    },
    {
        "name": "Uto",
        "lat": "32.6828",
        "lng": "130.6669",
        "country": "Japan"
    },
    {
        "name": "Tarikere",
        "lat": "13.7104",
        "lng": "75.8122",
        "country": "India"
    },
    {
        "name": "Oued Athmenia",
        "lat": "36.2497",
        "lng": "6.2861",
        "country": "Algeria"
    },
    {
        "name": "Anloga",
        "lat": "5.7919",
        "lng": "0.9003",
        "country": "Ghana"
    },
    {
        "name": "Hellendoorn",
        "lat": "52.3667",
        "lng": "6.4667",
        "country": "Netherlands"
    },
    {
        "name": "Rumonge",
        "lat": "-3.9667",
        "lng": "29.4333",
        "country": "Burundi"
    },
    {
        "name": "Kamenka",
        "lat": "53.1833",
        "lng": "44.0500",
        "country": "Russia"
    },
    {
        "name": "Conflans-Sainte-Honorine",
        "lat": "48.9992",
        "lng": "2.0983",
        "country": "France"
    },
    {
        "name": "Az\u0327 Z\u0327\u0101hir\u012byah",
        "lat": "31.4078",
        "lng": "34.9722",
        "country": "West Bank"
    },
    {
        "name": "San Lorenzo de Guayub\u00edn",
        "lat": "19.6200",
        "lng": "-71.3300",
        "country": "Dominican Republic"
    },
    {
        "name": "Yangshuwa",
        "lat": "34.7647",
        "lng": "111.7603",
        "country": "China"
    },
    {
        "name": "Lauderdale Lakes",
        "lat": "26.1682",
        "lng": "-80.2017",
        "country": "United States"
    },
    {
        "name": "Villefranche-sur-Sa\u00f4ne",
        "lat": "45.9833",
        "lng": "4.7167",
        "country": "France"
    },
    {
        "name": "Mokokch\u016bng",
        "lat": "26.3200",
        "lng": "94.5000",
        "country": "India"
    },
    {
        "name": "Chillum",
        "lat": "38.9666",
        "lng": "-76.9791",
        "country": "United States"
    },
    {
        "name": "Majhaul",
        "lat": "25.5570",
        "lng": "86.1280",
        "country": "India"
    },
    {
        "name": "Kakhovka",
        "lat": "46.7978",
        "lng": "33.4750",
        "country": "Ukraine"
    },
    {
        "name": "Malmesbury",
        "lat": "-33.4500",
        "lng": "18.7333",
        "country": "South Africa"
    },
    {
        "name": "Daiyue",
        "lat": "39.5284",
        "lng": "112.8056",
        "country": "China"
    },
    {
        "name": "Hyde",
        "lat": "53.4474",
        "lng": "-2.0820",
        "country": "United Kingdom"
    },
    {
        "name": "Chernyakhovsk",
        "lat": "54.6347",
        "lng": "21.8119",
        "country": "Russia"
    },
    {
        "name": "Dinangorou",
        "lat": "14.4519",
        "lng": "-2.2419",
        "country": "Mali"
    },
    {
        "name": "Part\u016br",
        "lat": "19.5911",
        "lng": "76.2161",
        "country": "India"
    },
    {
        "name": "Chieri",
        "lat": "45.0125",
        "lng": "7.8250",
        "country": "Italy"
    },
    {
        "name": "G\u00f6r\u00fckle",
        "lat": "40.2333",
        "lng": "28.8333",
        "country": "Turkey"
    },
    {
        "name": "Meyzieu",
        "lat": "45.7667",
        "lng": "5.0036",
        "country": "France"
    },
    {
        "name": "Santa Cruz Verapaz",
        "lat": "15.3667",
        "lng": "-90.4333",
        "country": "Guatemala"
    },
    {
        "name": "Lyudinovo",
        "lat": "53.8667",
        "lng": "34.4333",
        "country": "Russia"
    },
    {
        "name": "Hendon",
        "lat": "51.5837",
        "lng": "-0.2252",
        "country": "United Kingdom"
    },
    {
        "name": "Caivano",
        "lat": "40.9500",
        "lng": "14.3000",
        "country": "Italy"
    },
    {
        "name": "Dumb\u00e9a",
        "lat": "-22.1500",
        "lng": "166.4500",
        "country": "New Caledonia"
    },
    {
        "name": "Vyazniki",
        "lat": "56.2500",
        "lng": "42.1667",
        "country": "Russia"
    },
    {
        "name": "Jal\u0101rpet",
        "lat": "12.5703",
        "lng": "78.5732",
        "country": "India"
    },
    {
        "name": "Dar Chabanne",
        "lat": "36.4700",
        "lng": "10.7500",
        "country": "Tunisia"
    },
    {
        "name": "Maragogipe",
        "lat": "-12.7778",
        "lng": "-38.9189",
        "country": "Brazil"
    },
    {
        "name": "Tirkadav\u016br",
        "lat": "8.9206",
        "lng": "76.5948",
        "country": "India"
    },
    {
        "name": "Ole\u015bnica",
        "lat": "51.2000",
        "lng": "17.3833",
        "country": "Poland"
    },
    {
        "name": "Beja",
        "lat": "38.0333",
        "lng": "-7.8833",
        "country": "Portugal"
    },
    {
        "name": "Orangevale",
        "lat": "38.6881",
        "lng": "-121.2209",
        "country": "United States"
    },
    {
        "name": "Falkirk",
        "lat": "56.0011",
        "lng": "-3.7835",
        "country": "United Kingdom"
    }
]