[
    {
        "name": "N\u2019Gaous",
        "lat": "35.5550",
        "lng": "5.6106",
        "country": "Algeria"
    },
    {
        "name": "Dongyuya",
        "lat": "29.5619",
        "lng": "111.0350",
        "country": "China"
    },
    {
        "name": "Sint-Michielsgestel",
        "lat": "51.6333",
        "lng": "5.3500",
        "country": "Netherlands"
    },
    {
        "name": "Duanzhuang",
        "lat": "36.5796",
        "lng": "111.7577",
        "country": "China"
    },
    {
        "name": "Hutto",
        "lat": "30.5396",
        "lng": "-97.5440",
        "country": "United States"
    },
    {
        "name": "Fountain",
        "lat": "38.6886",
        "lng": "-104.6829",
        "country": "United States"
    },
    {
        "name": "M\u012bn\u0101d",
        "lat": "8.8500",
        "lng": "76.6958",
        "country": "India"
    },
    {
        "name": "Garfield Heights",
        "lat": "41.4199",
        "lng": "-81.6038",
        "country": "United States"
    },
    {
        "name": "Ja\u2018\u0101r",
        "lat": "13.2231",
        "lng": "45.3056",
        "country": "Yemen"
    },
    {
        "name": "August\u00f3w",
        "lat": "53.8436",
        "lng": "22.9794",
        "country": "Poland"
    },
    {
        "name": "Lalla Mimouna",
        "lat": "34.8500",
        "lng": "-6.0669",
        "country": "Morocco"
    },
    {
        "name": "Kumalarang",
        "lat": "7.7478",
        "lng": "123.1442",
        "country": "Philippines"
    },
    {
        "name": "Flandes",
        "lat": "4.2833",
        "lng": "-74.8000",
        "country": "Colombia"
    },
    {
        "name": "Esc\u00e1rcega",
        "lat": "18.6067",
        "lng": "-90.7344",
        "country": "Mexico"
    },
    {
        "name": "Melrose",
        "lat": "42.4556",
        "lng": "-71.0590",
        "country": "United States"
    },
    {
        "name": "Northfleet",
        "lat": "51.4400",
        "lng": "0.3400",
        "country": "United Kingdom"
    },
    {
        "name": "Arari",
        "lat": "-3.4539",
        "lng": "-44.7800",
        "country": "Brazil"
    },
    {
        "name": "Manticao",
        "lat": "8.4042",
        "lng": "124.2867",
        "country": "Philippines"
    },
    {
        "name": "Sankaridrug",
        "lat": "11.4745",
        "lng": "77.8691",
        "country": "India"
    },
    {
        "name": "Yangshuling",
        "lat": "40.9942",
        "lng": "118.8791",
        "country": "China"
    },
    {
        "name": "Fritissa",
        "lat": "33.6167",
        "lng": "-3.5500",
        "country": "Morocco"
    },
    {
        "name": "Nejapa",
        "lat": "13.8167",
        "lng": "-89.2333",
        "country": "El Salvador"
    },
    {
        "name": "Brecht",
        "lat": "51.3500",
        "lng": "4.6333",
        "country": "Belgium"
    },
    {
        "name": "Demb\u012b Dolo",
        "lat": "8.5353",
        "lng": "34.8003",
        "country": "Ethiopia"
    },
    {
        "name": "Zaltbommel",
        "lat": "51.8000",
        "lng": "5.2500",
        "country": "Netherlands"
    },
    {
        "name": "Charenton-le-Pont",
        "lat": "48.8265",
        "lng": "2.4050",
        "country": "France"
    },
    {
        "name": "West Windsor",
        "lat": "40.2897",
        "lng": "-74.6266",
        "country": "United States"
    },
    {
        "name": "Northeim",
        "lat": "51.7067",
        "lng": "10.0011",
        "country": "Germany"
    },
    {
        "name": "Tournefeuille",
        "lat": "43.5853",
        "lng": "1.3442",
        "country": "France"
    },
    {
        "name": "McCandless",
        "lat": "40.5836",
        "lng": "-80.0283",
        "country": "United States"
    },
    {
        "name": "Pirakk\u0101d",
        "lat": "9.3500",
        "lng": "76.3500",
        "country": "India"
    },
    {
        "name": "Juchitepec",
        "lat": "19.0997",
        "lng": "-98.8792",
        "country": "Mexico"
    },
    {
        "name": "Garchitorena",
        "lat": "13.8800",
        "lng": "123.7000",
        "country": "Philippines"
    },
    {
        "name": "Ibr\u0101h\u012bmpatnam",
        "lat": "16.5830",
        "lng": "80.5143",
        "country": "India"
    },
    {
        "name": "M\u016bdbidri",
        "lat": "12.9101",
        "lng": "75.0030",
        "country": "India"
    },
    {
        "name": "Bujaru",
        "lat": "-1.5167",
        "lng": "-48.0167",
        "country": "Brazil"
    },
    {
        "name": "\u0100tmak\u016br",
        "lat": "14.6167",
        "lng": "79.6167",
        "country": "India"
    },
    {
        "name": "Pueblo Nuevo Vi\u00f1as",
        "lat": "14.2333",
        "lng": "-90.4667",
        "country": "Guatemala"
    },
    {
        "name": "Vadakku Valliy\u016br",
        "lat": "8.3829",
        "lng": "77.6122",
        "country": "India"
    },
    {
        "name": "Uthal",
        "lat": "25.8000",
        "lng": "66.6167",
        "country": "Pakistan"
    },
    {
        "name": "Krimpen aan den IJssel",
        "lat": "51.9167",
        "lng": "4.5833",
        "country": "Netherlands"
    },
    {
        "name": "Tizi Gheniff",
        "lat": "36.5833",
        "lng": "3.7667",
        "country": "Algeria"
    },
    {
        "name": "Perafita",
        "lat": "41.2240",
        "lng": "-8.6980",
        "country": "Portugal"
    },
    {
        "name": "Guyancourt",
        "lat": "48.7714",
        "lng": "2.0739",
        "country": "France"
    },
    {
        "name": "Cramlington",
        "lat": "55.0820",
        "lng": "-1.5850",
        "country": "United Kingdom"
    },
    {
        "name": "Funchal",
        "lat": "32.6500",
        "lng": "-16.9167",
        "country": "Portugal"
    },
    {
        "name": "Kyegegwa",
        "lat": "0.4803",
        "lng": "31.0547",
        "country": "Uganda"
    },
    {
        "name": "Golden Gate",
        "lat": "26.1844",
        "lng": "-81.7031",
        "country": "United States"
    },
    {
        "name": "Figuil",
        "lat": "9.7667",
        "lng": "13.9667",
        "country": "Cameroon"
    },
    {
        "name": "Espig\u00e3o D\u2019Oeste",
        "lat": "-11.5247",
        "lng": "-61.0128",
        "country": "Brazil"
    },
    {
        "name": "Buda\u00f6rs",
        "lat": "47.4607",
        "lng": "18.9580",
        "country": "Hungary"
    },
    {
        "name": "Pontedera",
        "lat": "43.6625",
        "lng": "10.6328",
        "country": "Italy"
    },
    {
        "name": "Lavezares",
        "lat": "12.5300",
        "lng": "124.3300",
        "country": "Philippines"
    },
    {
        "name": "Bagong Pag-Asa",
        "lat": "14.6622",
        "lng": "121.0331",
        "country": "Philippines"
    },
    {
        "name": "Kostomuksha",
        "lat": "64.5833",
        "lng": "30.6000",
        "country": "Russia"
    },
    {
        "name": "L\u0101merd",
        "lat": "27.3336",
        "lng": "53.1886",
        "country": "Iran"
    },
    {
        "name": "Brownsburg",
        "lat": "39.8337",
        "lng": "-86.3830",
        "country": "United States"
    },
    {
        "name": "Likino-Dulevo",
        "lat": "55.7167",
        "lng": "38.9500",
        "country": "Russia"
    },
    {
        "name": "L\u2019Arbaa Na\u00eft Irathen",
        "lat": "36.6367",
        "lng": "4.2067",
        "country": "Algeria"
    },
    {
        "name": "Bluffton",
        "lat": "32.2135",
        "lng": "-80.9316",
        "country": "United States"
    },
    {
        "name": "Marar",
        "lat": "25.5392",
        "lng": "86.5074",
        "country": "India"
    },
    {
        "name": "Santiago de Baney",
        "lat": "3.7000",
        "lng": "8.9167",
        "country": "Equatorial Guinea"
    },
    {
        "name": "B\u0101glung",
        "lat": "28.2667",
        "lng": "83.6000",
        "country": "Nepal"
    },
    {
        "name": "Crofton",
        "lat": "39.0144",
        "lng": "-76.6800",
        "country": "United States"
    },
    {
        "name": "Kavaj\u00eb",
        "lat": "41.1842",
        "lng": "19.5619",
        "country": "Albania"
    },
    {
        "name": "Carney",
        "lat": "39.4050",
        "lng": "-76.5235",
        "country": "United States"
    },
    {
        "name": "Suisun City",
        "lat": "38.2473",
        "lng": "-122.0091",
        "country": "United States"
    },
    {
        "name": "Didi\u00e9ni",
        "lat": "13.8833",
        "lng": "-8.1000",
        "country": "Mali"
    },
    {
        "name": "Prainha",
        "lat": "-1.8000",
        "lng": "-53.4800",
        "country": "Brazil"
    },
    {
        "name": "P\u00f3voa de Santa Iria",
        "lat": "38.8620",
        "lng": "-9.0690",
        "country": "Portugal"
    },
    {
        "name": "Pilachikare",
        "lat": "12.0855",
        "lng": "75.2545",
        "country": "India"
    },
    {
        "name": "Ra\u2019s al \u2018Ayn",
        "lat": "36.8503",
        "lng": "40.0706",
        "country": "Syria"
    },
    {
        "name": "Gl\u00f3ria do Goit\u00e1",
        "lat": "-8.0019",
        "lng": "-35.2928",
        "country": "Brazil"
    },
    {
        "name": "Casma",
        "lat": "-9.4742",
        "lng": "-78.3106",
        "country": "Peru"
    },
    {
        "name": "Pattikonda",
        "lat": "15.4000",
        "lng": "77.5167",
        "country": "India"
    },
    {
        "name": "Nalakadoddi",
        "lat": "15.4000",
        "lng": "77.5167",
        "country": "India"
    },
    {
        "name": "Castelvetrano",
        "lat": "37.6833",
        "lng": "12.7931",
        "country": "Italy"
    },
    {
        "name": "Madang",
        "lat": "-5.2167",
        "lng": "145.8000",
        "country": "Papua New Guinea"
    },
    {
        "name": "Asipovichy",
        "lat": "53.2933",
        "lng": "28.4756",
        "country": "Belarus"
    },
    {
        "name": "Aralam",
        "lat": "11.9992",
        "lng": "75.7640",
        "country": "India"
    },
    {
        "name": "Pignon",
        "lat": "19.3333",
        "lng": "-72.1167",
        "country": "Haiti"
    },
    {
        "name": "Glenville",
        "lat": "42.8869",
        "lng": "-73.9925",
        "country": "United States"
    },
    {
        "name": "T\u00f6nisvorst",
        "lat": "51.3208",
        "lng": "6.4931",
        "country": "Germany"
    },
    {
        "name": "Shikharpur",
        "lat": "27.7467",
        "lng": "85.5097",
        "country": "Nepal"
    },
    {
        "name": "Mioveni",
        "lat": "44.9569",
        "lng": "24.9406",
        "country": "Romania"
    },
    {
        "name": "Catarroja",
        "lat": "39.4028",
        "lng": "-0.4044",
        "country": "Spain"
    },
    {
        "name": "Guotang",
        "lat": "23.8384",
        "lng": "115.9201",
        "country": "China"
    },
    {
        "name": "Pitou",
        "lat": "23.8775",
        "lng": "120.4706",
        "country": "Taiwan"
    },
    {
        "name": "Y\u014dr\u014d",
        "lat": "35.3084",
        "lng": "136.5614",
        "country": "Japan"
    },
    {
        "name": "Kirkwood",
        "lat": "38.5788",
        "lng": "-90.4203",
        "country": "United States"
    },
    {
        "name": "Ski",
        "lat": "59.7419",
        "lng": "10.8939",
        "country": "Norway"
    },
    {
        "name": "Vaihingen an der Enz",
        "lat": "48.9328",
        "lng": "8.9564",
        "country": "Germany"
    },
    {
        "name": "Swarz\u0119dz",
        "lat": "52.4083",
        "lng": "17.0714",
        "country": "Poland"
    },
    {
        "name": "Benhao",
        "lat": "18.6122",
        "lng": "109.9587",
        "country": "China"
    },
    {
        "name": "Sun City Center",
        "lat": "27.7150",
        "lng": "-82.3569",
        "country": "United States"
    },
    {
        "name": "Arfoud",
        "lat": "31.4361",
        "lng": "-4.2328",
        "country": "Morocco"
    },
    {
        "name": "Shuangtian",
        "lat": "22.8640",
        "lng": "114.5443",
        "country": "China"
    },
    {
        "name": "Magna",
        "lat": "40.7634",
        "lng": "-112.1599",
        "country": "United States"
    },
    {
        "name": "Namaacha",
        "lat": "-25.9667",
        "lng": "32.0333",
        "country": "Mozambique"
    },
    {
        "name": "Chalatenango",
        "lat": "14.0333",
        "lng": "-88.9333",
        "country": "El Salvador"
    }
]