[
    {
        "name": "Manitowoc",
        "lat": "44.0991",
        "lng": "-87.6812",
        "country": "United States"
    },
    {
        "name": "Barugo",
        "lat": "11.3200",
        "lng": "124.7300",
        "country": "Philippines"
    },
    {
        "name": "Sadda",
        "lat": "33.7056",
        "lng": "70.3292",
        "country": "Pakistan"
    },
    {
        "name": "Akouda",
        "lat": "35.8714",
        "lng": "10.5697",
        "country": "Tunisia"
    },
    {
        "name": "Fairborn",
        "lat": "39.8010",
        "lng": "-84.0094",
        "country": "United States"
    },
    {
        "name": "Brzeg",
        "lat": "50.8667",
        "lng": "17.4833",
        "country": "Poland"
    },
    {
        "name": "Ballesteros",
        "lat": "18.4108",
        "lng": "121.5169",
        "country": "Philippines"
    },
    {
        "name": "Ocuilan de Arteaga",
        "lat": "19.0000",
        "lng": "-99.4000",
        "country": "Mexico"
    },
    {
        "name": "Shangzhen",
        "lat": "33.7116",
        "lng": "110.2575",
        "country": "China"
    },
    {
        "name": "Bodoc\u00f3",
        "lat": "-7.7778",
        "lng": "-39.9408",
        "country": "Brazil"
    },
    {
        "name": "Curuz\u00fa Cuati\u00e1",
        "lat": "-29.7833",
        "lng": "-58.0833",
        "country": "Argentina"
    },
    {
        "name": "Ger\u0101sh",
        "lat": "27.6667",
        "lng": "54.1411",
        "country": "Iran"
    },
    {
        "name": "Formigine",
        "lat": "44.6072",
        "lng": "10.9333",
        "country": "Italy"
    },
    {
        "name": "Aloguinsan",
        "lat": "10.2229",
        "lng": "123.5491",
        "country": "Philippines"
    },
    {
        "name": "San Dimas",
        "lat": "34.1082",
        "lng": "-117.8090",
        "country": "United States"
    },
    {
        "name": "Smolyan",
        "lat": "41.5833",
        "lng": "24.7000",
        "country": "Bulgaria"
    },
    {
        "name": "Nishihara",
        "lat": "26.2167",
        "lng": "127.7667",
        "country": "Japan"
    },
    {
        "name": "Schoten",
        "lat": "51.2500",
        "lng": "4.5000",
        "country": "Belgium"
    },
    {
        "name": "Mazarr\u00f3n",
        "lat": "37.5983",
        "lng": "-1.3139",
        "country": "Spain"
    },
    {
        "name": "Stow",
        "lat": "41.1765",
        "lng": "-81.4344",
        "country": "United States"
    },
    {
        "name": "Motosu",
        "lat": "35.4830",
        "lng": "136.6786",
        "country": "Japan"
    },
    {
        "name": "Banes",
        "lat": "20.9697",
        "lng": "-75.7117",
        "country": "Cuba"
    },
    {
        "name": "Madakalav\u0101ripalli",
        "lat": "14.7475",
        "lng": "79.0843",
        "country": "India"
    },
    {
        "name": "Canicatt\u00ec",
        "lat": "37.3667",
        "lng": "13.8500",
        "country": "Italy"
    },
    {
        "name": "M\u00e2con",
        "lat": "46.3063",
        "lng": "4.8313",
        "country": "France"
    },
    {
        "name": "Hatibanda",
        "lat": "24.2105",
        "lng": "90.1492",
        "country": "Bangladesh"
    },
    {
        "name": "Bela Vista de Goi\u00e1s",
        "lat": "-16.9667",
        "lng": "-48.9500",
        "country": "Brazil"
    },
    {
        "name": "Sambir",
        "lat": "49.5167",
        "lng": "23.2028",
        "country": "Ukraine"
    },
    {
        "name": "Zaidpur",
        "lat": "26.8300",
        "lng": "81.3300",
        "country": "India"
    },
    {
        "name": "Sochaczew",
        "lat": "52.2333",
        "lng": "20.2333",
        "country": "Poland"
    },
    {
        "name": "Kalasin",
        "lat": "16.4342",
        "lng": "103.5092",
        "country": "Thailand"
    },
    {
        "name": "Fort Libert\u00e9",
        "lat": "19.6678",
        "lng": "-71.8397",
        "country": "Haiti"
    },
    {
        "name": "Exmouth",
        "lat": "50.6200",
        "lng": "-3.4130",
        "country": "United Kingdom"
    },
    {
        "name": "McMinnville",
        "lat": "45.2110",
        "lng": "-123.1918",
        "country": "United States"
    },
    {
        "name": "Ye",
        "lat": "15.2467",
        "lng": "97.8556",
        "country": "Burma"
    },
    {
        "name": "Mnasra",
        "lat": "34.7667",
        "lng": "-5.5167",
        "country": "Morocco"
    },
    {
        "name": "Got\u014d",
        "lat": "32.7000",
        "lng": "128.8333",
        "country": "Japan"
    },
    {
        "name": "North Shields",
        "lat": "55.0097",
        "lng": "-1.4448",
        "country": "United Kingdom"
    },
    {
        "name": "Centenario",
        "lat": "-38.8000",
        "lng": "-68.1333",
        "country": "Argentina"
    },
    {
        "name": "Kuji",
        "lat": "40.1905",
        "lng": "141.7757",
        "country": "Japan"
    },
    {
        "name": "College Park",
        "lat": "38.9960",
        "lng": "-76.9337",
        "country": "United States"
    },
    {
        "name": "Merauke",
        "lat": "-8.4932",
        "lng": "140.4018",
        "country": "Indonesia"
    },
    {
        "name": "Itaporanga d\u2019Ajuda",
        "lat": "-10.9978",
        "lng": "-37.3108",
        "country": "Brazil"
    },
    {
        "name": "Paxtaobod",
        "lat": "40.9294",
        "lng": "72.4969",
        "country": "Uzbekistan"
    },
    {
        "name": "Riccione Marina",
        "lat": "44.0000",
        "lng": "12.6500",
        "country": "Italy"
    },
    {
        "name": "N\u0103vodari",
        "lat": "44.3211",
        "lng": "28.6133",
        "country": "Romania"
    },
    {
        "name": "Vichuga",
        "lat": "57.2000",
        "lng": "41.9167",
        "country": "Russia"
    },
    {
        "name": "Meppel",
        "lat": "52.7000",
        "lng": "6.1833",
        "country": "Netherlands"
    },
    {
        "name": "Toretsk",
        "lat": "48.3917",
        "lng": "37.8733",
        "country": "Ukraine"
    },
    {
        "name": "Santa Ana Nextlalpan",
        "lat": "19.7167",
        "lng": "-99.0667",
        "country": "Mexico"
    },
    {
        "name": "Biwong",
        "lat": "3.1333",
        "lng": "11.1500",
        "country": "Cameroon"
    },
    {
        "name": "Corsico",
        "lat": "45.4333",
        "lng": "9.1167",
        "country": "Italy"
    },
    {
        "name": "Cherchell",
        "lat": "36.6075",
        "lng": "2.1900",
        "country": "Algeria"
    },
    {
        "name": "Durazno",
        "lat": "-33.3667",
        "lng": "-56.5167",
        "country": "Uruguay"
    },
    {
        "name": "Kiryas Joel",
        "lat": "41.3411",
        "lng": "-74.1667",
        "country": "United States"
    },
    {
        "name": "Yihezhuang",
        "lat": "39.1373",
        "lng": "116.0744",
        "country": "China"
    },
    {
        "name": "Houlong",
        "lat": "24.6167",
        "lng": "120.7833",
        "country": "Taiwan"
    },
    {
        "name": "S\u00e3o Joaquim de Bicas",
        "lat": "-20.0489",
        "lng": "-44.2739",
        "country": "Brazil"
    },
    {
        "name": "Lakewood Ranch",
        "lat": "27.4185",
        "lng": "-82.3948",
        "country": "United States"
    },
    {
        "name": "Kita Chauh\u0101ttar",
        "lat": "25.6770",
        "lng": "84.8720",
        "country": "India"
    },
    {
        "name": "Pueblo West",
        "lat": "38.3465",
        "lng": "-104.7246",
        "country": "United States"
    },
    {
        "name": "Betafo",
        "lat": "-19.8400",
        "lng": "46.8550",
        "country": "Madagascar"
    },
    {
        "name": "Garibaldi",
        "lat": "-29.2889",
        "lng": "-51.5642",
        "country": "Brazil"
    },
    {
        "name": "Merseburg",
        "lat": "51.3544",
        "lng": "11.9928",
        "country": "Germany"
    },
    {
        "name": "Heunghae",
        "lat": "36.1167",
        "lng": "129.3500",
        "country": "Korea, South"
    },
    {
        "name": "Phra Phutthabat",
        "lat": "14.7212",
        "lng": "100.8047",
        "country": "Thailand"
    },
    {
        "name": "Same",
        "lat": "-4.0667",
        "lng": "37.7833",
        "country": "Tanzania"
    },
    {
        "name": "Tandubas",
        "lat": "5.1340",
        "lng": "120.3461",
        "country": "Philippines"
    },
    {
        "name": "Deg\u0101na",
        "lat": "26.8951",
        "lng": "74.3222",
        "country": "India"
    },
    {
        "name": "La Blanca",
        "lat": "14.5792",
        "lng": "-92.1414",
        "country": "Guatemala"
    },
    {
        "name": "T\u0159inec",
        "lat": "49.6778",
        "lng": "18.6728",
        "country": "Czechia"
    },
    {
        "name": "Wavre",
        "lat": "50.7167",
        "lng": "4.6000",
        "country": "Belgium"
    },
    {
        "name": "Bathurst",
        "lat": "-33.4200",
        "lng": "149.5778",
        "country": "Australia"
    },
    {
        "name": "T\u00e1bor",
        "lat": "49.4144",
        "lng": "14.6578",
        "country": "Czechia"
    },
    {
        "name": "Swakopmund",
        "lat": "-22.6833",
        "lng": "14.5333",
        "country": "Namibia"
    },
    {
        "name": "Isingiro",
        "lat": "-0.7950",
        "lng": "30.8153",
        "country": "Uganda"
    },
    {
        "name": "Merritt Island",
        "lat": "28.3139",
        "lng": "-80.6708",
        "country": "United States"
    },
    {
        "name": "Geldern",
        "lat": "51.5197",
        "lng": "6.3325",
        "country": "Germany"
    },
    {
        "name": "Quilevo",
        "lat": "-7.6167",
        "lng": "15.0500",
        "country": "Angola"
    },
    {
        "name": "Ara\u00e7ua\u00ed",
        "lat": "-16.8500",
        "lng": "-42.0700",
        "country": "Brazil"
    },
    {
        "name": "Conegliano",
        "lat": "45.8868",
        "lng": "12.2974",
        "country": "Italy"
    },
    {
        "name": "Nandaime",
        "lat": "11.7500",
        "lng": "-86.0500",
        "country": "Nicaragua"
    },
    {
        "name": "Licata",
        "lat": "37.1083",
        "lng": "13.9469",
        "country": "Italy"
    },
    {
        "name": "S\u00e3o Pedro",
        "lat": "-22.5486",
        "lng": "-47.9139",
        "country": "Brazil"
    },
    {
        "name": "Shinj\u014d",
        "lat": "38.7667",
        "lng": "140.3000",
        "country": "Japan"
    },
    {
        "name": "Almeirim",
        "lat": "-1.5228",
        "lng": "-52.5819",
        "country": "Brazil"
    },
    {
        "name": "Kalar\u016bch",
        "lat": "34.5731",
        "lng": "74.3210",
        "country": "India"
    },
    {
        "name": "Pinukpuk",
        "lat": "17.5731",
        "lng": "121.3653",
        "country": "Philippines"
    },
    {
        "name": "Buchanan",
        "lat": "5.8808",
        "lng": "-10.0467",
        "country": "Liberia"
    },
    {
        "name": "Nova Cruz",
        "lat": "-6.4778",
        "lng": "-35.4339",
        "country": "Brazil"
    },
    {
        "name": "Lautaro",
        "lat": "-38.5167",
        "lng": "-72.4500",
        "country": "Chile"
    },
    {
        "name": "Fus\u014d",
        "lat": "35.3591",
        "lng": "136.9132",
        "country": "Japan"
    },
    {
        "name": "Aiyappan K\u014dvil",
        "lat": "9.7158",
        "lng": "77.0333",
        "country": "India"
    },
    {
        "name": "S\u00e3o Desid\u00e9rio",
        "lat": "-12.3667",
        "lng": "-44.9667",
        "country": "Brazil"
    },
    {
        "name": "Hitchin",
        "lat": "51.9470",
        "lng": "-0.2830",
        "country": "United Kingdom"
    },
    {
        "name": "Ved\u0101ranniyam",
        "lat": "10.3774",
        "lng": "79.8495",
        "country": "India"
    },
    {
        "name": "Pomerode",
        "lat": "-26.7408",
        "lng": "-49.1769",
        "country": "Brazil"
    },
    {
        "name": "Zhangzhengqiao",
        "lat": "38.4042",
        "lng": "106.3567",
        "country": "China"
    },
    {
        "name": "Esposende",
        "lat": "41.5333",
        "lng": "-8.7833",
        "country": "Portugal"
    },
    {
        "name": "Lixingcun",
        "lat": "23.0852",
        "lng": "116.3666",
        "country": "China"
    }
]