[
    {
        "name": "Khajamahalpur",
        "lat": "17.8000",
        "lng": "77.3600",
        "country": "India"
    },
    {
        "name": "Uddevalla",
        "lat": "58.3492",
        "lng": "11.9381",
        "country": "Sweden"
    },
    {
        "name": "Auxerre",
        "lat": "47.7986",
        "lng": "3.5672",
        "country": "France"
    },
    {
        "name": "Graham",
        "lat": "47.0322",
        "lng": "-122.2827",
        "country": "United States"
    },
    {
        "name": "Vernier",
        "lat": "46.2000",
        "lng": "6.1000",
        "country": "Switzerland"
    },
    {
        "name": "Morecambe",
        "lat": "54.0730",
        "lng": "-2.8700",
        "country": "United Kingdom"
    },
    {
        "name": "Mason",
        "lat": "39.3571",
        "lng": "-84.3023",
        "country": "United States"
    },
    {
        "name": "Roanne",
        "lat": "46.0367",
        "lng": "4.0689",
        "country": "France"
    },
    {
        "name": "S\u00e3o Lu\u00eds Gonzaga",
        "lat": "-28.4078",
        "lng": "-54.9608",
        "country": "Brazil"
    },
    {
        "name": "Montgomery Village",
        "lat": "39.1788",
        "lng": "-77.1954",
        "country": "United States"
    },
    {
        "name": "Castelo",
        "lat": "-20.6039",
        "lng": "-41.1850",
        "country": "Brazil"
    },
    {
        "name": "Seelze",
        "lat": "52.3961",
        "lng": "9.5981",
        "country": "Germany"
    },
    {
        "name": "Wermelskirchen",
        "lat": "51.1500",
        "lng": "7.2167",
        "country": "Germany"
    },
    {
        "name": "Yh\u00fa",
        "lat": "-25.0600",
        "lng": "-55.9300",
        "country": "Paraguay"
    },
    {
        "name": "Zhitiqara",
        "lat": "52.1908",
        "lng": "61.2011",
        "country": "Kazakhstan"
    },
    {
        "name": "Hinesville",
        "lat": "31.8248",
        "lng": "-81.6137",
        "country": "United States"
    },
    {
        "name": "Safidon",
        "lat": "29.4200",
        "lng": "76.6700",
        "country": "India"
    },
    {
        "name": "Shangcaiyuan",
        "lat": "24.6817",
        "lng": "102.6918",
        "country": "China"
    },
    {
        "name": "\u00c7orum",
        "lat": "40.5455",
        "lng": "34.9570",
        "country": "Turkey"
    },
    {
        "name": "Leganes",
        "lat": "10.7800",
        "lng": "122.5800",
        "country": "Philippines"
    },
    {
        "name": "Golden Glades",
        "lat": "25.9129",
        "lng": "-80.2013",
        "country": "United States"
    },
    {
        "name": "Del Rio",
        "lat": "29.3708",
        "lng": "-100.8801",
        "country": "United States"
    },
    {
        "name": "Kolattupuzha",
        "lat": "8.9082",
        "lng": "77.0555",
        "country": "India"
    },
    {
        "name": "Saarlouis",
        "lat": "49.3167",
        "lng": "6.7500",
        "country": "Germany"
    },
    {
        "name": "Zhujiezhen",
        "lat": "23.7444",
        "lng": "104.9008",
        "country": "China"
    },
    {
        "name": "T\u0159eb\u00ed\u010d",
        "lat": "49.2150",
        "lng": "15.8817",
        "country": "Czechia"
    },
    {
        "name": "Bagre",
        "lat": "-1.9000",
        "lng": "-50.1639",
        "country": "Brazil"
    },
    {
        "name": "Ayutuxtepeque",
        "lat": "13.7353",
        "lng": "-89.2001",
        "country": "El Salvador"
    },
    {
        "name": "Sion",
        "lat": "46.2311",
        "lng": "7.3594",
        "country": "Switzerland"
    },
    {
        "name": "Goshen",
        "lat": "41.5743",
        "lng": "-85.8309",
        "country": "United States"
    },
    {
        "name": "Gladstone",
        "lat": "-23.8427",
        "lng": "151.2555",
        "country": "Australia"
    },
    {
        "name": "Simpang Renggam",
        "lat": "1.8333",
        "lng": "103.3167",
        "country": "Malaysia"
    },
    {
        "name": "University Place",
        "lat": "47.2147",
        "lng": "-122.5461",
        "country": "United States"
    },
    {
        "name": "Randolph",
        "lat": "42.1778",
        "lng": "-71.0539",
        "country": "United States"
    },
    {
        "name": "Zelenokumsk",
        "lat": "44.4167",
        "lng": "43.9167",
        "country": "Russia"
    },
    {
        "name": "Osimo",
        "lat": "43.4833",
        "lng": "13.4833",
        "country": "Italy"
    },
    {
        "name": "Azazga",
        "lat": "36.7453",
        "lng": "4.3711",
        "country": "Algeria"
    },
    {
        "name": "Dh\u0101mnod",
        "lat": "22.2093",
        "lng": "75.4706",
        "country": "India"
    },
    {
        "name": "Farafangana",
        "lat": "-22.8167",
        "lng": "47.8167",
        "country": "Madagascar"
    },
    {
        "name": "Bugasong",
        "lat": "11.0447",
        "lng": "122.0647",
        "country": "Philippines"
    },
    {
        "name": "Tienen",
        "lat": "50.8000",
        "lng": "4.9333",
        "country": "Belgium"
    },
    {
        "name": "Korkino",
        "lat": "54.9000",
        "lng": "61.4167",
        "country": "Russia"
    },
    {
        "name": "Naranjito",
        "lat": "-2.1667",
        "lng": "-79.4653",
        "country": "Ecuador"
    },
    {
        "name": "Rio Pardo",
        "lat": "-29.9897",
        "lng": "-52.3781",
        "country": "Brazil"
    },
    {
        "name": "M\u0101n\u0101madurai",
        "lat": "9.6956",
        "lng": "78.4564",
        "country": "India"
    },
    {
        "name": "Slagelse",
        "lat": "55.4049",
        "lng": "11.3531",
        "country": "Denmark"
    },
    {
        "name": "Abashiri",
        "lat": "44.0167",
        "lng": "144.2667",
        "country": "Japan"
    },
    {
        "name": "Tortosa",
        "lat": "40.8128",
        "lng": "0.5233",
        "country": "Spain"
    },
    {
        "name": "Butte",
        "lat": "45.9020",
        "lng": "-112.6571",
        "country": "United States"
    },
    {
        "name": "East Gwillimbury",
        "lat": "44.1333",
        "lng": "-79.4167",
        "country": "Canada"
    },
    {
        "name": "Sarpol-e Z\u0304ah\u0101b",
        "lat": "34.4589",
        "lng": "45.8614",
        "country": "Iran"
    },
    {
        "name": "Maruthar\u014dd",
        "lat": "10.7737",
        "lng": "76.6973",
        "country": "India"
    },
    {
        "name": "Andapa",
        "lat": "-14.6500",
        "lng": "49.6500",
        "country": "Madagascar"
    },
    {
        "name": "Anse-\u00e0-Veau",
        "lat": "18.5167",
        "lng": "-73.3500",
        "country": "Haiti"
    },
    {
        "name": "Medgidia",
        "lat": "44.2503",
        "lng": "28.2614",
        "country": "Romania"
    },
    {
        "name": "Misungwi",
        "lat": "-2.8500",
        "lng": "33.0833",
        "country": "Tanzania"
    },
    {
        "name": "Sidi Lakhdar",
        "lat": "36.1428",
        "lng": "0.4606",
        "country": "Algeria"
    },
    {
        "name": "Dabouziya",
        "lat": "33.3064",
        "lng": "-8.3548",
        "country": "Morocco"
    },
    {
        "name": "Mugnano di Napoli",
        "lat": "40.9167",
        "lng": "14.2000",
        "country": "Italy"
    },
    {
        "name": "Falls",
        "lat": "40.1686",
        "lng": "-74.7915",
        "country": "United States"
    },
    {
        "name": "Phokeng",
        "lat": "-25.5833",
        "lng": "27.1333",
        "country": "South Africa"
    },
    {
        "name": "Due\u00f1as",
        "lat": "11.0700",
        "lng": "122.6200",
        "country": "Philippines"
    },
    {
        "name": "Tynaarlo",
        "lat": "53.0833",
        "lng": "6.5833",
        "country": "Netherlands"
    },
    {
        "name": "Espiye",
        "lat": "40.9500",
        "lng": "38.7333",
        "country": "Turkey"
    },
    {
        "name": "Grantham",
        "lat": "52.9180",
        "lng": "-0.6380",
        "country": "United Kingdom"
    },
    {
        "name": "Zhangziying",
        "lat": "39.6842",
        "lng": "116.5900",
        "country": "China"
    },
    {
        "name": "Huntington Station",
        "lat": "40.8446",
        "lng": "-73.4050",
        "country": "United States"
    },
    {
        "name": "Qa\u015fr al Qarab\u016bll\u012b",
        "lat": "32.7500",
        "lng": "13.7167",
        "country": "Libya"
    },
    {
        "name": "Abulug",
        "lat": "18.4441",
        "lng": "121.4576",
        "country": "Philippines"
    },
    {
        "name": "Inca",
        "lat": "39.7167",
        "lng": "2.9167",
        "country": "Spain"
    },
    {
        "name": "Swadlincote",
        "lat": "52.7740",
        "lng": "-1.5570",
        "country": "United Kingdom"
    },
    {
        "name": "San Juan Desp\u00ed",
        "lat": "41.3681",
        "lng": "2.0581",
        "country": "Spain"
    },
    {
        "name": "Mildura",
        "lat": "-34.1889",
        "lng": "142.1583",
        "country": "Australia"
    },
    {
        "name": "Banda",
        "lat": "24.0449",
        "lng": "78.9609",
        "country": "India"
    },
    {
        "name": "Yeonil",
        "lat": "36.0000",
        "lng": "129.3500",
        "country": "Korea, South"
    },
    {
        "name": "Bugojno",
        "lat": "44.0500",
        "lng": "17.4500",
        "country": "Bosnia and Herzegovina"
    },
    {
        "name": "Cativ\u00e1",
        "lat": "9.3600",
        "lng": "-79.8400",
        "country": "Panama"
    },
    {
        "name": "Bonifacio",
        "lat": "8.0527",
        "lng": "123.6136",
        "country": "Philippines"
    },
    {
        "name": "Ofunato",
        "lat": "39.0680",
        "lng": "141.7252",
        "country": "Japan"
    },
    {
        "name": "Paithan",
        "lat": "19.4751",
        "lng": "75.3856",
        "country": "India"
    },
    {
        "name": "Kalaa Srira",
        "lat": "35.8236",
        "lng": "10.5583",
        "country": "Tunisia"
    },
    {
        "name": "D\u0101poli",
        "lat": "17.7589",
        "lng": "73.1856",
        "country": "India"
    },
    {
        "name": "Wedel",
        "lat": "53.5833",
        "lng": "9.7000",
        "country": "Germany"
    },
    {
        "name": "Ca\u00f1ete",
        "lat": "-37.7994",
        "lng": "-73.3953",
        "country": "Chile"
    },
    {
        "name": "Zweibr\u00fccken",
        "lat": "49.2500",
        "lng": "7.3667",
        "country": "Germany"
    },
    {
        "name": "Viernheim",
        "lat": "49.5417",
        "lng": "8.5786",
        "country": "Germany"
    },
    {
        "name": "Kulittalai",
        "lat": "10.9357",
        "lng": "78.4241",
        "country": "India"
    },
    {
        "name": "Gisborne",
        "lat": "-38.6625",
        "lng": "178.0178",
        "country": "New Zealand"
    },
    {
        "name": "Pasni",
        "lat": "25.2652",
        "lng": "63.4698",
        "country": "Pakistan"
    },
    {
        "name": "Koryazhma",
        "lat": "61.3167",
        "lng": "47.1333",
        "country": "Russia"
    },
    {
        "name": "Bayog",
        "lat": "7.8474",
        "lng": "123.0423",
        "country": "Philippines"
    },
    {
        "name": "B\u0101ft",
        "lat": "29.2350",
        "lng": "56.5989",
        "country": "Iran"
    },
    {
        "name": "Mogpog",
        "lat": "13.4800",
        "lng": "121.8700",
        "country": "Philippines"
    },
    {
        "name": "Skhira",
        "lat": "34.3006",
        "lng": "10.0708",
        "country": "Tunisia"
    },
    {
        "name": "Ahrensburg",
        "lat": "53.6747",
        "lng": "10.2411",
        "country": "Germany"
    },
    {
        "name": "Pleasant Hill",
        "lat": "37.9539",
        "lng": "-122.0759",
        "country": "United States"
    },
    {
        "name": "C\u00f4te-Saint-Luc",
        "lat": "45.4687",
        "lng": "-73.6673",
        "country": "Canada"
    },
    {
        "name": "Ankola",
        "lat": "14.6605",
        "lng": "74.3047",
        "country": "India"
    },
    {
        "name": "A\u00efn Taya",
        "lat": "36.7917",
        "lng": "3.2889",
        "country": "Algeria"
    },
    {
        "name": "L\u0119bork",
        "lat": "54.5500",
        "lng": "17.7500",
        "country": "Poland"
    }
]