[
    {
        "name": "Anontsibe-Sakalava",
        "lat": "-21.3667",
        "lng": "44.4667",
        "country": "Madagascar"
    },
    {
        "name": "Amparihitsokatra",
        "lat": "-17.5167",
        "lng": "48.5667",
        "country": "Madagascar"
    },
    {
        "name": "Ambatolava",
        "lat": "-23.5667",
        "lng": "47.3000",
        "country": "Madagascar"
    },
    {
        "name": "Ankerana",
        "lat": "-21.0333",
        "lng": "47.1167",
        "country": "Madagascar"
    },
    {
        "name": "Sihanamaro",
        "lat": "-25.1833",
        "lng": "45.7667",
        "country": "Madagascar"
    },
    {
        "name": "Vinanitelo",
        "lat": "-21.7167",
        "lng": "47.2667",
        "country": "Madagascar"
    },
    {
        "name": "Ifarantsa",
        "lat": "-24.9333",
        "lng": "46.8500",
        "country": "Madagascar"
    },
    {
        "name": "Ampasimazava",
        "lat": "-17.6667",
        "lng": "49.1333",
        "country": "Madagascar"
    },
    {
        "name": "Vohitany",
        "lat": "-24.1333",
        "lng": "44.7667",
        "country": "Madagascar"
    },
    {
        "name": "Vohitsaoka",
        "lat": "-22.0333",
        "lng": "46.7167",
        "country": "Madagascar"
    },
    {
        "name": "Andranopasy",
        "lat": "-21.2833",
        "lng": "43.7333",
        "country": "Madagascar"
    },
    {
        "name": "Beheloka",
        "lat": "-23.9017",
        "lng": "43.7635",
        "country": "Madagascar"
    },
    {
        "name": "Ankirondro",
        "lat": "-19.6333",
        "lng": "44.6000",
        "country": "Madagascar"
    },
    {
        "name": "Tamponala",
        "lat": "-19.3000",
        "lng": "46.4167",
        "country": "Madagascar"
    },
    {
        "name": "Katsepy",
        "lat": "-15.7667",
        "lng": "46.2333",
        "country": "Madagascar"
    },
    {
        "name": "Vondrozo",
        "lat": "-22.8206",
        "lng": "47.3217",
        "country": "Madagascar"
    },
    {
        "name": "Tanambao-Daoud",
        "lat": "-13.9833",
        "lng": "50.1333",
        "country": "Madagascar"
    },
    {
        "name": "Sahatona-Tamboharivo",
        "lat": "-20.9667",
        "lng": "47.1000",
        "country": "Madagascar"
    },
    {
        "name": "Beanana",
        "lat": "-17.3667",
        "lng": "48.4333",
        "country": "Madagascar"
    },
    {
        "name": "Soatanana",
        "lat": "-21.3833",
        "lng": "46.9167",
        "country": "Madagascar"
    },
    {
        "name": "Ampitahana",
        "lat": "-21.1333",
        "lng": "47.2167",
        "country": "Madagascar"
    },
    {
        "name": "Anosimparihy",
        "lat": "-21.5000",
        "lng": "47.9833",
        "country": "Madagascar"
    },
    {
        "name": "Vatana",
        "lat": "-22.2167",
        "lng": "47.7500",
        "country": "Madagascar"
    },
    {
        "name": "Ambalanjanakomby",
        "lat": "-16.7000",
        "lng": "47.0833",
        "country": "Madagascar"
    },
    {
        "name": "Zoma-Bealoka",
        "lat": "-18.8500",
        "lng": "47.0500",
        "country": "Madagascar"
    },
    {
        "name": "Jangany",
        "lat": "-22.8500",
        "lng": "45.7833",
        "country": "Madagascar"
    },
    {
        "name": "Ianapera",
        "lat": "-23.6167",
        "lng": "45.1333",
        "country": "Madagascar"
    },
    {
        "name": "Ambahatrazo",
        "lat": "-21.8667",
        "lng": "47.9500",
        "country": "Madagascar"
    },
    {
        "name": "Fanjakana",
        "lat": "-21.1833",
        "lng": "46.8833",
        "country": "Madagascar"
    },
    {
        "name": "Putao",
        "lat": "27.3258",
        "lng": "97.4225",
        "country": "Burma"
    },
    {
        "name": "China",
        "lat": "25.7033",
        "lng": "-99.2365",
        "country": "Mexico"
    },
    {
        "name": "Padang Besar",
        "lat": "6.6626",
        "lng": "100.3217",
        "country": "Malaysia"
    },
    {
        "name": "Z\u00e1vora",
        "lat": "-24.5167",
        "lng": "35.2000",
        "country": "Mozambique"
    },
    {
        "name": "Outjo",
        "lat": "-20.1089",
        "lng": "16.1547",
        "country": "Namibia"
    },
    {
        "name": "Al Mazy\u016bnah",
        "lat": "17.8486",
        "lng": "52.6200",
        "country": "Oman"
    },
    {
        "name": "Surmon Chogga Grong",
        "lat": "35.1518",
        "lng": "76.4454",
        "country": "Pakistan"
    },
    {
        "name": "Basla",
        "lat": "33.3833",
        "lng": "73.3167",
        "country": "Pakistan"
    },
    {
        "name": "Gadani",
        "lat": "25.1194",
        "lng": "66.7319",
        "country": "Pakistan"
    },
    {
        "name": "Bunji",
        "lat": "35.6422",
        "lng": "74.6336",
        "country": "Pakistan"
    },
    {
        "name": "Ghota Fatehgarh",
        "lat": "32.0900",
        "lng": "74.7800",
        "country": "Pakistan"
    },
    {
        "name": "Set\u00fabal",
        "lat": "38.5243",
        "lng": "-8.8926",
        "country": "Portugal"
    },
    {
        "name": "Diabougou",
        "lat": "14.5431",
        "lng": "-12.2186",
        "country": "Senegal"
    },
    {
        "name": "Koumpentoum",
        "lat": "13.9833",
        "lng": "-14.5667",
        "country": "Senegal"
    },
    {
        "name": "Gadoon",
        "lat": "5.6897",
        "lng": "46.6847",
        "country": "Somalia"
    },
    {
        "name": "Murgap",
        "lat": "37.4964",
        "lng": "61.9739",
        "country": "Turkmenistan"
    },
    {
        "name": "Khunays",
        "lat": "35.7122",
        "lng": "10.8167",
        "country": "Tunisia"
    },
    {
        "name": "Kadama",
        "lat": "1.0167",
        "lng": "33.8803",
        "country": "Uganda"
    },
    {
        "name": "Bukomansimbi",
        "lat": "-0.1667",
        "lng": "31.6186",
        "country": "Uganda"
    },
    {
        "name": "Xishrov",
        "lat": "39.6383",
        "lng": "66.8897",
        "country": "Uzbekistan"
    },
    {
        "name": "Oyim",
        "lat": "40.8242",
        "lng": "72.7414",
        "country": "Uzbekistan"
    },
    {
        "name": "Tujg",
        "lat": "32.0686",
        "lng": "61.8058",
        "country": "Afghanistan"
    },
    {
        "name": "Bolad\u0131",
        "lat": "38.8892",
        "lng": "48.7656",
        "country": "Azerbaijan"
    },
    {
        "name": "Fatikchari",
        "lat": "22.6878",
        "lng": "91.7811",
        "country": "Bangladesh"
    },
    {
        "name": "Puerto America",
        "lat": "-11.5500",
        "lng": "-68.0667",
        "country": "Bolivia"
    },
    {
        "name": "Mboki",
        "lat": "5.3160",
        "lng": "25.9571",
        "country": "Central African Republic"
    },
    {
        "name": "Gar",
        "lat": "32.1166",
        "lng": "80.0583",
        "country": "China"
    },
    {
        "name": "Ziketan",
        "lat": "35.5886",
        "lng": "99.9867",
        "country": "China"
    },
    {
        "name": "Sola",
        "lat": "21.6744",
        "lng": "-77.6806",
        "country": "Cuba"
    },
    {
        "name": "Matagu\u00e1",
        "lat": "22.2370",
        "lng": "-79.9992",
        "country": "Cuba"
    },
    {
        "name": "Morayra",
        "lat": "38.6880",
        "lng": "0.1345",
        "country": "Spain"
    },
    {
        "name": "Karaga",
        "lat": "9.9250",
        "lng": "-0.4297",
        "country": "Ghana"
    },
    {
        "name": "Rebola",
        "lat": "3.7192",
        "lng": "8.8531",
        "country": "Equatorial Guinea"
    },
    {
        "name": "Pont Sond\u00e9",
        "lat": "19.1493",
        "lng": "-72.6147",
        "country": "Haiti"
    },
    {
        "name": "Haria",
        "lat": "-3.5833",
        "lng": "128.6167",
        "country": "Indonesia"
    },
    {
        "name": "Wagh\u0101i",
        "lat": "20.7667",
        "lng": "73.4833",
        "country": "India"
    },
    {
        "name": "Ghargaon",
        "lat": "18.6160",
        "lng": "74.6980",
        "country": "India"
    },
    {
        "name": "Deh",
        "lat": "27.3000",
        "lng": "73.9000",
        "country": "India"
    },
    {
        "name": "Medarametla",
        "lat": "15.7167",
        "lng": "80.0167",
        "country": "India"
    },
    {
        "name": "Hanzviur",
        "lat": "34.1410",
        "lng": "74.5829",
        "country": "India"
    },
    {
        "name": "Amsin",
        "lat": "26.5733",
        "lng": "82.4357",
        "country": "India"
    },
    {
        "name": "Muttalakanpatti",
        "lat": "10.8652",
        "lng": "78.6492",
        "country": "India"
    },
    {
        "name": "Isnapuram",
        "lat": "17.5443",
        "lng": "78.3486",
        "country": "India"
    },
    {
        "name": "Karum\u016blaikkal",
        "lat": "9.3167",
        "lng": "76.8000",
        "country": "India"
    },
    {
        "name": "Dhalai",
        "lat": "24.5958",
        "lng": "92.8466",
        "country": "India"
    },
    {
        "name": "Nidamal\u016bru",
        "lat": "15.6547",
        "lng": "80.0678",
        "country": "India"
    },
    {
        "name": "Budwan",
        "lat": "25.7775",
        "lng": "81.1681",
        "country": "India"
    },
    {
        "name": "Chhimluang",
        "lat": "24.5157",
        "lng": "92.8222",
        "country": "India"
    },
    {
        "name": "Dh\u012brw\u0101s",
        "lat": "28.8443",
        "lng": "74.9160",
        "country": "India"
    },
    {
        "name": "Siddar\u0101mpuram",
        "lat": "15.5300",
        "lng": "76.6360",
        "country": "India"
    },
    {
        "name": "Reha Mota",
        "lat": "23.1887",
        "lng": "69.9034",
        "country": "India"
    },
    {
        "name": "Parav\u0101kkottai",
        "lat": "10.6005",
        "lng": "79.4313",
        "country": "India"
    },
    {
        "name": "Mev\u0101ni",
        "lat": "11.5000",
        "lng": "77.5333",
        "country": "India"
    },
    {
        "name": "Thari\u0101l",
        "lat": "32.3547",
        "lng": "75.6067",
        "country": "India"
    },
    {
        "name": "Dewal Thal",
        "lat": "29.7000",
        "lng": "80.2167",
        "country": "India"
    },
    {
        "name": "Lakshm\u012bpuram",
        "lat": "10.0774",
        "lng": "77.5198",
        "country": "India"
    },
    {
        "name": "G\u0101ndhali",
        "lat": "21.1040",
        "lng": "75.1050",
        "country": "India"
    },
    {
        "name": "Fatehgarh",
        "lat": "20.3000",
        "lng": "85.3300",
        "country": "India"
    },
    {
        "name": "Kambh\u0101ladinne",
        "lat": "15.1274",
        "lng": "79.5413",
        "country": "India"
    },
    {
        "name": "Kerw\u0101da",
        "lat": "21.9000",
        "lng": "72.8500",
        "country": "India"
    },
    {
        "name": "Ulipuram",
        "lat": "11.4667",
        "lng": "78.4667",
        "country": "India"
    },
    {
        "name": "Kochhor",
        "lat": "27.6268",
        "lng": "75.1376",
        "country": "India"
    },
    {
        "name": "Betnoti",
        "lat": "21.7355",
        "lng": "86.8499",
        "country": "India"
    },
    {
        "name": "B\u0101l\u0101g\u0101m",
        "lat": "21.3694",
        "lng": "70.0981",
        "country": "India"
    },
    {
        "name": "Sotik",
        "lat": "-0.6800",
        "lng": "35.1200",
        "country": "Kenya"
    },
    {
        "name": "Kargi",
        "lat": "2.5036",
        "lng": "37.5725",
        "country": "Kenya"
    },
    {
        "name": "Kourani",
        "lat": "-11.8511",
        "lng": "43.4261",
        "country": "Comoros"
    },
    {
        "name": "Kolno",
        "lat": "53.4106",
        "lng": "21.9339",
        "country": "Poland"
    },
    {
        "name": "R\u0101mamangalam",
        "lat": "9.9333",
        "lng": "76.5000",
        "country": "India"
    },
    {
        "name": "Wahlstedt",
        "lat": "53.9500",
        "lng": "10.2167",
        "country": "Germany"
    },
    {
        "name": "Pierrelaye",
        "lat": "49.0233",
        "lng": "2.1508",
        "country": "France"
    }
]