[
    {
        "name": "Ilic\u00ednia",
        "lat": "-20.9333",
        "lng": "-45.8333",
        "country": "Brazil"
    },
    {
        "name": "Dharampur B\u0101nde",
        "lat": "25.6609",
        "lng": "85.5742",
        "country": "India"
    },
    {
        "name": "Cavarzere",
        "lat": "45.1370",
        "lng": "12.0817",
        "country": "Italy"
    },
    {
        "name": "Terrabona",
        "lat": "12.7333",
        "lng": "-85.9667",
        "country": "Nicaragua"
    },
    {
        "name": "Ban Sop Tia",
        "lat": "18.3895",
        "lng": "98.6780",
        "country": "Thailand"
    },
    {
        "name": "Bah\u0101durpur",
        "lat": "25.4522",
        "lng": "85.6303",
        "country": "India"
    },
    {
        "name": "Koch\u0142owice",
        "lat": "50.2538",
        "lng": "18.9015",
        "country": "Poland"
    },
    {
        "name": "Samashki",
        "lat": "43.2906",
        "lng": "45.3014",
        "country": "Russia"
    },
    {
        "name": "Maj\u0101rh\u0101t",
        "lat": "25.9654",
        "lng": "86.8126",
        "country": "India"
    },
    {
        "name": "Chinna Gollap\u0101lem",
        "lat": "16.3701",
        "lng": "81.5322",
        "country": "India"
    },
    {
        "name": "Calcinaia",
        "lat": "43.6833",
        "lng": "10.6167",
        "country": "Italy"
    },
    {
        "name": "Mah\u0101baleshwar",
        "lat": "17.9250",
        "lng": "73.6575",
        "country": "India"
    },
    {
        "name": "Yemva",
        "lat": "62.6000",
        "lng": "50.8667",
        "country": "Russia"
    },
    {
        "name": "Sebiston",
        "lat": "38.2500",
        "lng": "69.2833",
        "country": "Tajikistan"
    },
    {
        "name": "Vilanova del Cam\u00ed",
        "lat": "41.5667",
        "lng": "1.6333",
        "country": "Spain"
    },
    {
        "name": "Surkhakhi",
        "lat": "43.1878",
        "lng": "44.9036",
        "country": "Russia"
    },
    {
        "name": "Bandlag\u016bda",
        "lat": "17.3543",
        "lng": "78.3853",
        "country": "India"
    },
    {
        "name": "Chodov",
        "lat": "50.2414",
        "lng": "12.7439",
        "country": "Czechia"
    },
    {
        "name": "A\u0163 \u0162\u016br",
        "lat": "28.2417",
        "lng": "33.6222",
        "country": "Egypt"
    },
    {
        "name": "J\u0101mi",
        "lat": "18.0500",
        "lng": "83.2667",
        "country": "India"
    },
    {
        "name": "Almirante",
        "lat": "9.3000",
        "lng": "-82.4000",
        "country": "Panama"
    },
    {
        "name": "G\u00e4rtringen",
        "lat": "48.6408",
        "lng": "8.9006",
        "country": "Germany"
    },
    {
        "name": "K\u00f6pr\u00fcba\u015f\u0131",
        "lat": "38.7497",
        "lng": "28.4047",
        "country": "Turkey"
    },
    {
        "name": "Sete Barras",
        "lat": "-24.3878",
        "lng": "-47.9256",
        "country": "Brazil"
    },
    {
        "name": "Ch\u00e2lette-sur-Loing",
        "lat": "48.0125",
        "lng": "2.7364",
        "country": "France"
    },
    {
        "name": "Duvv\u016bru",
        "lat": "14.8333",
        "lng": "78.6500",
        "country": "India"
    },
    {
        "name": "Joan\u00f3polis",
        "lat": "-22.9303",
        "lng": "-46.2756",
        "country": "Brazil"
    },
    {
        "name": "Les Ponts-de-C\u00e9",
        "lat": "47.4253",
        "lng": "-0.5242",
        "country": "France"
    },
    {
        "name": "Obal\u0101puram",
        "lat": "14.8000",
        "lng": "78.7830",
        "country": "India"
    },
    {
        "name": "Sulz am Neckar",
        "lat": "48.3628",
        "lng": "8.6317",
        "country": "Germany"
    },
    {
        "name": "Canill\u00e1",
        "lat": "15.1667",
        "lng": "-90.8500",
        "country": "Guatemala"
    },
    {
        "name": "Ainsdale",
        "lat": "53.6021",
        "lng": "-3.0405",
        "country": "United Kingdom"
    },
    {
        "name": "Ivanec",
        "lat": "46.2264",
        "lng": "16.1253",
        "country": "Croatia"
    },
    {
        "name": "Mar de Espanha",
        "lat": "-21.8667",
        "lng": "-43.0167",
        "country": "Brazil"
    },
    {
        "name": "Richton Park",
        "lat": "41.4816",
        "lng": "-87.7387",
        "country": "United States"
    },
    {
        "name": "Oulad Rahmoun",
        "lat": "32.3278",
        "lng": "-6.5006",
        "country": "Morocco"
    },
    {
        "name": "Staryye Atagi",
        "lat": "43.1167",
        "lng": "45.7333",
        "country": "Russia"
    },
    {
        "name": "Khorol",
        "lat": "49.7667",
        "lng": "33.2667",
        "country": "Ukraine"
    },
    {
        "name": "Brus Laguna",
        "lat": "15.7500",
        "lng": "-84.4833",
        "country": "Honduras"
    },
    {
        "name": "Emmigan\u016bru",
        "lat": "15.1500",
        "lng": "76.9200",
        "country": "India"
    },
    {
        "name": "San Francisco de Mostazal",
        "lat": "-33.9799",
        "lng": "-70.7122",
        "country": "Chile"
    },
    {
        "name": "Laamarna",
        "lat": "31.8944",
        "lng": "-8.9842",
        "country": "Morocco"
    },
    {
        "name": "Alcal\u00e1",
        "lat": "4.6667",
        "lng": "-75.7500",
        "country": "Colombia"
    },
    {
        "name": "Debbache el Hadj Douadi",
        "lat": "36.2750",
        "lng": "6.1764",
        "country": "Algeria"
    },
    {
        "name": "San Antonio Aguas Calientes",
        "lat": "14.5333",
        "lng": "-90.7667",
        "country": "Guatemala"
    },
    {
        "name": "Bakht\u0101warpur",
        "lat": "28.8210",
        "lng": "77.1660",
        "country": "India"
    },
    {
        "name": "Mahtha",
        "lat": "26.5988",
        "lng": "86.3158",
        "country": "India"
    },
    {
        "name": "Kirchheim bei M\u00fcnchen",
        "lat": "48.1833",
        "lng": "11.7500",
        "country": "Germany"
    },
    {
        "name": "Varzaneh",
        "lat": "32.4197",
        "lng": "52.6478",
        "country": "Iran"
    },
    {
        "name": "Ky\u014dtamba",
        "lat": "35.1667",
        "lng": "135.4167",
        "country": "Japan"
    },
    {
        "name": "P\u012brnagar",
        "lat": "25.5982",
        "lng": "86.7178",
        "country": "India"
    },
    {
        "name": "Annapolis Neck",
        "lat": "38.9409",
        "lng": "-76.4997",
        "country": "United States"
    },
    {
        "name": "Hvardiiske",
        "lat": "45.1000",
        "lng": "34.0000",
        "country": "Ukraine"
    },
    {
        "name": "Chaiyo",
        "lat": "14.6666",
        "lng": "100.4702",
        "country": "Thailand"
    },
    {
        "name": "Krupka",
        "lat": "50.6844",
        "lng": "13.8583",
        "country": "Czechia"
    },
    {
        "name": "Playa Grande",
        "lat": "15.9833",
        "lng": "-90.7667",
        "country": "Guatemala"
    },
    {
        "name": "D\u0101marcherla",
        "lat": "16.7269",
        "lng": "79.6369",
        "country": "India"
    },
    {
        "name": "Se\u00efada",
        "lat": "35.6700",
        "lng": "10.9000",
        "country": "Tunisia"
    },
    {
        "name": "Kaspi",
        "lat": "41.9250",
        "lng": "44.4222",
        "country": "Georgia"
    },
    {
        "name": "S\u00e3o F\u00e9lix da Marinha",
        "lat": "41.0340",
        "lng": "-8.6230",
        "country": "Portugal"
    },
    {
        "name": "Pennsville",
        "lat": "39.6266",
        "lng": "-75.5089",
        "country": "United States"
    },
    {
        "name": "Sival\u0101rkulam",
        "lat": "8.8700",
        "lng": "77.5267",
        "country": "India"
    },
    {
        "name": "M\u0101dugula",
        "lat": "17.9167",
        "lng": "82.8000",
        "country": "India"
    },
    {
        "name": "Buffelshoek",
        "lat": "-24.6308",
        "lng": "31.1383",
        "country": "South Africa"
    },
    {
        "name": "Miranorte",
        "lat": "-9.4833",
        "lng": "-48.4833",
        "country": "Brazil"
    },
    {
        "name": "Nirakpurp\u0101li",
        "lat": "25.3244",
        "lng": "84.8114",
        "country": "India"
    },
    {
        "name": "Serere",
        "lat": "1.5000",
        "lng": "33.5500",
        "country": "Uganda"
    },
    {
        "name": "Honggu",
        "lat": "36.2930",
        "lng": "102.9575",
        "country": "China"
    },
    {
        "name": "Lymm",
        "lat": "53.3834",
        "lng": "-2.4750",
        "country": "United Kingdom"
    },
    {
        "name": "Flitwick",
        "lat": "52.0038",
        "lng": "-0.4966",
        "country": "United Kingdom"
    },
    {
        "name": "Zelzate",
        "lat": "51.2000",
        "lng": "3.8167",
        "country": "Belgium"
    },
    {
        "name": "Umag",
        "lat": "45.4333",
        "lng": "13.5167",
        "country": "Croatia"
    },
    {
        "name": "Sam\u0101i",
        "lat": "24.9788",
        "lng": "85.5861",
        "country": "India"
    },
    {
        "name": "Battulapalle",
        "lat": "14.5167",
        "lng": "77.7833",
        "country": "India"
    },
    {
        "name": "Sason",
        "lat": "38.3803",
        "lng": "41.3953",
        "country": "Turkey"
    },
    {
        "name": "Puerto Ayora",
        "lat": "-0.7500",
        "lng": "-90.3167",
        "country": "Ecuador"
    },
    {
        "name": "Cai\u00f3",
        "lat": "11.9278",
        "lng": "-16.2028",
        "country": "Guinea-Bissau"
    },
    {
        "name": "Betton",
        "lat": "48.1833",
        "lng": "-1.6428",
        "country": "France"
    },
    {
        "name": "Sante Benn\u016br",
        "lat": "14.1697",
        "lng": "76.0033",
        "country": "India"
    },
    {
        "name": "Zelenodolsk",
        "lat": "47.5658",
        "lng": "33.6464",
        "country": "Ukraine"
    },
    {
        "name": "B\u0101smenj",
        "lat": "37.9964",
        "lng": "46.4717",
        "country": "Iran"
    },
    {
        "name": "Librazhd-Qend\u00ebr",
        "lat": "41.1969",
        "lng": "20.3356",
        "country": "Albania"
    },
    {
        "name": "Brad",
        "lat": "46.1294",
        "lng": "22.7900",
        "country": "Romania"
    },
    {
        "name": "Peraiy\u016br",
        "lat": "9.7341",
        "lng": "77.7900",
        "country": "India"
    },
    {
        "name": "Gricignano d\u2019Aversa",
        "lat": "41.0000",
        "lng": "14.1833",
        "country": "Italy"
    },
    {
        "name": "Altenstadt",
        "lat": "50.2856",
        "lng": "8.9450",
        "country": "Germany"
    },
    {
        "name": "Buharkent",
        "lat": "37.9617",
        "lng": "28.7422",
        "country": "Turkey"
    },
    {
        "name": "Ch\u00fcy",
        "lat": "42.8100",
        "lng": "75.2800",
        "country": "Kyrgyzstan"
    },
    {
        "name": "M\u0101n\u0101kond\u016br",
        "lat": "18.3981",
        "lng": "79.2250",
        "country": "India"
    },
    {
        "name": "Bamhn\u012b",
        "lat": "22.4822",
        "lng": "80.3716",
        "country": "India"
    },
    {
        "name": "Sangt\u016dda",
        "lat": "38.0333",
        "lng": "69.0833",
        "country": "Tajikistan"
    },
    {
        "name": "\u0100lampur Gonpura",
        "lat": "25.5404",
        "lng": "85.0511",
        "country": "India"
    },
    {
        "name": "Bou Adel",
        "lat": "34.5428",
        "lng": "-4.5075",
        "country": "Morocco"
    },
    {
        "name": "Dianguird\u00e9",
        "lat": "14.4886",
        "lng": "-9.0161",
        "country": "Mali"
    },
    {
        "name": "Diank\u00e9",
        "lat": "15.7333",
        "lng": "-4.6500",
        "country": "Mali"
    },
    {
        "name": "Challapata",
        "lat": "-18.9000",
        "lng": "-66.7667",
        "country": "Bolivia"
    },
    {
        "name": "Santiago Amoltepec",
        "lat": "16.6167",
        "lng": "-97.5000",
        "country": "Mexico"
    },
    {
        "name": "\u1ea4p B\u00ecnh Th\u00e0nh",
        "lat": "10.1833",
        "lng": "105.2000",
        "country": "Vietnam"
    },
    {
        "name": "Feuchtwangen",
        "lat": "49.1667",
        "lng": "10.3167",
        "country": "Germany"
    },
    {
        "name": "Mechtras",
        "lat": "36.5500",
        "lng": "4.0000",
        "country": "Algeria"
    }
]