[
    {
        "name": "Oxford",
        "lat": "51.7500",
        "lng": "-1.2500",
        "country": "United Kingdom"
    },
    {
        "name": "Bordj el Kiffan",
        "lat": "36.7375",
        "lng": "3.1931",
        "country": "Algeria"
    },
    {
        "name": "G\u00f2 C\u00f4ng",
        "lat": "10.3667",
        "lng": "106.6667",
        "country": "Vietnam"
    },
    {
        "name": "Erdemli",
        "lat": "36.6056",
        "lng": "34.3111",
        "country": "Turkey"
    },
    {
        "name": "Gonbad-e K\u0101v\u016bs",
        "lat": "37.2433",
        "lng": "55.1692",
        "country": "Iran"
    },
    {
        "name": "Al Man\u0101qil",
        "lat": "14.2467",
        "lng": "32.9861",
        "country": "Sudan"
    },
    {
        "name": "Sh\u0101ntipur",
        "lat": "23.2500",
        "lng": "88.4300",
        "country": "India"
    },
    {
        "name": "D\u012bla",
        "lat": "6.4083",
        "lng": "38.3083",
        "country": "Ethiopia"
    },
    {
        "name": "Hindupur",
        "lat": "13.8300",
        "lng": "77.4900",
        "country": "India"
    },
    {
        "name": "Arauc\u00e1ria",
        "lat": "-25.4167",
        "lng": "-49.2500",
        "country": "Brazil"
    },
    {
        "name": "Matanzas",
        "lat": "23.0511",
        "lng": "-81.5753",
        "country": "Cuba"
    },
    {
        "name": "Be\u0101war",
        "lat": "26.1000",
        "lng": "74.3200",
        "country": "India"
    },
    {
        "name": "Long Kh\u00e1nh",
        "lat": "10.9170",
        "lng": "107.1670",
        "country": "Vietnam"
    },
    {
        "name": "Bh\u0101lswa Jahangirpur",
        "lat": "28.7354",
        "lng": "77.1638",
        "country": "India"
    },
    {
        "name": "A\u015f \u015euway\u1e29irah as S\u0101\u1e29il",
        "lat": "24.3620",
        "lng": "56.7344",
        "country": "Oman"
    },
    {
        "name": "Tauranga",
        "lat": "-37.6833",
        "lng": "176.1667",
        "country": "New Zealand"
    },
    {
        "name": "Miass",
        "lat": "55.0000",
        "lng": "60.1000",
        "country": "Russia"
    },
    {
        "name": "Erode",
        "lat": "11.3409",
        "lng": "77.7171",
        "country": "India"
    },
    {
        "name": "Escondido",
        "lat": "33.1348",
        "lng": "-117.0723",
        "country": "United States"
    },
    {
        "name": "Lake Charles",
        "lat": "30.2010",
        "lng": "-93.2111",
        "country": "United States"
    },
    {
        "name": "Dahuaishu",
        "lat": "36.2601",
        "lng": "111.6743",
        "country": "China"
    },
    {
        "name": "Minglanilla",
        "lat": "10.2450",
        "lng": "123.7964",
        "country": "Philippines"
    },
    {
        "name": "Chichicastenango",
        "lat": "14.9333",
        "lng": "-91.1167",
        "country": "Guatemala"
    },
    {
        "name": "\u0110\u1ee9c Ph\u1ed5",
        "lat": "14.8100",
        "lng": "108.9600",
        "country": "Vietnam"
    },
    {
        "name": "Copiap\u00f3",
        "lat": "-27.3664",
        "lng": "-70.3331",
        "country": "Chile"
    },
    {
        "name": "Tafeng",
        "lat": "25.3775",
        "lng": "112.2034",
        "country": "China"
    },
    {
        "name": "Mahmutlu",
        "lat": "39.7464",
        "lng": "39.4914",
        "country": "Turkey"
    },
    {
        "name": "B\u00fcy\u00fck \u00c7ak\u0131rman",
        "lat": "39.7464",
        "lng": "39.4914",
        "country": "Turkey"
    },
    {
        "name": "Bu\u011fdayl\u0131",
        "lat": "39.7464",
        "lng": "39.4914",
        "country": "Turkey"
    },
    {
        "name": "Eminabad",
        "lat": "32.0414",
        "lng": "74.2600",
        "country": "Pakistan"
    },
    {
        "name": "Kragujevac",
        "lat": "44.0101",
        "lng": "20.9172",
        "country": "Serbia"
    },
    {
        "name": "Pasadena",
        "lat": "29.6575",
        "lng": "-95.1498",
        "country": "United States"
    },
    {
        "name": "Bellevue",
        "lat": "47.5951",
        "lng": "-122.1535",
        "country": "United States"
    },
    {
        "name": "Logro\u00f1o",
        "lat": "42.4650",
        "lng": "-2.4456",
        "country": "Spain"
    },
    {
        "name": "Delicias",
        "lat": "28.1931",
        "lng": "-105.4717",
        "country": "Mexico"
    },
    {
        "name": "Talcahuano",
        "lat": "-36.7167",
        "lng": "-73.1219",
        "country": "Chile"
    },
    {
        "name": "Piedecuesta",
        "lat": "7.0833",
        "lng": "-73.0000",
        "country": "Colombia"
    },
    {
        "name": "Higashimurayama",
        "lat": "35.7546",
        "lng": "139.4685",
        "country": "Japan"
    },
    {
        "name": "Ipokia",
        "lat": "6.5333",
        "lng": "2.8500",
        "country": "Nigeria"
    },
    {
        "name": "Jaranwala",
        "lat": "31.3333",
        "lng": "73.4167",
        "country": "Pakistan"
    },
    {
        "name": "N\u0101ngloi J\u0101t",
        "lat": "28.6833",
        "lng": "77.0667",
        "country": "India"
    },
    {
        "name": "Joliet",
        "lat": "41.5188",
        "lng": "-88.1499",
        "country": "United States"
    },
    {
        "name": "Kukich\u016b\u014d",
        "lat": "36.0621",
        "lng": "139.6668",
        "country": "Japan"
    },
    {
        "name": "Badajoz",
        "lat": "38.8803",
        "lng": "-6.9753",
        "country": "Spain"
    },
    {
        "name": "Champaign",
        "lat": "40.1142",
        "lng": "-88.2737",
        "country": "United States"
    },
    {
        "name": "Fengyicun",
        "lat": "23.6636",
        "lng": "116.6028",
        "country": "China"
    },
    {
        "name": "Sh\u0101hr\u016bd",
        "lat": "36.4133",
        "lng": "54.9781",
        "country": "Iran"
    },
    {
        "name": "Mzuzu",
        "lat": "-11.4581",
        "lng": "34.0151",
        "country": "Malawi"
    },
    {
        "name": "Valle de Santiago",
        "lat": "20.3928",
        "lng": "-101.1914",
        "country": "Mexico"
    },
    {
        "name": "\u0110\u1ed3ng Xo\u00e0i",
        "lat": "11.5169",
        "lng": "106.8392",
        "country": "Vietnam"
    },
    {
        "name": "Valdivia",
        "lat": "-39.8139",
        "lng": "-73.2458",
        "country": "Chile"
    },
    {
        "name": "G\u00f6lba\u015f\u0131",
        "lat": "39.7953",
        "lng": "32.8028",
        "country": "Turkey"
    },
    {
        "name": "Naogaon",
        "lat": "24.8000",
        "lng": "88.9333",
        "country": "Bangladesh"
    },
    {
        "name": "Kashikishi",
        "lat": "-9.3000",
        "lng": "28.7167",
        "country": "Zambia"
    },
    {
        "name": "El Mini\u00e9",
        "lat": "34.4470",
        "lng": "35.8178",
        "country": "Lebanon"
    },
    {
        "name": "Borj Hammoud",
        "lat": "33.8936",
        "lng": "35.5403",
        "country": "Lebanon"
    },
    {
        "name": "Auchi",
        "lat": "7.0667",
        "lng": "6.2667",
        "country": "Nigeria"
    },
    {
        "name": "Chauk Azam",
        "lat": "30.9648",
        "lng": "71.2170",
        "country": "Pakistan"
    },
    {
        "name": "Yilan",
        "lat": "24.7500",
        "lng": "121.7500",
        "country": "Taiwan"
    },
    {
        "name": "Sievierodonetsk",
        "lat": "48.9481",
        "lng": "38.4933",
        "country": "Ukraine"
    },
    {
        "name": "Urganch",
        "lat": "41.5500",
        "lng": "60.6333",
        "country": "Uzbekistan"
    },
    {
        "name": "Ocumare del Tuy",
        "lat": "10.1136",
        "lng": "-66.7814",
        "country": "Venezuela"
    },
    {
        "name": "Willemstad",
        "lat": "12.1080",
        "lng": "-68.9350",
        "country": "Cura\u00e7ao"
    },
    {
        "name": "B\u00e1varo",
        "lat": "18.7167",
        "lng": "-68.4500",
        "country": "Dominican Republic"
    },
    {
        "name": "Soro",
        "lat": "21.2900",
        "lng": "86.6900",
        "country": "India"
    },
    {
        "name": "P\u00e9njamo",
        "lat": "20.4311",
        "lng": "-101.7222",
        "country": "Mexico"
    },
    {
        "name": "Mariveles",
        "lat": "14.4300",
        "lng": "120.4800",
        "country": "Philippines"
    },
    {
        "name": "Pomona",
        "lat": "34.0585",
        "lng": "-117.7626",
        "country": "United States"
    },
    {
        "name": "Saumlaki",
        "lat": "-7.9750",
        "lng": "131.3075",
        "country": "Indonesia"
    },
    {
        "name": "Villa de \u00c1lvarez",
        "lat": "19.2500",
        "lng": "-103.7333",
        "country": "Mexico"
    },
    {
        "name": "L\u00e9vis",
        "lat": "46.8000",
        "lng": "-71.1833",
        "country": "Canada"
    },
    {
        "name": "Fairfield",
        "lat": "38.2583",
        "lng": "-122.0335",
        "country": "United States"
    },
    {
        "name": "Asaba",
        "lat": "6.1833",
        "lng": "6.7333",
        "country": "Nigeria"
    },
    {
        "name": "Kerch",
        "lat": "45.3619",
        "lng": "36.4711",
        "country": "Ukraine"
    },
    {
        "name": "Concordia",
        "lat": "-31.4000",
        "lng": "-58.0333",
        "country": "Argentina"
    },
    {
        "name": "Mesquite",
        "lat": "32.7602",
        "lng": "-96.5865",
        "country": "United States"
    },
    {
        "name": "Lashio",
        "lat": "22.9333",
        "lng": "97.7500",
        "country": "Burma"
    },
    {
        "name": "Elkhart",
        "lat": "41.6916",
        "lng": "-85.9627",
        "country": "United States"
    },
    {
        "name": "Bohicon",
        "lat": "7.2000",
        "lng": "2.0667",
        "country": "Benin"
    },
    {
        "name": "Harrow",
        "lat": "51.5836",
        "lng": "-0.3464",
        "country": "United Kingdom"
    },
    {
        "name": "Rimini",
        "lat": "44.0594",
        "lng": "12.5683",
        "country": "Italy"
    },
    {
        "name": "Port Louis",
        "lat": "-20.1644",
        "lng": "57.5042",
        "country": "Mauritius"
    },
    {
        "name": "A\u011fr\u0131",
        "lat": "39.7186",
        "lng": "43.0508",
        "country": "Turkey"
    },
    {
        "name": "Naperville",
        "lat": "41.7480",
        "lng": "-88.1659",
        "country": "United States"
    },
    {
        "name": "Ma\u012bmanah",
        "lat": "35.9333",
        "lng": "64.7500",
        "country": "Afghanistan"
    },
    {
        "name": "Musashino",
        "lat": "35.7177",
        "lng": "139.5661",
        "country": "Japan"
    },
    {
        "name": "Kastamonu",
        "lat": "41.3764",
        "lng": "33.7764",
        "country": "Turkey"
    },
    {
        "name": "St. George",
        "lat": "37.0758",
        "lng": "-113.5752",
        "country": "United States"
    },
    {
        "name": "Sagay",
        "lat": "10.9000",
        "lng": "123.4200",
        "country": "Philippines"
    },
    {
        "name": "Roseville",
        "lat": "38.7703",
        "lng": "-121.3196",
        "country": "United States"
    },
    {
        "name": "\u2018Ajl\u016bn",
        "lat": "32.3325",
        "lng": "35.7517",
        "country": "Jordan"
    },
    {
        "name": "Marvdasht",
        "lat": "29.8786",
        "lng": "52.8067",
        "country": "Iran"
    },
    {
        "name": "Melitopol",
        "lat": "46.8489",
        "lng": "35.3675",
        "country": "Ukraine"
    },
    {
        "name": "Potchefstroom",
        "lat": "-26.7150",
        "lng": "27.1033",
        "country": "South Africa"
    },
    {
        "name": "Coquitlam",
        "lat": "49.2839",
        "lng": "-122.7919",
        "country": "Canada"
    },
    {
        "name": "Nek\u2019emt\u0113",
        "lat": "9.0833",
        "lng": "36.5500",
        "country": "Ethiopia"
    },
    {
        "name": "Xianshuigu",
        "lat": "38.9786",
        "lng": "117.3886",
        "country": "China"
    },
    {
        "name": "N\u016bzv\u012bd",
        "lat": "16.7881",
        "lng": "80.8465",
        "country": "India"
    },
    {
        "name": "Abbottabad",
        "lat": "34.1558",
        "lng": "73.2194",
        "country": "Pakistan"
    },
    {
        "name": "L\u00e1risa",
        "lat": "39.6417",
        "lng": "22.4167",
        "country": "Greece"
    }
]