[
    {
        "name": "S\u016bl\u016bru",
        "lat": "13.7000",
        "lng": "80.0180",
        "country": "India"
    },
    {
        "name": "Sitakili",
        "lat": "13.1075",
        "lng": "-11.2286",
        "country": "Mali"
    },
    {
        "name": "Timaru",
        "lat": "-44.3931",
        "lng": "171.2508",
        "country": "New Zealand"
    },
    {
        "name": "Nuwara Eliya",
        "lat": "6.9667",
        "lng": "80.7667",
        "country": "Sri Lanka"
    },
    {
        "name": "Verkhniy Ufaley",
        "lat": "56.0667",
        "lng": "60.2333",
        "country": "Russia"
    },
    {
        "name": "\u0130psala",
        "lat": "40.9167",
        "lng": "26.3833",
        "country": "Turkey"
    },
    {
        "name": "Triunfo",
        "lat": "-29.9428",
        "lng": "-51.7178",
        "country": "Brazil"
    },
    {
        "name": "Sint-Joost-ten-Node",
        "lat": "50.8500",
        "lng": "4.3833",
        "country": "Belgium"
    },
    {
        "name": "Tazoult-Lambese",
        "lat": "35.4900",
        "lng": "6.2600",
        "country": "Algeria"
    },
    {
        "name": "Fich\u0113",
        "lat": "9.8000",
        "lng": "38.7333",
        "country": "Ethiopia"
    },
    {
        "name": "McHenry",
        "lat": "42.3387",
        "lng": "-88.2932",
        "country": "United States"
    },
    {
        "name": "N\u0101sriganj",
        "lat": "25.0514",
        "lng": "84.3284",
        "country": "India"
    },
    {
        "name": "Sup\u00eda",
        "lat": "5.4667",
        "lng": "-75.6500",
        "country": "Colombia"
    },
    {
        "name": "Bourem",
        "lat": "16.9533",
        "lng": "-0.3539",
        "country": "Mali"
    },
    {
        "name": "Oiapoque",
        "lat": "3.8428",
        "lng": "-51.8350",
        "country": "Brazil"
    },
    {
        "name": "Bandipura",
        "lat": "34.4167",
        "lng": "74.6500",
        "country": "India"
    },
    {
        "name": "Lemon Grove",
        "lat": "32.7331",
        "lng": "-117.0344",
        "country": "United States"
    },
    {
        "name": "Kholmsk",
        "lat": "47.0500",
        "lng": "142.0500",
        "country": "Russia"
    },
    {
        "name": "Tongyangdao",
        "lat": "41.7676",
        "lng": "109.9711",
        "country": "China"
    },
    {
        "name": "Duayaw-Nkwanta",
        "lat": "7.1667",
        "lng": "-2.1000",
        "country": "Ghana"
    },
    {
        "name": "Pira\u00ed",
        "lat": "-22.6289",
        "lng": "-43.8978",
        "country": "Brazil"
    },
    {
        "name": "Konn\u016br",
        "lat": "16.2013",
        "lng": "74.7436",
        "country": "India"
    },
    {
        "name": "Ukiha",
        "lat": "33.3500",
        "lng": "130.7500",
        "country": "Japan"
    },
    {
        "name": "Aleksandrovskoye",
        "lat": "44.7167",
        "lng": "43.0000",
        "country": "Russia"
    },
    {
        "name": "\u00c1guas Santas",
        "lat": "41.2090",
        "lng": "-8.5890",
        "country": "Portugal"
    },
    {
        "name": "Schlo\u00df Holte-Stukenbrock",
        "lat": "51.8833",
        "lng": "8.6167",
        "country": "Germany"
    },
    {
        "name": "Fete\u015fti",
        "lat": "44.4150",
        "lng": "27.8236",
        "country": "Romania"
    },
    {
        "name": "Purral",
        "lat": "9.9594",
        "lng": "-84.0165",
        "country": "Costa Rica"
    },
    {
        "name": "Los Reyes de Ju\u00e1rez",
        "lat": "18.9458",
        "lng": "-97.8058",
        "country": "Mexico"
    },
    {
        "name": "Toqsu",
        "lat": "41.5417",
        "lng": "82.6040",
        "country": "China"
    },
    {
        "name": "Villa El Carmen",
        "lat": "11.9833",
        "lng": "-86.5167",
        "country": "Nicaragua"
    },
    {
        "name": "Arar",
        "lat": "30.9753",
        "lng": "41.0231",
        "country": "Saudi Arabia"
    },
    {
        "name": "Vandikarai",
        "lat": "9.9912",
        "lng": "76.8050",
        "country": "India"
    },
    {
        "name": "Maloyaroslavets",
        "lat": "55.0167",
        "lng": "36.4667",
        "country": "Russia"
    },
    {
        "name": "Algemes\u00ed",
        "lat": "39.1897",
        "lng": "-0.4378",
        "country": "Spain"
    },
    {
        "name": "Mandirituba",
        "lat": "-25.7833",
        "lng": "-49.3333",
        "country": "Brazil"
    },
    {
        "name": "Malek\u0101n",
        "lat": "37.1500",
        "lng": "46.1042",
        "country": "Iran"
    },
    {
        "name": "S\u00fcrmene",
        "lat": "40.9142",
        "lng": "40.1125",
        "country": "Turkey"
    },
    {
        "name": "Crestview",
        "lat": "30.7477",
        "lng": "-86.5785",
        "country": "United States"
    },
    {
        "name": "Mu\u2019tah",
        "lat": "31.1000",
        "lng": "35.7000",
        "country": "Jordan"
    },
    {
        "name": "Mililani Town",
        "lat": "21.4465",
        "lng": "-158.0147",
        "country": "United States"
    },
    {
        "name": "Cyangugu",
        "lat": "-2.4833",
        "lng": "28.8967",
        "country": "Rwanda"
    },
    {
        "name": "Jardim",
        "lat": "-7.5819",
        "lng": "-39.2978",
        "country": "Brazil"
    },
    {
        "name": "Wangen im Allg\u00e4u",
        "lat": "47.6858",
        "lng": "9.8342",
        "country": "Germany"
    },
    {
        "name": "Heilbron",
        "lat": "-27.2836",
        "lng": "27.9708",
        "country": "South Africa"
    },
    {
        "name": "Ru\u017eomberok",
        "lat": "49.0786",
        "lng": "19.3083",
        "country": "Slovakia"
    },
    {
        "name": "Guastatoya",
        "lat": "14.8500",
        "lng": "-90.0667",
        "country": "Guatemala"
    },
    {
        "name": "Overath",
        "lat": "50.9500",
        "lng": "7.3000",
        "country": "Germany"
    },
    {
        "name": "Caracal",
        "lat": "44.1125",
        "lng": "24.3472",
        "country": "Romania"
    },
    {
        "name": "S\u00e9bikhotane",
        "lat": "14.7469",
        "lng": "-17.1367",
        "country": "Senegal"
    },
    {
        "name": "Butzbach",
        "lat": "50.4367",
        "lng": "8.6622",
        "country": "Germany"
    },
    {
        "name": "Oppeg\u00e5rd",
        "lat": "59.7925",
        "lng": "10.7903",
        "country": "Norway"
    },
    {
        "name": "Shotley Bridge",
        "lat": "54.8700",
        "lng": "-1.8600",
        "country": "United Kingdom"
    },
    {
        "name": "S\u0101dri",
        "lat": "25.1800",
        "lng": "73.4300",
        "country": "India"
    },
    {
        "name": "Ayyagarpet",
        "lat": "17.2197",
        "lng": "80.8339",
        "country": "India"
    },
    {
        "name": "Ibipetuba",
        "lat": "-11.0000",
        "lng": "-44.5333",
        "country": "Brazil"
    },
    {
        "name": "Nalb\u0101ri",
        "lat": "26.4450",
        "lng": "91.4400",
        "country": "India"
    },
    {
        "name": "Ita\u00ed",
        "lat": "-23.4178",
        "lng": "-49.0906",
        "country": "Brazil"
    },
    {
        "name": "Penukonda",
        "lat": "14.0850",
        "lng": "77.5960",
        "country": "India"
    },
    {
        "name": "Leiderdorp",
        "lat": "52.1667",
        "lng": "4.5333",
        "country": "Netherlands"
    },
    {
        "name": "Staraya Russa",
        "lat": "58.0000",
        "lng": "31.3333",
        "country": "Russia"
    },
    {
        "name": "Itako",
        "lat": "35.9471",
        "lng": "140.5554",
        "country": "Japan"
    },
    {
        "name": "Chicago Heights",
        "lat": "41.5100",
        "lng": "-87.6345",
        "country": "United States"
    },
    {
        "name": "Ciudad Tec\u00fan Um\u00e1n",
        "lat": "14.6667",
        "lng": "-92.1500",
        "country": "Guatemala"
    },
    {
        "name": "Kedu",
        "lat": "25.7103",
        "lng": "106.8460",
        "country": "China"
    },
    {
        "name": "Balussheri",
        "lat": "11.4500",
        "lng": "75.8300",
        "country": "India"
    },
    {
        "name": "Chill\u00e1n Viejo",
        "lat": "-36.6239",
        "lng": "-72.1358",
        "country": "Chile"
    },
    {
        "name": "K\u2019ol\u012bto",
        "lat": "7.3122",
        "lng": "38.0892",
        "country": "Ethiopia"
    },
    {
        "name": "Panauti",
        "lat": "27.5833",
        "lng": "85.5167",
        "country": "Nepal"
    },
    {
        "name": "Paouignan",
        "lat": "7.6937",
        "lng": "2.2673",
        "country": "Benin"
    },
    {
        "name": "Korgan",
        "lat": "40.8247",
        "lng": "37.3467",
        "country": "Turkey"
    },
    {
        "name": "Strausberg",
        "lat": "52.5833",
        "lng": "13.8833",
        "country": "Germany"
    },
    {
        "name": "Jalpan",
        "lat": "21.2167",
        "lng": "-99.4725",
        "country": "Mexico"
    },
    {
        "name": "Varandarapilli",
        "lat": "10.4167",
        "lng": "76.3333",
        "country": "India"
    },
    {
        "name": "Green",
        "lat": "40.9483",
        "lng": "-81.4757",
        "country": "United States"
    },
    {
        "name": "King",
        "lat": "44.0463",
        "lng": "-79.6044",
        "country": "Canada"
    },
    {
        "name": "Blerick",
        "lat": "51.3667",
        "lng": "6.1500",
        "country": "Netherlands"
    },
    {
        "name": "Ikaruga",
        "lat": "34.6167",
        "lng": "135.7333",
        "country": "Japan"
    },
    {
        "name": "Parksville",
        "lat": "49.3150",
        "lng": "-124.3120",
        "country": "Canada"
    },
    {
        "name": "Aytos",
        "lat": "42.7000",
        "lng": "27.2500",
        "country": "Bulgaria"
    },
    {
        "name": "Drimmelen",
        "lat": "51.6833",
        "lng": "4.8000",
        "country": "Netherlands"
    },
    {
        "name": "Alvin",
        "lat": "29.3872",
        "lng": "-95.2938",
        "country": "United States"
    },
    {
        "name": "Shtime",
        "lat": "42.4333",
        "lng": "21.0333",
        "country": "Kosovo"
    },
    {
        "name": "Palanas",
        "lat": "12.1464",
        "lng": "123.9219",
        "country": "Philippines"
    },
    {
        "name": "Bihpur",
        "lat": "25.3889",
        "lng": "86.9337",
        "country": "India"
    },
    {
        "name": "Balch Springs",
        "lat": "32.7194",
        "lng": "-96.6151",
        "country": "United States"
    },
    {
        "name": "Casta\u00f1os",
        "lat": "26.7833",
        "lng": "-101.4167",
        "country": "Mexico"
    },
    {
        "name": "Macalelon",
        "lat": "13.7500",
        "lng": "122.1300",
        "country": "Philippines"
    },
    {
        "name": "Neenah",
        "lat": "44.1669",
        "lng": "-88.4767",
        "country": "United States"
    },
    {
        "name": "Cuer\u00e1maro",
        "lat": "20.6258",
        "lng": "-101.6739",
        "country": "Mexico"
    },
    {
        "name": "Pallippurattus\u0113ri",
        "lat": "9.7566",
        "lng": "76.3607",
        "country": "India"
    },
    {
        "name": "Chiavari",
        "lat": "44.3167",
        "lng": "9.3333",
        "country": "Italy"
    },
    {
        "name": "Navrongo",
        "lat": "10.8847",
        "lng": "-1.0903",
        "country": "Ghana"
    },
    {
        "name": "Zarraga",
        "lat": "10.8200",
        "lng": "122.6000",
        "country": "Philippines"
    },
    {
        "name": "Almu\u00f1\u00e9car",
        "lat": "36.7333",
        "lng": "-3.6833",
        "country": "Spain"
    },
    {
        "name": "Savur",
        "lat": "37.5375",
        "lng": "40.8892",
        "country": "Turkey"
    },
    {
        "name": "Pie\u0161\u0165any",
        "lat": "48.5842",
        "lng": "17.8336",
        "country": "Slovakia"
    },
    {
        "name": "Gurlan",
        "lat": "41.8500",
        "lng": "60.4000",
        "country": "Uzbekistan"
    },
    {
        "name": "Xovos",
        "lat": "40.2197",
        "lng": "68.8400",
        "country": "Uzbekistan"
    },
    {
        "name": "Ilchester",
        "lat": "39.2187",
        "lng": "-76.7683",
        "country": "United States"
    }
]